$GNRMC,170000.00,A,4843.26068,N,00920.55510,E,0.006,,070225,,,A,V*18
$GNGGA,170000.00,4843.26068,N,00920.55510,E,1,12,0.46,250.0,M,47.6,M,,*49
$GPGSV,3,1,11,07,12,316,37,08,26,292,39,10,39,158,49,13,03,027,,1*63
$GPGSV,3,2,11,15,12,057,35,16,64,210,38,18,38,059,46,23,53,096,36,1*6A
$GPGSV,3,3,11,26,37,184,45,27,63,299,,30,00,345,,1*5B
$GLGSV,3,1,09,65,05,138,,71,21,033,41,72,27,087,49,77,17,190,37,1*77
$GLGSV,3,3,09,88,64,298,44,1*40
$GAGSV,3,1,11,03,01,096,,05,07,050,25,09,01,002,,13,56,235,26,7*77
$GAGSV,3,2,11,15,66,055,43,21,55,289,40,23,10,320,37,26,05,235,,7*75
$GAGSV,3,3,11,27,53,182,43,30,08,154,45,34,14,055,41,7*41
$GBGSV,3,1,11,02,03,100,38,05,18,122,43,08,31,037,37,13,36,044,44,1*78
$GBGSV,3,2,11,19,20,045,43,21,10,151,,22,29,101,44,23,16,321,,1*71
$GBGSV,3,3,11,24,24,207,36,25,38,269,,35,18,083,46,1*41
$GNRMC,170001.00,A,4843.26069,N,00920.55513,E,0.003,,070225,,,A,V*1E
$GNGGA,170001.00,4843.26069,N,00920.55513,E,1,12,0.46,249.9,M,47.6,M,,*4B
$GPGSV,3,1,11,07,13,315,37,08,26,292,38,10,39,158,49,13,03,027,,1*60
$GPGSV,3,2,11,15,12,057,33,16,64,210,38,18,38,059,46,23,53,096,37,1*6D
$GPGSV,3,3,11,26,37,184,45,27,63,299,,30,00,345,,1*5B
$GLGSV,3,1,09,65,05,138,,71,21,033,41,72,27,087,49,77,17,190,37,1*77
$GLGSV,3,2,09,78,53,252,42,79,31,322,38,81,15,262,40,87,40,053,45,1*7D
$GLGSV,3,3,09,88,64,298,44,1*40
$GAGSV,3,1,11,03,01,096,,05,07,050,24,09,01,002,,13,56,235,26,7*76
$GAGSV,3,2,11,15,66,055,43,21,55,289,40,23,10,320,37,26,05,235,,7*75
$GAGSV,3,3,11,27,53,182,44,30,08,154,45,34,14,055,41,7*46
$GBGSV,3,1,11,02,03,100,38,05,18,122,43,08,31,037,37,13,36,044,44,1*78
$GBGSV,3,2,11,19,20,045,43,21,10,151,,22,29,101,44,23,16,321,,1*71
$GBGSV,3,3,11,24,24,207,36,25,38,269,,35,18,083,46,1*41
$GNRMC,170002.00,A,4843.26070,N,00920.55517,E,0.007,,070225,,,A,V*15
$GNGGA,170002.00,4843.26070,N,00920.55517,E,1,12,0.46,249.9,M,47.6,M,,*44
$GPGSV,3,1,11,07,13,315,37,08,27,292,38,10,39,158,49,13,03,027,,1*61
$GPGSV,3,2,11,15,12,057,32,16,64,210,38,18,38,059,46,23,53,096,37,1*6C
$GPGSV,3,3,11,26,37,184,45,27,63,299,,30,00,345,,1*5B
$GLGSV,3,1,09,65,05,138,,71,21,033,40,72,27,087,49,77,17,190,37,1*76
$GLGSV,3,2,09,78,53,252,42,79,31,322,37,81,15,262,40,87,40,053,45,1*72
$GLGSV,3,3,09,88,64,298,44,1*40
$GAGSV,3,1,11,03,01,096,,05,07,050,23,09,01,002,,13,56,235,26,7*71
$GAGSV,3,2,11,15,66,055,43,21,55,289,40,23,10,320,37,26,05,235,,7*75
$GAGSV,3,3,11,27,53,182,43,30,08,154,45,34,14,055,41,7*41
$GBGSV,3,1,11,02,03,100,38,05,18,122,43,08,31,037,37,13,36,044,45,1*79
$GBGSV,3,2,11,19,20,045,43,21,10,151,,22,29,101,44,23,16,321,,1*71
$GBGSV,3,3,11,24,24,207,37,25,38,269,,35,18,083,46,1*40
$GNRMC,170003.00,A,4843.26071,N,00920.55520,E,0.006,,070225,,,A,V*10
$GNGGA,170003.00,4843.26071,N,00920.55520,E,1,12,0.46,249.9,M,47.6,M,,*40
$GPGSV,3,1,11,07,13,315,37,08,27,292,38,10,39,158,49,13,03,027,,1*61
$GPGSV,3,2,11,15,12,057,30,16,64,210,38,18,38,059,46,23,53,096,37,1*6E
$GPGSV,3,3,11,26,37,184,45,27,63,299,,30,00,345,,1*5B
$GLGSV,3,1,09,65,05,138,,71,21,033,39,72,27,087,49,77,17,190,36,1*79
$GLGSV,3,2,09,78,53,252,42,79,31,322,37,81,15,262,40,87,40,053,45,1*72
$GLGSV,3,3,09,88,64,298,45,1*41
$GAGSV,3,1,11,03,01,096,,05,07,050,22,09,01,002,,13,56,235,26,7*70
$GAGSV,3,2,11,15,66,055,43,21,55,289,40,23,10,320,38,26,05,235,,7*7A
$GAGSV,3,3,11,27,53,182,44,30,08,154,45,34,14,055,41,7*46
$GBGSV,3,1,11,02,03,100,38,05,18,122,43,08,31,037,37,13,36,044,45,1*79
$GBGSV,3,2,11,19,20,045,43,21,10,151,,22,29,101,44,23,16,321,,1*71
$GBGSV,3,3,11,24,24,207,37,25,38,269,,35,18,083,46,1*40
$GNRMC,170004.00,A,4843.26072,N,00920.55523,E,0.005,,070225,,,A,V*14
$GNGGA,170004.00,4843.26072,N,00920.55523,E,1,12,0.46,249.8,M,47.6,M,,*46
$GPGSV,3,1,11,07,13,315,37,08,27,292,38,10,39,157,49,13,03,027,,1*6E
$GPGSV,3,2,11,15,12,057,28,16,64,210,38,18,38,059,46,23,53,096,37,1*67
$GPGSV,3,3,11,26,37,184,45,27,63,299,,30,00,345,,1*5B
$GLGSV,3,1,09,65,05,138,,71,21,033,38,72,27,087,49,77,17,190,36,1*78
$GLGSV,3,2,09,78,53,252,41,79,31,322,37,81,15,262,40,87,40,053,45,1*71
$GLGSV,3,3,09,88,64,298,45,1*41
$GAGSV,3,1,11,03,01,096,,05,07,050,21,09,01,002,,13,56,235,28,7*7D
$GAGSV,3,2,11,15,66,055,43,21,55,289,41,23,10,320,38,26,05,235,,7*7B
$GAGSV,3,3,11,27,53,182,44,30,08,154,45,34,14,055,41,7*46
$GBGSV,3,1,11,02,03,100,39,05,18,122,43,08,31,037,37,13,36,044,44,1*79
$GBGSV,3,2,11,19,20,045,43,21,10,151,,22,29,101,44,23,16,321,,1*71
$GBGSV,3,3,11,24,24,207,37,25,38,269,,35,18,083,46,1*40
$GNRMC,170005.00,A,4843.26073,N,00920.55525,E,0.013,,070225,,,A,V*15
$GNGGA,170005.00,4843.26073,N,00920.55525,E,1,12,0.46,249.8,M,47.6,M,,*40
$GPGSV,3,1,11,07,13,315,37,08,27,292,38,10,39,157,50,13,03,027,,1*66
$GPGSV,3,2,11,15,12,057,25,16,64,210,39,18,38,059,46,23,53,096,37,1*6B
$GPGSV,3,3,11,26,37,184,45,27,63,299,,30,00,345,,1*5B
$GLGSV,3,1,09,65,05,138,,71,21,033,37,72,27,087,49,77,17,190,36,1*77
$GLGSV,3,2,09,78,53,252,41,79,31,322,37,81,15,262,40,87,40,053,45,1*71
$GLGSV,3,3,09,88,64,298,45,1*41
$GAGSV,3,1,11,03,01,096,,05,07,050,18,09,01,002,,13,56,235,28,7*77
$GAGSV,3,2,11,15,66,055,42,21,55,289,41,23,10,320,37,26,05,235,,7*75
$GAGSV,3,3,11,27,53,182,44,30,08,154,45,34,14,055,41,7*46
$GBGSV,3,1,11,02,03,100,38,05,18,122,43,08,31,037,37,13,36,044,44,1*78
$GBGSV,3,2,11,19,20,045,43,21,10,151,,22,29,101,44,23,16,321,,1*71
$GBGSV,3,3,11,24,24,207,37,25,38,269,,35,18,083,46,1*40
$GNRMC,170006.00,A,4843.26074,N,00920.55527,E,0.005,,070225,,,A,V*14
$GNGGA,170006.00,4843.26074,N,00920.55527,E,1,12,0.47,249.8,M,47.6,M,,*47
$GPGSV,3,1,11,07,13,315,37,08,27,292,38,10,39,157,50,13,03,027,,1*66
$GPGSV,3,2,11,15,12,057,,16,64,210,40,18,38,059,46,23,53,096,37,1*62
$GPGSV,3,3,11,26,37,184,45,27,63,299,,30,00,345,,1*5B
$GLGSV,3,1,09,65,05,138,,71,21,033,38,72,27,087,49,77,17,190,37,1*79
$GLGSV,3,2,09,78,53,252,41,79,31,322,37,81,15,262,40,87,40,053,45,1*71
$GLGSV,3,3,09,88,64,298,45,1*41
$GAGSV,3,1,11,03,01,096,,5,07,050,16,09,01,002,,13,56,235,28,7*79
$GAGSV,3,2,11,15,66,055,42,21,55,289,41,23,10,320,38,26,05,235,,7*7A
$GAGSV,3,3,11,27,53,182,44,30,08,154,45,34,14,055,41,7*46
$GBGSV,3,1,11,02,03,100,38,05,18,122,43,08,31,037,37,13,36,044,44,1*78
$GBGSV,3,2,11,19,20,045,43,21,10,151,,22,29,101,44,23,16,321,,1*71
$GBGSV,3,3,11,24,24,207,37,25,38,269,,35,18,083,45,1*43
$GNRMC,170007.00,A,4843.26075,N,00920.55527,E,0.026,,070225,,,A,V*15
$GNGGA,170007.00,4843.26075,N,00920.55527,E,1,12,0.47,249.8,M,47.6,M,,*47
$GPGSV,3,1,11,07,13,315,37,08,27,292,38,10,39,157,50,13,03,026,,1*67
$GPGSV,3,2,11,15,12,057,,16,64,210,41,18,38,059,46,23,53,096,36,1*62
$GPGSV,3,3,11,26,37,184,44,27,63,299,,30,00,345,,1*5A
$GLGSV,3,1,09,65,05,138,,71,21,033,40,72,27,087,49,77,17,190,37,1*76
$GLGSV,3,2,09,78,53,252,40,79,31,322,38,81,15,262,39,87,40,053,45,1*71
$GLGSV,3,3,09,88,64,298,44,1*40
$GAGSV,3,1,11,03,01,096,,05,07,050,13,09,01,002,,13,56,235,29,7*7D
$GAGSV,3,2,11,15,66,055,42,21,55,289,41,23,10,320,38,26,05,235,,7*7A
$GAGSV,3,3,11,27,53,182,44,30,08,154,45,34,14,055,41,7*46
$GBGSV,3,1,11,02,03,100,38,05,18,122,43,08,31,037,37,13,36,044,44,1*78
$GBGSV,3,2,11,19,20,045,43,21,10,151,,22,29,101,45,23,16,321,,1*70
$GBGSV,3,3,11,24,24,207,37,25,38,269,,35,18,083,45,1*43
$GNRMC,170008.00,A,4843.26077,N,00920.55528,E,0.006,,070225,,,A,V*15
$GNGGA,170008.00,4843.26077,N,00920.55528,E,1,12,0.46,249.7,M,47.6,M,,*4B
$GPGSV,3,1,11,07,13,315,37,08,27,292,38,10,39,157,50,13,03,026,,1*67
$GPGSV,3,2,11,15,12,057,,16,64,210,42,18,38,059,45,23,53,096,37,1*63
$GPGSV,3,3,11,26,37,184,44,27,63,299,,30,00,345,,1*5A
$GLGSV,3,1,09,65,05,138,,71,21,033,39,72,27,087,49,77,17,190,37,1*78
$GLGSV,3,2,09,78,53,252,40,79,31,322,38,81,15,262,38,87,40,053,45,1*70
$GLGSV,3,3,09,88,64,298,44,1*40
$GAGSV,3,1,11,03,01,096,,05,07,050,,09,01,002,,13,56,235,29,7*7F
$GAGSV,3,2,11,15,66,055,42,21,55,289,41,23,10,320,37,26,05,235,,7*75
$GAGSV,3,3,11,27,53,182,44,30,08,154,45,34,14,055,41,7*46
$GBGSV,3,1,11,02,03,100,38,05,18,122,43,08,31,037,37,13,36,044,45,1*79
$GBGSV,3,2,11,19,20,045,43,21,10,151,,22,29,101,45,23,16,321,,1*70
$GBGSV,3,3,11,24,24,207,37,25,38,269,,35,18,083,45,1*43
$GNRMC,170009.00,A,4843.26079,N,00920.55528,E,0.046,,070225,,A,V*1E
$GNGGA,170009.00,4843.26079,N,00920.55528,E,1,12,0.46,249.7,M,47.6,M,,*44
$GPGSV,3,1,11,07,13,315,37,08,27,292,38,10,39,157,50,13,03,026,,1*67
$GPGSV,3,2,11,15,12,057,,16,64,210,42,18,38,059,45,23,53,096,37,1*63
$GPGSV,3,3,11,26,37,184,44,27,63,299,,30,00,345,,1*5A
$GLGSV,3,1,09,65,05,138,,71,21,033,40,72,27,087,49,77,17,190,36,1*77
$GLGSV,3,2,09,78,53,252,40,79,31,322,39,81,15,262,39,87,40,053,45,1*70
$GLGSV,3,3,09,88,64,298,45,1*41
$GAGSV,3,1,11,03,01,096,,05,07,050,27,09,01,002,,13,56,235,30,7*72
$GAGSV,3,2,11,15,66,055,42,21,55,289,41,23,10,320,38,26,05,235,,7*7A
$GAGSV,3,3,11,27,53,182,44,30,08,154,45,34,14,055,41,7*46
$GBGSV,3,1,11,02,03,100,38,05,18,122,43,08,31,037,37,13,36,044,44,1*78
$GBGSV,3,2,11,19,20,045,43,21,10,151,,22,29,101,45,23,16,321,,1*70
$GBGSV,3,3,11,24,24,207,38,25,38,269,,35,18,083,45,1*4C
$GNGGA,170010.00,4843.26081,N,00920.55529,E,1,12,0.46,249.6,M,47.6,M,,*4B
$GPGSV,3,1,11,07,13,315,37,08,27,292,38,10,39,157,50,13,03,026,,1*67
$GPGSV,3,2,11,15,12,057,,16,63,209,42,18,38,059,45,23,53,096,36,1*6D
$GPGSV,3,3,11,26,37,184,44,27,63,299,,30,00,345,,1*5A
$GLGSV,3,1,09,65,05,138,,71,21,033,40,72,27,086,49,77,16,190,36,1*77
$GLGSV,3,2,09,78,53,251,40,79,31,322,38,81,15,262,39,87,40,053,45,1*72
$GLGSV,3,3,09,88,64,299,45,1*40
$GAGSV,3,1,11,03,01,096,,05,07,050,25,09,01,002,,13,56,235,29,7*78
$GAGSV,3,2,11,15,66,055,42,21,55,289,41,23,10,320,37,26,05,235,,7*75
$GAGSV,3,3,11,27,53,182,44,30,08,154,45,34,14,055,41,7*46
$GBGSV,3,1,11,02,03,100,38,05,18,122,43,08,31,037,37,13,36,044,45,1*79
$GBGSV,3,2,11,19,20,045,43,21,10,151,,22,29,101,45,23,16,321,,1*70
$GBGSV,3,3,11,24,24,207,37,25,38,269,,35,18,083,45,1*43
$GNRMC,170011.00,A,4843.26082,N,00920.55530,E,0.007,,070225,,,A,V*1F
$GNGGA,170011.00,4843.26082,N,00920.55530,E,1,12,0.46,249.5,M,47.6,M,,*42
$GPGSV,3,1,11,07,13,315,37,08,27,292,38,10,39,157,51,13,03,026,,1*66
$GPGSV,3,2,11,15,12,057,,16,63,209,42,18,38,059,45,23,53,096,36,1*6D
$GPGSV,3,3,11,26,37,184,44,27,63,299,,30,00,345,,1*5A
$GLGSV,3,1,09,65,05,138,,71,21,033,40,72,27,086,49,77,16,190,36,1*77
$GLGSV,3,2,09,78,53,251,40,79,31,322,38,81,15,262,39,87,40,053,45,1*72
$GLGSV,3,3,09,88,64,299,45,1*40
$GAGSV,3,1,11,03,01,096,,05,07,050,24,09,01,002,,13,56,235,29,7*79
$GAGSV,3,2,11,15,66,055,42,21,55,289,41,23,10,320,37,26,05,235,,7*75
$GAGSV,3,3,11,27,53,182,44,30,08,154,45,34,14,055,41,7*46
$GBGSV,3,1,11,02,03,100,38,05,18,122,43,08,31,037,37,13,36,044,45,1*79
$GBGSV,3,2,11,19,20,045,43,21,10,151,,22,29,101,45,23,16,321,,1*70
$GBGSV,3,3,11,24,24,207,38,25,38,269,,35,18,083,45,1*4C
$GNRMC,170012.00,A,4843.26084,N,00920.55530,E,0.020,,070225,,,A,V*1F
$GNGGA,170012.00,4843.26084,N,00920.55530,E,1,12,0.46,249.4,M,47.6,M,,*46
$GPGSV,3,1,11,07,13,315,36,08,27,292,38,10,39,157,51,13,03,026,,1*67
$GPGSV,3,2,11,15,12,057,,16,63,209,43,18,37,059,45,23,53,096,35,1*60
$GPGSV,3,3,11,26,37,184,44,27,63,299,,30,00,345,,1*5A
$GLGSV,3,1,09,65,05,138,,71,21,033,40,72,27,086,49,77,16,190,36,1*77
$GLGSV,3,2,09,78,53,251,39,79,31,322,38,81,15,262,38,87,40,053,46,1*7E
$GLGSV,3,3,09,88,64,299,45,1*40
$GAGSV,3,1,11,03,01,096,,05,07,050,24,09,01,002,,13,56,235,29,7*79
$GAGSV,3,2,11,15,66,055,42,21,55,289,41,23,10,320,37,26,05,235,,7*75
$GAGSV,3,3,11,27,53,182,44,30,08,154,45,34,14,055,41,7*46
$GBGSV,3,1,11,02,03,100,38,05,18,122,43,08,31,037,37,13,36,044,44,1*78
$GBGSV,3,2,11,19,20,045,43,21,10,151,,22,29,101,45,23,16,321,,1*70
$GBGSV,3,3,11,24,24,207,38,25,38,269,,35,18,083,45,1*4C
$GNRMC,170013.00,A,4843.26086,N,00920.55532,E,0.032,,070225,,,A,V*1D
$GNGGA,170013.00,4843.26086,N,00920.55532,E,1,12,0.46,249.4,M,47.6,M,,*47
$GPGSV,3,1,11,07,13,315,36,08,27,292,38,10,39,157,51,13,03,026,,1*67
$GPGSV,3,2,11,15,12,057,,16,63,209,43,18,37,059,45,23,53,096,35,1*60
$GPGSV,3,3,11,26,37,184,44,27,63,299,36,30,00,345,,1*5F
$GLGSV,3,1,09,65,05,138,,71,21,033,39,72,27,086,49,77,16,190,35,1*7A
$GLGSV,3,2,09,78,53,251,39,79,31,322,38,81,15,262,37,87,40,053,46,1*71
$GLGSV,3,3,09,88,64,299,45,1*40
$GAGSV,3,1,11,03,01,096,,05,07,050,24,09,01,002,,13,56,235,29,7*79
$GAGSV,3,2,11,15,66,055,41,21,55,289,41,23,10,320,37,26,05,235,,7*76
$GAGSV,3,3,11,27,53,182,44,30,08,154,45,34,14,055,41,7*46
$GBGSV,3,1,11,02,03,100,38,05,18,122,43,08,31,037,37,13,36,044,45,1*79
$GBGSV,3,2,11,19,20,045,43,21,10,151,,22,29,101,46,23,16,321,,1*73
$GBGSV,3,3,11,24,24,207,38,25,38,269,,35,18,083,45,1*4C
$GNGGA,170014.00,4843.26088,N,00920.55533,E,1,12,0.46,249.4,M,47.6,M,,*4F
$GPGSV,3,1,11,07,13,315,36,08,27,292,38,10,39,157,51,13,03,026,,1*67
$GPGSV,3,2,11,15,12,057,,16,63,209,43,18,37,059,45,23,53,096,36,1*63
$GPGSV,3,3,11,26,37,184,44,27,63,299,35,30,00,345,,1*5C
$GLGSV,3,1,09,65,05,138,,71,21,033,40,72,27,086,49,77,16,190,35,1*74
$GLGSV,3,2,09,78,53,251,39,79,31,322,37,81,15,262,38,87,40,053,46,1*71
$GLGSV,3,3,09,88,64,299,45,1*40
$GAGSV,3,1,11,03,01,096,,05,07,050,24,09,01,002,,13,56,235,29,7*79
$GAGSV,3,2,11,15,66,055,41,21,55,289,41,23,10,320,37,26,05,235,,7*76
$GAGSV,3,3,11,27,53,182,44,30,08,154,45,34,14,055,41,7*46
$GBGSV,3,1,11,02,03,100,38,05,18,122,43,08,31,037,37,13,36,044,45,1*79
$GBGSV,3,2,11,19,20,045,43,21,10,151,,22,29,101,46,23,16,321,,1*73
$GBGSV,3,3,11,24,24,207,38,25,38,269,,35,18,083,45,1*4C
$GNRMC,170015.00,A,4843.26090,N,00920.55534,E,0.053,,070225,,,A,V*1D
$GNGGA,170015.00,4843.26090,N,00920.55534,E,1,12,0.46,249.2,M,47.6,M,,*46
$GPGSV,3,1,11,07,13,315,35,08,27,292,38,10,39,157,51,13,03,026,,1*64
$GPGSV,3,2,11,15,12,057,,16,63,209,43,18,37,059,45,23,53,096,36,1*63
$GPGSV,3,3,11,26,37,184,44,27,63,299,35,30,00,345,,1*5C
$GLGSV,3,1,09,65,05,138,,71,21,033,40,72,27,086,48,77,16,190,35,1*75
$GLGSV,3,2,09,78,53,251,39,79,31,322,38,81,15,262,37,87,40,053,46,1*71
$GLGSV,3,3,09,88,64,299,45,1*40
$GAGSV,3,1,11,03,01,096,,05,07,050,25,09,01,002,,13,56,235,29,7*78
$GAGSV,3,2,11,15,66,055,41,21,55,289,42,23,10,320,37,26,05,235,,7*75
$GAGSV,3,3,11,27,53,182,44,30,08,154,45,34,14,055,41,7*46
$GBGSV,3,1,11,02,03,100,38,05,18,122,43,08,31,037,37,13,36,044,45,1*79
$GBGSV,3,211,19,20,045,43,21,10,151,,22,29,101,46,23,16,321,,1*73
$GBGSV,3,3,11,24,24,207,39,25,38,269,,35,18,083,45,1*4D
$GNRMC,170016.00,A,4843.26092,N,00920.55535,E,0.011,,070225,,,A,V*1B
$GNGGA,170016.00,4843.26092,N,00920.55535,E,1,12,0.46,249.2,M,47.6,M,,*46
$GPGSV,3,1,11,07,13,315,35,08,27,292,39,10,39,157,50,13,03,026,,1*64
$GPGSV,3,2,11,15,12,057,,16,63,209,42,18,37,059,45,23,53,095,37,1*60
$GPGSV,3,3,11,26,37,184,43,27,63,299,35,30,00,345,,1*5B
$GLGSV,3,1,09,65,05,138,,71,21,033,40,72,27,086,48,77,16,190,35,1*75
$GLGSV,3,2,09,78,53,251,38,79,31,322,38,81,15,262,37,87,40,053,46,1*70
$GLGSV,3,3,09,88,64,299,45,1*40
$GAGSV,3,1,11,03,01,096,,05,07,050,25,09,01,002,,13,56,235,29,7*78
$GAGSV,3,2,11,15,66,055,41,21,55,289,42,23,10,320,37,26,05,235,,7*75
$GAGSV,3,3,11,27,53,182,44,30,08,154,45,34,14,055,41,7*46
$GBGSV,3,1,11,02,03,100,38,05,18,122,43,08,30,037,37,13,36,044,45,1*78
$GBGSV,3,2,11,19,20,044,43,21,10,151,,22,29,101,46,23,16,321,,1*72
$GBGSV,3,3,11,24,23,207,39,25,38,269,,35,18,083,45,1*4A
$GNGGA,170017.00,4843.26094,N,00920.55536,E,1,12,0.46,249.1,M,47.6,M,,*41
$GPGSV,3,1,11,07,13,315,35,08,27,292,39,10,39,157,50,13,03,026,,1*64
$GPGSV,3,2,11,15,12,057,,16,63,209,42,18,37,059,45,23,53,095,37,1*60
$GPGSV,3,3,11,26,37,184,43,27,63,299,35,30,00,345,,1*5B
$GLGSV,3,1,09,65,05,138,,71,21,033,40,72,27,086,48,77,16,190,36,1*76
$GLGSV,3,2,09,78,53,251,38,79,31,322,38,81,15,262,38,87,40,053,46,1*7F
$GAGSV,3,1,11,03,01,096,,05,07,050,25,09,01,002,,13,56,235,29,7*78
$GAGSV,3,2,11,15,66,055,41,21,55,289,42,23,10,320,37,26,05,235,,7*75
$GAGSV,3,3,11,27,53,182,44,30,08,154,45,34,14,055,41,7*46
$GBGSV,3,1,11,02,03,100,38,05,18,122,43,08,30,037,37,13,36,044,45,1*78
$GBGSV,3,2,11,19,20,044,43,21,10,151,,22,29,101,47,23,16,321,,1*73
$GBGSV,3,3,11,24,23,207,39,25,3,269,,35,18,083,45,1*4A
$GNRMC,170018.00,A,4843.26095,N,00920.55537,E,0.024,,070225,,,A,V*16
$GNGGA,170018.00,4843.26095,N,00920.55537,E,1,12,0.46,249.1,M,47.6,M,,*4E
$GPGSV,3,1,11,07,13,315,34,08,27,292,39,10,39,157,50,13,03,026,,1*65
$GPGSV,3,2,11,15,12,057,,16,63,209,42,18,37,059,45,23,53,095,37,1*60
$GPGSV,3,3,11,26,37,184,43,27,63,299,35,30,00,345,,1*5B
$GLGSV,3,1,09,65,05,138,,71,21,033,39,72,27,086,48,77,16,190,36,1*78
$GLGSV,3,2,09,78,53,251,37,79,31,322,39,81,15,262,37,87,40,053,45,1*7D
$GLGSV,3,3,09,88,64,299,45,1*40
$GAGSV,3,1,11,03,01,096,,05,07,050,25,09,01,002,,13,56,235,29,7*78
$GAGSV,3,2,11,15,66,055,41,21,55,289,42,23,10,320,37,26,05,235,,7*75
$GAGSV,3,3,11,27,53,182,44,30,08,154,45,34,14,055,41,7*46
$GBGSV,3,2,11,19,20,044,43,21,10,151,,22,29,101,47,23,16,321,,1*73
$GBGSV,3,3,11,24,23,207,39,25,38,269,,35,18,083,45,1*4A
$GNRMC,170019.00,A,4843.26097,N,00920.55538,E,0.011,,070225,,,A,V*1C
$GNGGA,170019.00,4843.26097,N,00920.55538,E,1,12,0.46,249.1,M,47.6,M,,*42
$GPGSV,3,1,11,07,13,315,34,08,27,292,38,10,39,157,50,13,03,026,,1*64
$GPGSV,3,2,11,15,12,057,,16,63,209,41,18,37,059,45,23,53,095,37,1*63
$GPGSV,3,3,11,26,36,184,43,27,63,299,35,30,00,345,,1*5A
$GLGSV,3,1,09,65,05,138,,71,21,033,39,72,27,086,48,77,16,190,36,1*78
$GLGSV,3,2,09,78,53,251,36,79,31,322,40,81,15,262,37,87,40,053,45,1*72
$GLGSV,3,3,09,88,64,299,45,1*40
$GAGSV,3,1,11,03,01,096,,05,07,050,24,09,01,002,,13,56,235,29,7*79
$GAGSV,3,2,11,15,66,055,41,21,55,289,42,23,10,320,37,26,05,235,,7*75
$GAGSV,3,3,11,27,53,182,44,30,08,154,46,34,14,055,41,7*45
$GBGSV,3,1,11,02,03,100,38,05,18,122,43,08,30,037,37,13,36,044,45,1*78
$GBGSV,3,2,11,19,20,044,43,21,10,151,,22,29,101,47,23,16,321,,1*73
$GBGSV,3,3,11,24,23,207,39,25,38,269,,35,18,083,45,1*4A
$GNRMC,170020.00,A,4843.26098,N,00920.55538,E,0.036,,070225,,,A,V*1C
$GNGGA,170020.00,4843.26098,N,00920.55538,E,1,12,0.46,249.1,M,47.6,M,,*47
$GPGSV,3,1,11,07,13,315,34,08,27,292,39,10,39,157,50,13,03,026,,1*65
$GPGSV,3,2,11,15,12,057,,16,63,209,41,18,37,059,45,23,53,095,37,1*63
$GPGSV,3,3,11,26,36,184,43,27,64,299,35,30,00,345,,1*5D
$GLGSV,3,1,09,65,05,138,,71,21,033,39,72,27,086,48,77,16,190,36,1*78
$GLGSV,3,2,09,78,53,251,35,79,31,322,40,81,15,262,37,87,40,053,45,1*71
$GLGSV,3,3,09,88,64,299,45,1*40
$GAGSV,3,1,11,03,01,096,,05,07,050,24,09,01,002,,13,56,235,29,7*79
$GAGSV,3,2,11,15,66,055,41,21,55,289,42,23,10,320,37,26,05,235,,7*75
$GAGSV,3,3,11,27,53,182,44,30,08,154,45,34,14,055,42,7*45
$GBGSV,3,1,11,02,03,100,38,05,18,122,43,08,30,037,37,13,36,044,45,1*78
$GBGSV,3,2,11,19,20,044,44,21,10,151,,22,29,101,47,23,16,321,,1*74
$GBGSV,3,3,11,24,23,207,40,25,38,269,,35,18,083,45,1*44
$GNRMC,170021.00,A,4843.26099,N,00920.55538,E,0.022,,070225,,,A,V*19
$GNGGA,170021.00,4843.26099,N,00920.55538,E,1,12,0.46,249.1,M,47.6,M,,*47
$GPGSV,3,1,11,07,13,315,34,08,27,292,39,10,39,157,50,13,03,026,,1*65
$GPGSV,3,2,11,15,12,057,,16,63,209,41,18,37,059,45,23,53,095,38,1*6C
$GPGSV,3,3,11,26,36,184,43,27,64,299,35,30,00,345,,1*5D
$GLGSV,3,1,09,65,05,138,,71,21,033,40,72,27,086,48,77,16,190,36,1*76
$GLGSV,3,2,09,78,53,251,34,79,31,322,41,81,15,262,36,87,40,053,45,1*70
$GLGSV,3,3,09,88,64,299,46,1*43
$GAGSV,3,1,11,03,01,096,,05,07,050,22,09,01,002,,13,56,235,29,7*7F
$GAGSV,3,2,11,15,66,055,41,21,55,289,42,23,10,320,37,26,05,235,,7*75
$GAGSV,3,3,11,27,53,182,44,30,08,154,45,34,14,055,42,7*45
$GBGSV,3,1,11,02,03,100,38,05,18,122,43,08,30,037,37,13,36,044,44,1*79
$GBGSV,3,2,11,19,20,044,44,21,10,151,,22,29,101,47,23,16,321,,1*74
$GBGSV,3,3,11,24,23,207,40,25,38,269,,35,18,083,45,1*44
$GNRMC,170022.00,A,4843.26101,N,00920.55539,E,0.011,,070225,,,A,V*1B
$GNGGA,170022.00,4843.26101,N,00920.55539,E,1,12,0.46,249.1,M,47.6,M,,*45
$GPGSV,3,1,11,07,13,315,33,08,27,292,39,10,39,157,50,13,03,026,,1*62
$GPGSV,3,2,11,15,12,057,,16,63,209,40,18,37,059,45,23,53,095,38,1*6D
$GPGSV,3,3,11,26,36,184,43,27,64,299,36,30,00,345,,1*5E
$GLGSV,3,1,09,65,05,138,,71,21,033,40,72,27,086,48,77,16,190,36,1*76
$GLGSV,3,2,09,78,53,251,34,79,31,322,42,81,15,262,37,87,40,053,45,1*72
$GLGSV,3,3,09,88,64,299,46,1*43
$GAGSV,3,1,11,03,01,096,,05,07,050,20,09,01,002,,13,56,235,29,7*7D
$GAGSV,3,2,11,15,66,055,41,21,55,289,42,23,10,320,37,26,05,235,,7*75
$GAGSV,3,3,11,27,53,182,43,30,08,154,46,34,14,055,42,7*41
$GBGSV,3,1,11,02,03,100,38,05,18,122,43,08,30,037,37,13,36,044,45,1*78
$GBGSV,3,211,19,20,044,44,21,10,151,,22,29,101,47,23,16,321,,1*74
$GBGSV,3,3,11,24,23,207,40,25,38,269,,35,18,083,45,1*44
$GNRMC,170023.00,A,4843.26102,N,00920.55540,E,0.010,,070225,,,A,V*16
$GNGGA,170023.00,4843.26102,N,00920.55540,E,1,12,0.46,249.1,M,47.6,M,,*49
$GPGSV,3,1,11,07,13,315,33,08,27,292,39,10,39,157,49,13,03,026,,1*6A
$GPGSV,3,2,11,15,12,057,,16,63,209,40,18,37,059,45,23,53,095,37,1*62
$GPGSV,3,3,11,26,36,184,44,27,64,299,36,30,00,344,,1*58
$GLGSV,3,1,09,65,05,138,,71,21,033,41,72,27,086,48,77,16,190,37,1*76
$GLGSV,3,2,09,78,53,251,34,79,31,322,41,81,15,262,37,87,40,053,45,1*71
$GLGSV,3,3,09,88,64,299,46,1*43
$GAGSV,3,1,11,03,01,096,,05,07,050,18,09,01,002,,13,56,235,29,7*76
$GAGSV,3,2,11,15,66,055,41,21,55,289,42,23,10,320,37,26,05,235,,7*75
$GAGSV,3,3,11,27,53,182,43,30,08,154,45,34,14,055,42,7*42
$GBGSV,3,1,11,02,03,100,38,05,18,122,43,08,30,037,37,13,36,044,45,1*78
$GBGSV,3,2,11,19,20,044,44,21,10,151,,22,29,101,46,23,16,321,,1*75
$GBGSV,3,3,11,24,23,207,40,25,38,269,,35,18,083,46,1*47
$GNRMC,170024.00,A,4843.26103,N,00920.55541,E,0.005,,070225,,,A,V*15
$GNGGA,170024.00,4843.26103,N,00920.55541,E,1,12,0.46,249.2,M,47.6,M,,*4D
$GPGSV,3,1,11,07,13,315,33,08,27,292,39,10,39,157,49,13,03,026,,1*6A
$GPGSV,3,2,11,15,12,057,,16,63,209,40,18,37,059,45,23,53,095,37,1*62
$GPGSV,3,3,11,26,36,184,44,27,64,299,37,30,00,344,,1*59
$GLGSV,3,1,09,65,05,138,,71,21,033,41,72,27,086,47,77,16,190,37,1*79
$GLGSV,3,2,09,78,53,251,33,79,31,322,42,81,15,262,38,87,40,053,45,1*7A
$GLGSV,3,3,09,88,64,299,46,1*43
$GAGSV,3,1,11,03,01,096,,05,07,050,18,09,01,002,,13,56,235,30,7*7E
$GAGSV,3,2,11,15,66,055,41,21,55,289,42,23,10,320,37,26,05,235,,7*75
$GAGSV,3,3,11,27,53,182,43,30,08,154,46,34,14,055,42,7*41
$GBGSV,3,1,11,02,03,100,38,05,18,122,43,08,30,037,37,13,36,044,45,1*78
$GBGSV,3,2,11,19,20,044,44,21,10,151,,22,29,101,46,23,16,321,,1*75
$GBGSV,3,3,11,24,23,207,40,25,38,269,,35,18,083,46,1*47
$GNRMC,170025.00,A,4843.26103,N,00920.55542,E,0.003,,070225,,,A,V*11
$GNGGA,170025.00,4843.26103,N,00920.55542,E,1,12,0.46,249.2,M,47.6,M,,*4F
$GPGSV,3,1,11,07,13,315,34,08,27,292,39,10,39,157,49,13,03,026,,1*6D
$GPGSV,3,2,11,15,12,057,,16,63,209,40,18,37,059,45,23,53,095,37,1*62
$GPGSV,3,3,11,26,36,184,44,27,64,299,38,30,00,344,,1*56
$GLGSV,3,1,09,65,05,138,,71,21,033,41,72,27,086,46,77,16,190,38,1*77
$GLGSV,3,2,09,78,53,251,33,79,31,322,42,81,15,262,37,87,40,053,45,1*75
$GLGSV,3,3,09,88,64,299,46,1*43
$GAGSV,3,1,11,03,01,096,,05,07,050,18,09,01,002,,13,56,235,30,7*7E
$GAGSV,3,2,11,15,66,055,41,21,56,289,42,23,10,320,37,26,05,235,,7*76
$GAGSV,3,3,11,27,53,182,43,30,08,154,46,34,14,055,42,7*41
$GBGSV,3,1,11,02,03,10,38,05,18,122,43,08,30,037,37,13,36,044,45,1*78
$GBGSV,3,2,11,19,20,044,44,21,10,151,,22,29,101,46,23,16,321,,1*75
$GBGSV,3,3,11,24,23,207,41,25,38,269,,35,18,083,46,1*46
$GNRMC,170026.00,A,4843.26104,N,00920.55544,E,0.021,,070225,,,A,V*13
$GNGGA,170026.00,4843.26104,N,00920.55544,E,1,12,0.46,249.2,M,47.6,M,,*4D
$GPGSV,3,1,11,07,13,315,34,08,27,292,39,10,39,157,49,13,03,026,,1*6D
$GPGSV,3,2,11,15,12,057,,16,63,209,40,18,37,059,45,23,53,095,37,1*62
$GPGSV,3,3,11,26,36,184,44,27,64,299,38,30,00,344,,1*56
$GLGSV,3,1,09,65,05,138,,71,21,033,42,72,27,086,46,77,16,190,38,1*74
$GLGSV,3,2,09,78,53,251,32,79,31,322,42,81,15,262,37,87,40,053,45,1*74
$GLGSV,3,3,09,88,64,299,46,1*43
$GAGSV,3,1,11,03,01,096,,05,07,050,19,09,01,002,,13,56,235,30,7*7F
$GAGSV,3,2,11,15,66,055,41,21,56,289,42,23,10,320,37,26,05,235,,7*76
$GAGSV,3,3,11,27,53,182,43,30,08,154,46,34,14,055,42,7*41
$GBGSV,3,1,11,02,03,100,38,05,18,122,43,08,30,037,37,13,36,044,45,1*78
$GBGSV,3,2,11,19,20,044,44,21,10,151,,22,29,101,46,23,16,321,,1*75
$GBGSV,3,3,11,24,23,207,41,25,38,269,,35,18,083,46,1*46
$GNRMC,170027.00,A,4843.26104,N,00920.55546,E,0.004,,070225,,,A,V*17
$GNGGA,170027.00,4843.26104,N,00920.55546,E,1,12,0.46,249.3,M,47.6,M,,*4F
$GPGSV,3,1,11,07,13,315,34,08,27,292,39,10,39,157,49,13,03,026,,1*6D
$GPGSV,3,2,11,15,12,057,,16,63,209,40,18,37,059,45,23,53,095,38,1*6D
$GPGSV,3,3,11,26,36,184,44,27,64,299,39,30,00,344,,1*57
$GLGSV,3,1,09,65,05,138,,71,21,033,43,72,27,086,46,77,16,190,38,1*75
$GLGSV,3,2,09,78,53,251,32,79,31,322,42,81,15,262,36,87,40,053,45,1*75
$GLGSV,3,3,09,88,64,299,46,1*43
$GAGSV,3,1,11,03,01,096,,05,07,050,19,09,01,002,,13,56,235,29,7*77
$GAGSV,3,2,11,15,66,055,41,21,56,289,42,23,10,320,37,26,05,235,,7*76
$GAGSV,3,3,11,27,53,182,43,30,08,154,46,34,14,055,42,7*41
$GBGSV,3,1,11,02,03,100,38,05,18,122,43,08,30,037,37,13,36,044,45,1*78
$GBGSV,3,2,11,19,20,044,45,21,10,151,,22,29,101,46,23,16,321,,1*74
$GBGSV,3,3,11,24,23,207,41,25,38,269,,35,18,083,46,1*46
$GNRMC,170028.00,A,4843.26104,N,00920.55547,E,0.015,,070225,,,A,V*19
$GNGGA,170028.00,4843.26104,N,00920.55547,E,1,12,0.46,249.4,M,47.6,M,,*46
$GPGSV,3,1,11,07,13,315,35,08,27,292,39,10,39,157,49,13,03,026,,1*6C
$GPGSV,3,2,11,15,12,057,,16,63,209,40,18,37,059,45,23,53,095,38,1*6D
$GPGSV,3,3,11,26,36,184,44,27,64,299,40,30,00,344,,1*59
$GLGSV,3,1,09,65,05,138,,71,21,033,43,72,27,086,46,77,16,190,38,1*75
$GLGSV,3,2,09,78,53,251,32,79,31,322,42,81,15,262,36,87,40,053,45,1*75
$GLGSV,3,3,09,88,64,299,46,1*43
$GAGSV,3,1,11,03,01,096,,05,07,050,19,09,01,002,,13,56,235,29,7*77
$GAGSV,3,2,11,15,66,055,41,21,56,289,42,23,10,320,37,26,05,235,,7*76
$GAGSV,3,3,11,27,53,182,43,30,08,154,45,34,14,055,42,7*42
$GBGSV,3,1,11,02,03,100,38,05,18,122,43,08,30,037,37,13,36,044,45,1*78
$GBGSV,3,2,11,19,20,044,45,21,10,151,,22,29,101,46,23,16,321,,1*74
$GBGSV,3,3,11,24,23,207,41,25,38,269,,35,18,083,46,1*46
$GNRMC,170029.00,A,4843.26104,N,00920.55549,E,0.005,,070225,,,A,V*17
$GNGGA,170029.00,4843.26104,N,00920.55549,E,1,12,0.46,249.5,M,47.6,M,,*48
$GPGSV,3,1,11,07,13,315,35,08,27,292,38,10,39,157,48,13,03,026,,1*6C
$GPGSV,3,2,11,15,12,057,,16,63,209,40,18,37,059,45,23,53,095,39,1*6C
$GPGSV,3,3,11,26,36,184,44,27,64,299,40,30,00,344,,1*59
$GLGSV,3,1,09,65,05,138,,71,21,033,44,72,27,086,46,77,16,190,37,1*7D
$GLGSV,3,2,09,78,53,251,33,79,31,322,41,81,15,262,36,87,40,053,45,1*77
$GLGSV,3,3,09,88,64,299,46,1*43
$GAGSV,3,1,11,03,01,096,,05,07,050,19,09,01,002,,13,56,235,29,7*77
$GAGSV,3,2,11,15,66,055,40,21,56,289,42,23,10,320,37,26,05,235,,7*77
$GAGSV,3,3,11,27,53,182,43,30,08,154,45,34,14,055,42,7*42
$GBGSV,3,1,11,02,03,100,38,05,18,122,43,08,30,037,37,13,36,044,45,1*78
$GBGSV,3,2,11,19,20,044,45,21,10,151,,22,29,101,46,23,16,321,,1*74
$GBGSV,3,3,11,24,23,207,41,25,38,269,,35,18,083,46,1*46
$GNRMC,170030.00,A,4843.26104,N,00920.55550,E,0.010,,070225,,,A,V*13
$GNGGA,170030.00,4843.26104,N,00920.55550,E,1,12,0.46,249.5,M,47.6,M,,*48
$GPGSV,3,1,11,07,13,315,36,08,27,292,39,10,39,157,48,13,03,026,,1*6E
$GPGSV,3,2,11,15,12,057,,16,63,209,40,18,37,059,45,23,53,095,39,1*6C
$GPGSV,3,3,11,26,36,184,45,27,64,299,40,30,00,344,,1*58
$GLGSV,3,1,09,65,05,138,,71,21,033,44,72,27,086,46,77,16,190,36,1*7C
$GLGSV,3,2,09,78,53,251,34,79,31,322,41,81,15,262,35,87,40,053,44,1*72
$GLGSV,3,3,09,88,64,299,46,1*43
$GAGSV,3,1,11,03,01,096,,05,07,050,18,09,01,002,,13,56,235,29,7*76
$GAGSV,3,2,11,15,66,055,40,21,56,289,42,23,10,320,37,26,05,235,,7*77
$GAGSV,3,3,11,27,53,182,43,30,08,154,45,34,14,055,42,7*42
$GBGSV,3,1,11,02,03,100,38,05,18,122,43,08,30,037,37,13,36,044,45,1*78
$GBGSV,3,2,11,19,20,044,45,21,10,151,,22,29,101,46,23,16,321,,1*74
$GBGSV,3,3,11,24,23,207,40,25,38,269,,35,18,083,46,1*47
$GNRMC,170031.00,A,4843.26103,N,00920.55553,E,0.003,,070225,,,A,V*14
$GNGGA,170031.00,4843.26103,N,00920.55553,E,1,12,0.46,249.7,M,47.6,M,,*4F
$GPGSV,3,1,11,07,13,315,36,08,27,292,38,10,39,157,48,13,03,026,,1*6F
$GPGSV,3,2,11,15,12,057,,16,63,209,40,18,37,059,45,23,53,095,40,1*62
$GPGSV,3,3,11,26,36,184,45,27,64,299,40,30,00,344,,1*58
$GLGSV,3,1,09,65,05,138,,71,21,033,44,72,27,086,46,77,16,190,36,1*7C
$GLGSV,3,2,09,78,53,251,34,79,31,322,41,81,15,262,35,87,40,053,44,1*72
$GLGSV,3,3,09,88,64,299,46,1*43
$GAGSV,3,1,11,03,01,096,,05,07,049,17,09,01,002,,13,56,235,28,7*70
$GAGSV,3,2,11,15,66,055,40,21,56,289,42,23,10,320,37,26,05,235,,7*77
$GAGSV,3,3,11,27,53,182,43,30,08,154,45,34,14,055,42,7*42
$GBGSV,3,1,11,02,03,100,38,05,18,122,43,08,30,037,37,13,36,044,45,1*78
$GBGSV,3,2,11,19,20,044,45,21,10,151,,22,29,101,46,23,16,321,,1*74
$GBGSV,3,3,11,24,23,207,41,25,38,269,,35,18,083,47,1*47
$GNRMC,170032.00,A,4843.26103,N,00920.55555,E,0.003,,070225,,,A,V*11
$GNGGA,170032.00,4843.26103,N,00920.55555,E,1,12,0.46,249.8,M,47.6,M,,*45
$GPGSV,3,1,11,07,13,315,36,08,27,292,38,10,39,157,48,13,03,026,,1*6F
$GPGSV,3,2,11,15,12,057,,16,63,209,40,18,37,059,45,23,53,095,40,1*62
$GPGSV,3,3,11,26,36,184,45,27,64,299,40,30,00,344,,1*58
$GLGSV,3,1,09,65,05,138,,71,21,033,45,72,27,086,46,77,16,190,38,1*73
$GLGSV,3,2,09,78,53,251,35,79,31,322,41,81,15,262,34,87,40,053,44,1*72
$GLGSV,3,3,09,88,64,299,46,1*43
$GAGSV,3,1,11,03,01,096,,05,07,049,17,09,01,002,,13,56,235,28,7*70
$GAGSV,3,2,11,15,66,055,40,21,56,289,42,23,10,320,37,26,05,235,,7*77
$GAGSV,3,3,11,27,53,182,43,30,08,154,45,34,14,055,42,7*42
$GBGSV,3,1,11,02,03,100,38,05,18,122,43,08,30,037,37,13,36,044,45,1*78
$GBGSV,3,2,11,19,20,044,45,21,10,151,,22,29,101,46,23,16,321,,1*74
$GBGSV,3,3,11,24,23,207,41,25,38,269,,35,18,083,47,1*47
$GNRMC,170033.00,A,4843.26102,N,00920.55557,E,0.002,,070225,,,A,V*12
$GNGGA,170033.00,4843.26102,N,00920.55557,E,1,12,0.46,249.9,M,47.6,M,,*46
$GPGSV,3,1,11,07,13,315,36,08,27,292,38,10,39,157,48,13,03,026,,1*6F
$GPGSV,3,2,11,15,12,057,,16,63,209,40,18,37,059,45,23,53,095,41,1*63
$GPGSV,3,3,11,26,36,184,45,27,64,299,41,30,00,344,,1*59
$GLGSV,3,1,09,65,05,138,,71,21,033,45,72,27,086,46,77,16,190,38,1*73
$GLGSV,3,2,09,78,53,251,36,79,31,322,41,81,15,262,34,87,40,053,44,1*71
$GLGSV,3,3,09,88,64,299,46,1*43
$GAGSV,3,1,11,03,01,096,,05,07,049,18,09,01,002,,13,56,235,27,7*70
$GAGSV,3,2,11,15,66,055,40,21,56,289,42,23,10,320,37,26,05,235,,7*77
$GAGSV,3,3,11,27,53,182,43,30,08,154,45,34,14,055,42,7*42
$GBGSV,3,1,11,02,03,100,38,05,18,122,43,08,30,037,37,13,36,044,45,1*78
$GBGSV,3,2,11,19,20,044,45,21,10,151,,22,29,101,46,23,16,321,,1*74
$GBGSV,3,3,11,24,23,207,41,25,38,269,,35,18,083,47,1*47
$GNRMC,170034.00,A,4843.26101,N,00920.55559,E,0.004,,070225,,,A,V*1E
$GNGGA,170034.00,4843.26101,N,00920.55559,E,1,12,0.46,250.0,M,47.6,M,,*4D
$GPGSV,3,1,11,07,13,315,37,08,27,292,38,10,39,157,48,13,03,026,,1*6E
$GPGSV,3,2,11,15,12,057,,16,63,209,40,18,37,059,45,23,53,095,41,1*63
$GPGSV,3,3,11,26,36,184,45,27,64,299,41,30,00,344,,1*59
$GLGSV,3,1,09,65,05,138,,71,21,033,44,72,27,086,46,77,16,190,37,1*7D
$GLGSV,3,2,09,78,53,251,36,79,31,322,41,81,15,262,34,87,40,053,44,1*71
$GLGSV,3,3,09,88,64,299,46,1*43
$GAGSV,3,1,11,03,01,096,,05,07,049,18,09,01,002,,13,56,235,27,7*70
$GAGSV,3,2,11,15,66,055,40,21,56,289,42,23,10,320,37,26,05,235,,7*77
$GAGSV,3,3,11,27,53,182,42,30,08,154,45,34,14,055,42,7*43
$GBGSV,3,1,11,02,03,100,38,05,18,122,43,08,30,037,37,13,36,044,45,1*78
$GBGSV,3,2,11,19,20,044,45,21,10,151,,22,29,101,46,23,16,321,,1*74
$GBGSV,3,3,11,24,23,207,41,25,38,269,,35,18,083,47,1*47
$GNRMC,170035.00,A,4843.26101,N,00920.55562,E,0.013,,070225,,,A,V*11
$GNGGA,170035.00,4843.26101,N,00920.55562,E,1,12,0.46,250.1,M,47.6,M,,*45
$GPGSV,3,1,11,07,13,315,36,08,27,292,38,10,39,157,48,13,03,026,,1*6F
$GPGSV,3,2,11,15,12,057,,16,63,209,39,18,37,059,45,23,53,095,41,1*6D
$GPGSV,3,3,11,26,36,184,45,27,64,299,41,30,00,344,,1*59
$GLGSV,3,1,09,65,05,138,,71,21,033,44,72,27,086,47,77,16,190,37,1*7C
$GLGSV,3,2,09,78,53,251,36,79,31,322,41,81,15,262,34,87,40,053,44,1*71
$GLGSV,3,3,09,88,64,299,45,1*40
$GAGSV,3,1,11,03,01,096,,05,07,049,19,09,01,002,,13,56,235,26,7*70
$GAGSV,3,2,11,15,66,055,40,21,56,289,42,23,10,320,37,26,05,235,,7*77
$GAGSV,3,3,11,27,53,182,42,30,08,154,45,34,14,055,42,7*43
$GBGSV,3,1,11,02,03,100,38,05,18,122,43,08,30,037,37,13,36,044,45,1*78
$GBGSV,3,2,11,19,20,044,45,21,10,151,,22,29,101,46,23,16,321,,1*74
$GBGSV,3,3,11,24,23,207,41,25,38,269,,35,18,083,47,1*47
$GNRMC,170036.00,A,4843.26100,N,00920.55562,E,0.025,,070225,,,A,V*16
$GNGGA,170036.00,4843.26100,N,00920.55562,E,1,12,0.47,250.2,M,47.6,M,,*45
$GPGSV,3,1,11,07,13,315,37,08,27,292,38,10,39,157,48,13,03,026,,1*6E
$GPGSV,3,2,11,15,12,057,,16,63,209,39,18,37,059,45,23,53,095,41,1*6D
$GPGSV,3,3,11,26,36,184,45,27,64,299,41,30,00,344,,1*59
$GLGSV,3,1,09,65,05,138,,71,21,033,44,72,27,086,47,77,16,190,37,1*7C
$GLGSV,3,2,09,78,53,251,36,79,31,322,40,81,15,262,29,87,40,053,44,1*7C
$GLGSV,3,3,09,88,64,299,45,1*40
$GAGSV,3,1,11,03,01,096,,05,07,049,20,09,01,002,,13,56,235,26,7*7A
$GAGSV,3,2,11,15,66,055,40,21,56,289,42,23,10,320,36,26,05,235,,7*76
$GAGSV,3,3,11,27,53,182,42,30,08,154,45,34,14,055,42,7*43
$GBGSV,3,1,11,02,03,100,38,05,18,122,43,08,30,037,37,13,36,044,44,1*79
$GBGSV,3,2,11,19,20,044,45,21,10,151,,22,29,101,47,23,16,321,,1*75
$GBGSV,3,3,11,24,23,207,41,25,38,269,,35,18,083,47,1*47
$GNRMC,170037.00,A,4843.26099,N,00920.55564,E,0.010,,070225,,,A,V*16
$GNGGA,170037.00,4843.26099,N,00920.55564,E,1,12,0.46,250.3,M,47.6,M,,*43
$GPGSV,3,1,11,07,13,315,37,08,27,292,38,10,39,157,48,13,03,026,,1*6E
$GPGSV,3,2,11,15,12,057,,16,63,209,39,18,37,059,46,23,53,095,41,1*6E
$GPGSV,3,3,11,26,36,184,45,27,64,299,41,30,00,344,,1*59
$GLGSV,3,1,09,65,05,138,,71,21,033,44,72,27,086,46,77,16,190,37,1*7D
$GLGSV,3,2,09,78,53,251,37,79,31,322,40,81,15,262,32,87,40,053,43,1*70
$GLGSV,3,3,09,88,64,299,45,1*40
$GAGSV,3,1,11,03,01,096,,05,07,049,22,09,01,002,,13,56,235,26,7*78
$GAGSV,3,2,11,15,66,055,40,21,56,289,41,23,10,320,36,26,05,235,,7*75
$GAGSV,3,3,11,27,53,182,42,30,08,154,45,34,14,055,42,7*43
$GBGSV,3,1,11,02,03,100,38,05,18,122,43,08,30,037,37,13,36,044,44,1*79
$GBGSV,3,2,11,19,20,044,45,21,10,151,,22,29,101,47,23,16,321,,1*75
$GBGSV,3,3,11,24,23,207,41,25,38,269,,35,18,083,47,1*47
$GNRMC,170038.00,A,4843.26098,N,00920.55566,E,0.006,,070225,,,A,V*1D
$GNGGA,170038.00,4843.26098,N,00920.55566,E,1,12,0.46,250.4,M,47.6,M,,*48
$GPGSV,3,1,11,07,13,315,36,08,27,292,37,10,39,157,48,13,03,026,,1*60
$GPGSV,3,2,11,15,12,057,,16,63,209,39,18,37,059,46,23,53,095,41,1*6E
$GPGSV,3,3,11,26,36,184,45,27,64,299,40,30,00,344,,1*58
$GLGSV,3,1,09,65,05,138,,71,21,033,44,72,27,086,46,77,16,190,37,1*7D
$GLGSV,3,2,09,78,53,251,37,79,31,322,40,81,15,262,32,87,40,053,43,1*70
$GLGSV,3,3,09,88,64,299,45,1*40
$GAGSV,3,1,11,03,01,096,,05,07,049,23,09,01,002,,13,56,235,25,7*7A
$GAGSV,3,2,11,15,66,055,40,21,56,289,41,23,10,320,36,26,05,235,,7*75
$GAGSV,3,3,11,27,53,182,42,30,08,154,45,34,14,055,42,7*43
$GBGSV,3,1,11,02,03,100,38,05,18,122,43,08,30,037,37,13,36,044,45,1*78
$GBGSV,3,2,11,19,20,044,45,21,10,151,,22,29,101,47,23,16,321,,1*75
$GBGSV,3,3,11,24,23,207,41,25,38,269,,35,18,083,47,1*47
$GNRMC,170039.00,A,4843.26097,N,00920.55567,E,0.006,,070225,,,A,V*12
$GNGGA,170039.00,4843.26097,N,00920.55567,E,1,12,0.47,250.5,M,47.6,M,,*47
$GPGSV,3,1,11,07,13,315,36,08,27,292,37,10,39,157,48,13,03,026,,1*60
$GPGSV,3,2,11,15,12,057,,16,63,209,39,18,37,059,46,23,53,095,41,1*6E
$GPGSV,3,3,11,26,36,184,45,27,64,299,40,30,00,344,,1*58
$GLGSV,3,1,09,65,05,138,,71,21,033,44,72,27,086,46,77,16,190,37,1*7D
$GLGSV,3,2,09,78,53,251,37,79,31,322,39,81,15,262,32,87,40,053,43,1*7E
$GLGSV,3,3,09,88,64,299,45,1*40
$GAGSV,3,1,11,03,01,096,,05,07,049,24,09,01,002,,13,57,236,25,7*7F
$GAGSV,3,2,11,15,66,055,40,21,56,289,41,23,10,320,37,26,05,235,,7*74
$GAGSV,3,3,11,27,53,182,42,30,08,154,45,34,14,055,42,7*43
$GBGSV,3,1,11,02,03,100,38,05,18,122,43,08,30,037,37,13,36,044,45,1*78
$GBGSV,3,2,11,19,20,044,45,21,10,151,,22,29,101,47,23,16,321,,1*75
$GBGSV,3,3,11,24,23,207,42,25,38,269,,35,18,083,47,1*44
$GNRMC,170040.00,A,4843.26096,N,00920.55568,E,0.012,,070225,,,A,V*17
$GNGGA,170040.00,4843.26096,N,00920.55568,E,1,12,0.46,250.6,M,47.6,M,,*45
$GPGSV,3,1,11,07,13,315,37,08,27,292,38,10,39,157,48,13,03,026,,1*6E
$GPGSV,3,2,11,15,12,057,,16,63,209,39,18,37,059,46,23,53,095,40,1*6F
$GPGSV,3,3,11,26,36,184,44,27,64,299,40,30,00,344,,1*59
$GLGSV,3,1,09,65,05,138,,71,21,033,44,72,27,086,46,77,16,190,37,1*7D
$GLGSV,3,2,09,78,53,251,38,79,31,322,38,81,15,262,31,87,40,053,43,1*73
$GLGSV,3,3,09,88,64,299,44,1*41
$GAGSV,3,1,11,03,01,096,,05,07,049,26,09,01,002,,13,57,236,25,7*7D
$GAGSV,3,2,11,15,65,055,40,21,56,289,41,23,10,320,36,26,05,235,,7*76
$GAGSV,3,3,11,27,53,182,42,30,08,154,45,34,14,055,42,7*43
$GBGSV,3,1,11,02,03,100,38,05,18,122,43,08,30,037,37,13,36,044,45,1*78
$GBGSV,3,2,11,19,20,044,45,21,10,151,,22,29,101,47,23,16,321,,1*75
$GBGSV,3,3,11,24,23,207,41,25,38,269,,35,18,083,47,1*47
$GNRMC,170041.00,A,4843.26095,N,00920.55570,E,0.011,,070225,,,A,V*1F
$GNGGA,170041.00,4843.26095,N,00920.55570,E,1,12,0.46,250.6,M,47.6,M,,*4E
$GPGSV,3,1,11,07,13,315,36,08,27,292,37,10,39,157,48,13,03,026,,1*60
$GPGSV,3,2,11,15,12,057,,16,63,209,39,18,37,059,46,23,53,095,40,1*6F
$GPGSV,3,3,11,26,36,184,45,27,64,299,40,30,00,344,,1*58
$GLGSV,3,1,09,65,05,138,,71,21,033,43,72,27,086,46,77,16,190,37,1*7A
$GLGSV,3,2,09,78,53,251,37,79,31,322,38,81,15,262,32,87,40,053,44,1*78
$GLGSV,3,3,09,88,64,299,43,1*46
$GAGSV,3,1,11,03,01,096,,05,07,049,27,09,01,002,,13,57,236,24,7*7D
$GAGSV,3,2,11,15,65,055,40,21,56,289,41,23,10,320,36,26,05,235,,7*76
$GAGSV,3,3,11,27,53,182,42,30,08,154,45,34,14,055,42,7*43
$GBGSV,3,1,11,02,03,100,38,05,18,122,43,08,30,037,37,13,36,044,45,1*78
$GBGSV,3,2,11,19,20,044,45,21,10,151,,22,29,101,47,23,16,321,,1*75
$GNRMC,170042.00,A,4843.26095,N,00920.55572,E,0.015,,070225,,,A,V*1A
$GNGGA,170042.00,4843.26095,N,00920.55572,E,1,12,0.46,250.8,M,47.6,M,,*41
$GPGSV,3,1,11,07,13,315,37,08,27,292,38,10,39,157,48,13,03,026,,1*6E
$GPGSV,3,2,11,15,12,057,,16,63,209,39,18,37,059,46,23,53,095,40,1*6F
$GPGSV,3,3,11,26,36,184,45,27,64,299,40,30,00,344,,1*58
$GLGSV,3,1,09,65,05,138,,71,21,033,43,72,27,086,46,77,16,190,38,1*75
$GLGSV,3,2,09,78,53,251,37,79,31,322,37,81,15,262,32,87,40,053,43,1*70
$GLGSV,3,3,09,88,64,299,43,1*46
$GAGSV,3,1,11,03,01,096,,05,07,049,27,09,01,002,,13,57,236,24,7*7D
$GAGSV,3,2,11,15,65,055,40,21,56,289,41,23,10,320,36,26,05,235,,7*76
$GAGSV,3,3,11,27,53,182,42,30,08,154,45,34,14,055,42,7*43
$GBGSV,3,1,11,02,03,100,38,05,18,122,43,08,30,037,37,13,36,044,44,1*79
$GBGSV,3,3,11,24,23,207,41,25,38,269,,35,18,083,47,1*47
$GNRMC,170043.00,A,4843.26094,N,00920.55572,E,0.002,,070225,,,A,V*1C
$GNGGA,170043.00,4843.26094,N,00920.55572,E,1,12,0.48,250.8,M,47.6,M,,*4F
$GPGSV,3,1,11,07,13,315,37,08,27,292,38,10,39,157,48,13,03,026,,1*6E
$GPGSV,3,2,11,15,12,057,,16,63,209,40,18,37,059,46,23,53,095,40,1*61
$GPGSV,3,3,11,26,36,184,45,27,64,299,41,30,00,344,,1*59
$GLGSV,3,1,09,65,05,138,,71,21,033,42,72,27,086,47,77,16,190,38,1*75
$GLGSV,3,2,09,78,53,251,37,79,31,322,36,81,15,262,31,87,40,053,43,1*72
$GLGSV,3,3,09,88,64,299,42,1*47
$GAGSV,3,1,11,03,01,096,,05,07,049,28,09,01,002,,13,57,236,24,7*72
$GAGSV,3,2,11,15,65,055,40,21,56,288,41,23,10,320,36,26,05,235,,7*77
$GAGSV,3,3,11,27,53,182,42,30,08,154,45,34,14,055,42,7*43
$GBGSV,3,1,11,02,03,100,38,05,18,122,43,08,30,037,37,13,36,044,45,1*78
$GBGSV,3,2,11,19,20,044,45,21,10,151,,22,29,101,47,23,16,321,,1*75
$GBGSV,3,3,11,24,23,207,41,25,38,269,,35,18,083,47,1*47
$GNGGA,170044.00,4843.26093N,00920.55572,E,1,12,0.46,250.9,M,47.6,M,,*40
$GPGSV,3,1,11,07,13,315,36,08,27,292,38,10,39,157,49,13,03,026,,1*6E
$GPGSV,3,2,11,15,12,057,,16,63,209,40,18,37,059,46,23,53,095,39,1*6F
$GPGSV,3,3,11,26,36,184,45,27,64,299,41,30,00,344,,1*59
$GLGSV,3,1,09,65,05,138,,71,21,033,41,72,27,086,46,77,16,190,38,1*77
$GLGSV,3,2,09,78,53,251,37,79,31,322,35,81,15,262,31,87,40,053,42,1*70
$GLGSV,3,3,09,88,64,299,42,1*47
$GAGSV,3,1,11,03,01,096,,05,07,049,28,09,01,002,,13,57,236,24,7*72
$GAGSV,3,2,11,15,65,055,40,21,56,288,41,23,11,320,36,26,05,235,,7*76
$GAGSV,3,3,11,27,53,182,42,30,08,154,45,34,14,055,42,7*43
$GBGSV,3,1,11,02,03,100,38,05,18,122,43,08,30,037,37,13,36,044,45,1*78
$GBGSV,3,2,11,19,20,044,45,21,10,151,,22,29,101,48,23,16,321,,1*7A
$GBGSV,3,3,11,24,23,207,41,25,38,269,,35,18,083,47,1*47
$GNRMC,170045.00,A,4843.26093,N,00920.55572,E,0.011,,070225,,,A,V*1F
$GNGGA,170045.00,4843.6093,N,00920.55572,E,1,12,0.46,251.0,M,47.6,M,,*49
$GPGSV,3,1,11,07,13,315,36,08,27,292,38,10,39,157,48,13,03,026,,1*6F
$GPGSV,3,2,11,15,12,057,,16,63,209,40,18,37,059,46,23,53,095,40,1*61
$GPGSV,3,3,11,26,36,184,45,27,64,299,41,30,00,344,,1*59
$GLGSV,3,1,09,65,05,138,,71,21,033,40,72,27,086,46,77,16,190,38,1*76
$GLGSV,3,2,09,78,53,251,37,79,31,322,34,81,15,262,30,87,40,053,42,1*70
$GLGSV,3,3,09,88,64,299,41,1*44
$GAGSV,3,1,11,03,01,096,,05,07,049,28,09,01,002,,13,57,236,24,7*72
$GAGSV,3,2,11,15,65,055,40,21,56,288,41,23,11,320,36,26,05,235,,7*76
$GAGSV,3,3,11,27,53,182,42,30,08,154,45,34,14,055,42,7*43
$GBGSV,3,1,11,02,03,100,38,05,18,122,43,08,30,037,37,13,36,044,45,1*78
$GBGSV,3,2,11,19,20,044,45,21,10,151,,22,29,101,48,23,16,321,,1*7A
$GBGSV,3,3,11,24,23,207,41,25,38,269,,35,18,083,47,1*47
$GNRMC,170046.00,A,4843.26093,N,00920.55572,E,0.015,,070225,,,A,V*18
$GNGGA,170046.00,4843.26093,N,00920.55572,E,1,12,0.46,251.0,M,47.6,M,,*4A
$GPGSV,3,1,11,07,13,315,37,08,27,292,38,10,39,157,48,13,03,026,,1*6E
$GPGSV,3,2,11,15,12,057,,16,63,209,41,18,37,059,46,23,53,095,40,1*60
$GPGSV,3,3,11,26,36,184,45,27,64,299,41,30,00,344,,1*59
$GLGSV,3,1,09,65,05,138,,71,21,033,40,72,27,086,46,77,16,190,37,1*79
$GLGSV,3,2,09,78,53,251,37,79,31,322,33,81,15,262,28,87,40,053,42,1*7E
$GLGSV,3,3,09,88,64,299,41,1*44
$GAGSV,3,1,11,03,01,096,,05,07,049,29,09,01,002,,13,57,236,23,7*74
$GAGSV,3,2,11,15,65,055,40,21,56,288,41,23,11,320,36,26,05,235,,7*76
$GAGSV,3,3,11,27,53,182,42,30,08,154,45,34,14,055,42,7*43
$GBGSV,3,1,11,02,03,100,37,05,18,122,43,08,30,037,37,13,36,04,45,1*77
$GBGSV,3,2,11,19,20,044,45,21,10,151,,22,29,101,48,23,16,321,,1*7A
$GBGSV,3,3,11,24,23,207,40,25,38,269,,35,18,083,47,1*46
$GNRMC,170047.00,A,4843.26093,N,00920.55571,E,0.017,,070225,,,A,V*18
$GNGGA,170047.00,4843.26093,N,00920.55571,E,1,12,0.48,251.1,M,47.6,M,,*47
$GPGSV,3,1,11,07,13,315,37,08,27,292,38,10,39,157,48,13,03,026,,1*6E
$GPGSV,3,2,11,15,12,057,,16,63,209,41,18,37,059,46,23,53,095,40,1*60
$GPGSV,3,3,11,26,36,184,45,27,6,299,41,30,00,344,,1*59
$GLGSV,3,1,09,65,05,138,,71,21,033,40,72,27,086,46,77,16,190,37,1*79
$GLGSV,3,2,09,78,53,251,38,79,31,322,33,81,15,262,26,87,40,053,42,1*7F
$GLGSV,3,3,09,88,64,299,41,1*44
$GAGSV,3,1,11,03,01,096,,05,07,049,29,09,01,002,,13,57,236,23,7*74
$GAGSV,3,2,11,15,65,055,40,21,56,288,41,23,11,320,36,26,06,236,,7*76
$GAGSV,3,3,11,27,53,182,42,30,08,154,45,34,14,055,42,7*43
$GBGSV,3,1,11,02,03,100,37,05,18,122,43,08,30,037,37,13,36,044,45,1*77
$GBGSV,3,2,11,19,20,044,45,21,10,151,,22,29,101,48,23,16,321,,1*7A
$GBGSV,3,3,11,24,23,207,40,25,38,269,,35,18,083,47,1*46
$GNRMC,170048.00,A,4843.26093,N,00920.55571,E,0.011,,070225,,,A,V*11
$GNGGA,170048.00,4843.26093,N,00920.55571,E,1,12,0.48,251.1,M,47.6,M,,*48
$GPGSV,3,1,11,07,13,315,36,08,27,292,38,10,39,157,48,13,03,026,,1*6F
$GPGSV,3,2,11,15,12,057,,16,63,209,41,18,37,059,46,23,53,095,40,1*60
$GPGSV,3,3,11,26,36,184,45,27,64,299,41,30,00,344,,1*59
$GLGSV,3,1,09,65,05,138,,71,21,033,40,72,27,086,45,77,16,190,37,1*7A
$GLGSV,3,2,09,78,53,251,38,79,31,322,32,81,15,262,23,87,40,053,41,1*78
$GLGSV,3,3,09,88,64,299,41,1*44
$GAGSV,3,1,11,03,01,096,,05,07,049,29,09,01,002,,13,57,236,23,7*74
$GAGSV,3,2,11,15,65,055,40,21,56,288,41,23,11,320,36,26,06,236,,7*76
$GAGSV,3,3,11,27,52,181,42,30,08,154,45,34,14,055,42,7*41
$GBGSV,3,1,11,02,03,100,38,05,18,122,43,08,30,037,37,13,36,044,45,1*78
$GBGSV,3,2,11,19,20,044,45,21,10,151,,22,29,101,48,23,16,321,,1*7A
$GBGSV,3,3,11,24,23,207,39,25,38,269,,35,18,083,47,1*48
$GNRMC,170049.00,A,4843.26094,N,00920.55570,E,0.008,,070225,,,A,V*1E
$GNGGA,170049.00,4843.26094,N,00920.55570,E,1,12,0.48,51.2,M,47.6,M,,*4C
$GPGSV,3,1,11,07,13,315,36,08,27,292,38,10,39,157,48,13,03,026,,1*6F
$GPGSV,3,2,11,15,12,057,,16,63,209,41,18,37,059,46,23,53,095,41,1*61
$GPGSV,3,3,11,26,36,184,45,27,64,299,41,30,00,344,,1*59
$GLGSV,3,1,09,65,05,138,,71,21,033,40,72,27,086,45,77,16,190,37,1*7A
$GLGSV,3,2,09,78,53,251,38,79,31,322,32,81,15,262,20,87,40,053,41,1*7B
$GLGSV,3,3,09,88,64,299,41,1*44
$GAGSV,3,1,11,03,01,096,,05,07,049,30,09,01,002,,13,57,236,23,7*7C
$GAGSV,3,2,11,15,65,055,40,21,56,288,41,23,11,320,37,26,06,236,,7*77
$GAGSV,3,3,11,27,52,181,42,30,08,154,45,34,14,055,42,7*41
$GBGSV,3,1,11,02,03,100,38,05,18,122,43,08,30,037,37,13,36,044,45,1*78
$GBGSV,3,2,11,19,20,044,45,21,10,151,,22,29,101,48,23,16,321,,1*7A
$GBGSV,3,3,11,24,23,207,39,25,38,269,,35,18,083,47,1*48
$GNRMC,170050.00,A,4843.26094,N,00920.55569,E,0.011,,070225,,,A,V*16
$GNGGA,170050.00,4843.26094,N,00920.55569,E,1,12,0.48,251.2,M,47.6,M,,*4C
$GPGSV,3,1,11,07,13,315,36,08,27,292,38,10,39,157,48,13,03,026,,1*6F
$GPGSV,3,2,11,15,12,057,,16,63,209,41,18,37,059,46,23,53,095,41,1*61
$GPGSV,3,3,11,26,36,184,44,27,64,299,41,30,00,344,,1*58
$GLGSV,3,1,09,65,05,138,,71,21,033,40,72,27,086,45,77,16,190,37,1*7A
$GLGSV,3,2,09,78,53,251,38,79,31,322,32,81,15,262,24,87,40,053,41,1*7F
$GLGSV,3,3,09,88,64,299,42,1*47
$GAGSV,3,1,11,03,01,096,,05,07,049,29,09,01,002,,13,57,236,24,7*73
$GAGSV,3,2,11,15,65,055,40,21,56,288,41,23,11,320,36,26,06,236,,7*76
$GAGSV,3,3,11,27,52,181,42,30,07,154,45,34,14,055,42,7*4E
$GBGSV,3,1,11,02,03,100,38,05,18,122,43,08,30,037,37,13,36,044,45,1*78
$GBGSV,3,2,11,19,20,044,45,21,10,151,,22,29,101,48,23,16,321,,1*7A
$GBGSV,3,3,11,24,23,207,40,25,38,269,,35,18,083,47,1*46
$GNRMC,170051.00,A,4843.26095,N,00920.55568,E,0.018,,070225,,,A,V*1E
$GNGGA,170051.00,4843.26095,N,00920.55568,E,1,12,0.48,251.2,M,47.6,M,,*4D
$GPGSV,3,1,11,07,13,315,36,08,27,292,38,10,9,157,48,13,03,026,,1*6F
$GPGSV,3,2,11,15,12,057,,16,63,209,41,18,37,059,46,23,53,095,41,1*61
$GPGSV,3,3,11,26,36,184,44,27,64,299,41,30,00,344,,1*58
$GLGSV,3,1,09,65,05,138,,71,21,033,40,72,27,086,45,77,16,190,38,1*75
$GLGSV,3,2,09,78,53,251,38,79,31,322,30,81,15,262,33,87,40,053,41,1*7B
$GLGSV,3,3,09,88,64,299,42,1*47
$GAGSV,3,1,11,03,01,096,,05,07,049,29,09,01,002,,13,57,236,25,7*72
$GAGSV,3,2,11,15,65,055,41,21,56,288,42,23,11,320,36,26,06,236,,7*74
$GAGSV,3,3,11,27,52,181,42,30,07,154,44,34,14,055,41,7*4C
$GBGSV,3,1,11,02,03,100,38,05,18,122,43,08,30,037,37,13,36,044,45,1*78
$GBGSV,3,2,11,19,20,044,45,21,10,151,,22,29,101,48,23,16,321,,1*7A
$GBGSV,3,3,11,24,23,207,40,25,38,269,,35,18,083,47,1*46
$GNRMC,170052.00,A,4843.26097,N,00920.55567,E,0.043,,070225,,,A,V*1E
$GNGGA,170052.00,4843.26097,N,00920.55567,E,1,12,0.46,251.3,M,47.6,M,,*4C
$GPGSV,3,1,11,07,13,315,36,08,27,292,38,10,39,157,48,13,03,026,,1*6F
$GPGSV,3,2,11,15,12,057,,16,63,209,41,18,37,059,47,23,53,095,41,1*60
$GPGSV,3,3,11,26,36,184,44,27,64,299,41,30,00,344,,1*58
$GLGSV,3,1,09,65,05,138,,71,21,033,40,72,27,086,45,77,16,190,37,1*7A
$GLGSV,3,2,09,78,53,251,39,79,31,322,30,81,15,262,31,87,40,053,42,1*7B
$GLGSV,3,3,09,88,64,299,42,1*47
$GAGSV,3,1,11,03,01,096,,05,07,049,29,09,01,002,,13,57,236,26,7*71
$GAGSV,3,2,11,15,65,055,41,21,56,288,42,23,11,320,36,26,06,236,,7*74
$GAGSV,3,3,11,27,52,181,42,30,07,154,44,34,14,055,42,7*4F
$GBGSV,3,1,11,02,03,100,38,05,18,122,43,08,30,037,37,13,36,044,45,1*78
$GBGSV,3,2,11,19,20,044,45,21,10,151,,22,29,101,48,23,16,321,,1*7A
$GBGSV,3,3,11,24,23,207,40,25,38,269,,35,18,083,47,1*46
$GNRMC,170053.00,A,4843.26098,N,00920.55566,E,0.011,,070225,,,A,V*16
$GNGGA,170053.00,4843.26098,N,00920.55566,E,1,12,0.46,251.3,M,47.6,M,,*43
$GPGSV,3,1,11,07,13,315,35,08,27,292,38,10,39,157,48,13,03,026,,1*6C
$GPGSV,3,2,11,15,12,057,,16,63,209,41,18,37,059,47,23,53,095,42,1*63
$GPGSV,3,3,11,26,36,184,44,27,64,299,41,30,00,344,,1*58
$GLGSV,3,1,09,65,05,138,,71,21,033,40,72,27,086,45,77,16,190,37,1*7A
$GLGSV,3,2,09,78,53,251,39,79,31,322,29,81,15,262,32,87,40,053,42,1*70
$GLGSV,3,3,09,88,64,299,43,1*46
$GAGSV,3,1,11,03,01,096,,05,07,049,29,09,01,002,,13,57,236,26,7*71
$GAGSV,3,2,11,15,65,055,41,21,56,288,42,23,11,320,37,26,06,236,,7*75
$GAGSV,3,3,11,27,52,181,42,30,07,154,44,34,14,055,42,7*4F
$GBGSV,3,1,11,02,03,100,38,05,18,122,43,08,30,037,37,13,36,044,45,1*78
$GBGSV,3,2,11,19,20,044,45,21,10,151,,22,29,101,48,23,16,321,,1*7A
$GBGSV,3,3,11,24,23,207,40,25,38,269,,35,18,083,47,1*46
$GNRMC,170054.00,A,4843.26099,N,00920.55565,E,0.006,,070225,,,A,V*15
$GNGGA,170054.00,4843.26099,N,00920.55565,E,1,12,0.48,251.4,M,47.6,M,,*4F
$GPGSV,3,1,11,07,13,315,35,08,27,292,38,10,39,157,47,13,03,026,,1*63
$GPGSV,3,2,11,15,12,057,,16,63,209,41,18,37,059,47,23,53,095,42,1*63
$GPGSV,3,3,11,26,36,184,44,27,64,299,41,30,00,344,,1*58
$GLGSV,3,1,09,65,05,138,,71,21,033,40,72,27,086,45,77,16,190,38,1*75
$GLGSV,3,2,09,78,53,251,40,79,31,322,28,81,15,262,34,87,40,053,42,1*79
$GLGSV,3,3,09,88,64,299,43,1*46
$GAGSV,3,1,11,03,01,096,,05,07,049,28,09,01,002,,13,57,236,27,7*71
$GAGSV,3,2,11,15,65,055,41,21,56,288,42,23,11,320,37,26,06,236,,7*75
$GAGSV,3,3,11,27,52,181,42,30,07,154,44,34,14,055,41,7*4C
$GBGSV,3,1,11,02,03,100,38,05,18,122,43,08,30,037,37,13,36,044,45,1*78
$GBGSV,3,2,11,19,20,044,45,21,10,151,,22,29,101,48,23,16,321,,1*7A
$GBGSV,3,3,11,24,23,207,40,25,38,269,,35,18,083,47,1*46
$GNRMC,170055.00,A,4843.26100,N,00920.55565,E,0.014,,070225,,,A,V*16
$GNGGA,170055.00,4843.26100,N,00920.55565,E,1,12,0.48,251.4,M,47.6,M,,*4F
$GPGSV,3,1,11,07,13,315,35,08,27,292,38,10,39,157,47,13,03,026,,1*63
$GPGSV,3,2,11,15,12,057,,16,63,209,40,18,37,059,47,23,53,095,42,1*62
$GPGSV,3,3,11,26,36,184,44,27,64,299,41,30,00,344,,1*58
$GLGSV,3,1,09,65,05,138,,71,21,033,40,72,27,086,46,77,16,190,38,1*76
$GLGSV,3,2,09,78,53,251,40,79,31,322,28,81,15,262,34,87,40,053,43,1*78
$GLGSV,3,3,09,88,64,299,43,1*46
$GAGSV,3,1,11,03,01,096,,05,07,049,28,09,01,002,,13,57,236,28,7*7E
$GAGSV,3,2,11,15,65,055,41,21,56,288,42,23,11,320,36,26,06,236,,7*74
$GAGSV,3,3,11,27,52,181,41,30,07,154,44,34,14,055,41,7*4F
$GBGSV,3,1,11,02,03,100,38,05,18,122,43,08,30,037,37,13,36,044,45,1*78
$GBGSV,3,2,11,19,20,044,45,21,10,151,,22,29,101,48,23,16,321,,1*7A
$GBGSV,3,3,11,24,23,207,39,25,38,269,,35,18,083,47,1*48
$GNRMC,170056.00,A,4843.26102,N,00920.55563,E,0.004,,070225,,,A,V*10
$GNGGA,170056.00,4843.26102,N,00920.55563,E,1,12,0.48,251.4,M,47.6,M,,*48
$GPGSV,3,1,11,07,13,315,35,08,27,292,38,10,39,157,47,13,03,026,,1*63
$GPGSV,3,2,11,15,12,057,,16,63,209,40,18,37,059,47,23,53,095,42,1*62
$GPGSV,3,3,11,26,36,184,44,27,64,299,41,30,00,344,,1*58
$GLGSV,3,1,09,65,05,138,,71,21,033,40,72,27,086,46,77,16,190,38,1*76
$GLGSV,3,2,09,78,53,251,40,79,31,322,28,81,15,262,34,87,40,053,43,1*78
$GLGSV,3,3,09,88,64,299,43,1*46
$GAGSV,3,1,11,03,01,096,,05,07,049,27,09,01,002,,13,57,236,28,7*71
$GAGSV,3,2,11,15,65,055,41,21,56,288,42,23,11,320,36,26,06,236,,7*74
$GAGSV,3,3,11,27,52,181,41,30,07,154,44,34,14,055,41,7*4F
$GBGSV,3,1,11,02,03,100,38,05,18,122,43,08,30,037,38,13,36,044,45,1*77
$GBGSV,3,2,11,19,20,044,45,21,10,151,,22,29,101,48,23,16,321,,1*7A
$GBGSV,3,3,11,24,23,207,39,25,38,269,,35,1,083,47,1*48
$GNRMC,170057.00,A,4843.26103,N,00920.55562,E,0.004,,070225,,,A,V*11
$GNGGA,170057.00,4843.26103,N,00920.55562,E,1,12,0.48,251.4,M,47.6,M,,*49
$GPGSV,3,1,11,07,13,315,34,08,27,292,38,10,39,157,46,13,03,026,,1*63
$GPGSV,3,2,11,15,12,057,,16,63,209,40,18,37,059,47,23,53,095,42,1*62
$GPGSV,3,3,11,26,36,184,44,27,64,299,41,30,00,344,,1*58
$GLGSV,3,1,09,65,05,138,,71,21,033,40,72,27,086,46,77,16,190,38,1*76
$GLGSV,3,2,09,78,53,251,40,79,31,322,29,81,15,262,34,87,40,053,43,1*79
$GLGSV,3,3,09,88,64,299,44,1*41
$GAGSV,3,1,11,03,01,096,,05,07,049,26,09,01,002,,13,57,236,28,7*70
$GAGSV,3,2,11,15,65,055,41,21,56,288,42,23,11,320,37,26,06,236,,7*75
$GAGSV,3,3,11,27,52,181,41,30,07,154,44,34,14,055,41,7*4F
$GBGSV,3,1,11,02,03,100,38,05,18,122,43,08,30,037,38,13,36,044,45,1*77
$GBGSV,3,2,11,19,20,044,45,21,10,151,,22,29,101,48,23,16,321,,1*7A
$GBGSV,3,3,11,24,23,207,38,25,38,269,,35,18,083,47,1*49
$GNRMC,170058.00,A,4843.26104,N,00920.55560,E,0.006,,070225,,,A,V*19
$GNGGA,170058.00,4843.26104,N,00920.55560,E,1,12,0.47,251.3,M,47.6,M,,*4B
$GPGSV,3,1,11,07,13,315,34,08,27,292,38,10,39,157,46,13,03,026,,1*63
$GPGSV,3,2,11,15,12,057,,16,63,209,40,18,37,059,47,23,53,095,42,1*62
$GPGSV,3,3,11,26,36,184,44,27,64,299,40,30,00,344,,1*59
$GLGSV,3,1,09,65,05,138,,71,21,033,40,72,27,086,46,77,16,190,38,1*76
$GLGSV,3,2,09,78,53,251,40,79,31,322,30,81,15,262,34,87,40,053,44,1*76
$GLGSV,3,3,09,88,64,299,44,1*41
$GAGSV,3,1,11,03,01,096,,05,07,049,25,09,01,002,,13,57,236,28,7*73
$GAGSV,3,2,11,15,65,055,41,21,56,288,42,23,11,320,36,26,06,236,,7*74
$GAGSV,3,3,11,27,52,181,41,30,07,154,44,34,14,055,41,7*4F
$GBGSV,3,1,11,02,03,100,38,05,18,122,43,08,30,037,37,13,36,044,45,1*78
$GBGSV,3,2,11,19,20,044,45,21,10,151,,22,29,101,47,23,16,321,,1*75
$GBGSV,3,3,11,24,23,207,38,25,38,269,,35,18,083,47,1*49
$GNGGA,170059.00,4843.26105,N,00920.55556,E,1,12,0.46,251.3,M,47.6,M,,*4F
$GPGSV,3,1,11,07,13,315,34,08,27,292,38,10,39,157,45,13,03,026,,1*60
$GPGSV,3,2,11,15,12,057,,16,63,209,40,18,37,059,47,23,53,095,42,1*62
$GPGSV,3,3,11,26,36,184,44,27,64,299,40,30,00,344,,1*59
$GLGSV,3,1,09,65,05,138,,71,21,033,41,72,27,086,46,77,16,190,38,1*77
$GLGSV,3,2,09,78,53,251,40,79,31,322,31,81,15,262,34,87,40,053,44,1*77
$GLGSV,3,3,09,88,64,299,44,1*41
$GAGSV,3,1,11,03,01,096,,05,07,049,24,09,01,002,,13,57,236,28,7*72
$GAGSV,3,2,11,15,65,055,41,21,56,288,42,23,11,320,36,26,06,236,,7*74
$GAGSV,3,3,11,27,52,181,41,30,07,154,45,34,14,055,41,7*4E
$GBGSV,3,1,11,02,03,100,38,05,18,122,43,08,30,037,38,13,36,044,45,1*77
$GBGSV,3,2,11,19,20,044,45,21,10,151,,22,29,101,47,23,16,321,,1*75
$GBGSV,3,3,11,24,23,207,38,25,38,269,,35,18,083,47,1*49
$GNRMC,170100.00,A,4843.26106,N,00920.55553,E,0.006,,070225,,,A,V*17
$GNGGA,170100.00,4843.6106,N,00920.55553,E,1,12,0.46,251.2,M,47.6,M,,*45
$GPGSV,3,1,11,07,13,315,33,08,27,292,38,10,39,157,45,13,03,026,,1*67
$GPGSV,3,2,11,15,12,057,,16,63,209,40,18,37,059,47,23,53,095,42,1*62
$GPGSV,3,3,11,26,36,184,44,27,64,299,40,30,00,344,,1*59
$GLGSV,3,1,09,65,05,138,,71,21,033,41,72,27,086,46,77,16,190,38,1*77
$GLGSV,3,2,09,78,53,251,41,79,31,322,32,81,15,262,34,87,40,053,44,1*75
$GLGSV,3,3,09,88,64,299,45,1*40
$GAGSV,3,1,11,03,01,096,,05,07,049,23,09,01,002,,13,57,236,29,7*74
$GAGSV,3,2,11,15,65,055,41,21,56,288,41,23,11,320,36,26,06,236,,7*77
$GAGSV,3,3,11,27,52,181,41,30,07,154,45,34,14,055,41,7*4E
$GBGSV,3,1,11,02,03,100,38,05,18,122,43,08,30,037,38,13,36,044,45,1*77
$GBGSV,3,2,11,19,20,044,45,21,10,151,,22,29,101,47,23,16,321,,1*75
$GBGSV,3,3,11,24,23,207,38,25,38,269,,35,18,083,47,1*49
$GNRMC,170101.00,A,4843.26107,N,00920.55550,E,0.005,,070225,,,A,V*17
$GNGGA,170101.00,4843.26107,N,00920.55550,E,1,12,0.46,251.2,M,47.6,M,,*46
$GPGSV,3,1,11,07,13,315,32,08,27,292,38,10,39,157,44,13,03,026,,1*67
$GPGSV,3,2,11,15,12,057,,16,63,209,40,18,37,059,47,23,53,095,42,1*62
$GPGSV,3,3,11,26,36,184,44,27,64,299,39,30,00,344,,1*57
$GLGSV,3,1,09,65,05,138,,71,21,033,41,72,27,086,46,77,16,190,38,1*77
$GLGSV,3,2,09,78,53,251,41,79,31,322,33,81,15,262,34,87,40,053,44,1*74
$GLGSV,3,3,09,88,64,299,45,1*40
$GAGSV,3,1,11,03,01,096,,05,07,049,23,09,01,002,,13,57,236,29,7*74
$GAGSV,3,2,11,15,65,055,42,21,56,288,41,23,11,320,36,26,06,236,,7*74
$GAGSV,3,3,11,27,52,181,41,30,07,154,45,34,14,055,41,7*4E
$GBGSV,3,1,11,02,03,100,38,05,18,122,43,08,30,037,38,13,36,044,45,1*77
$GBGSV,3,2,11,19,20,044,45,21,10,151,,22,29,101,47,23,16,321,,1*75
$GBGSV,3,3,11,24,23,207,38,25,38,269,,35,18,083,47,1*49
$GNRMC,170102.00,A,4843.26108,N,00920.55546,E,0.012,,070225,,,A,V*1A
$GNGGA,170102.00,4843.26108,N,00920.55546,E,1,12,0.46,251.1,M,47.6,M,,*4E
$GPGSV,3,1,11,07,13,315,31,08,27,292,38,10,39,157,44,13,03,026,,1*64
$GPGSV,3,2,11,15,12,057,,16,63,209,40,18,37,059,46,23,53,095,42,1*63
$GPGSV,3,3,11,26,36,184,44,27,64,299,39,30,00,344,,1*57
$GLGSV,3,1,09,65,05,138,,71,21,033,41,72,27,086,46,77,16,190,38,1*77
$GLGSV,3,2,09,78,53,251,41,79,31,322,34,81,15,262,33,87,40,053,44,1*74
$GLGSV,3,3,09,88,64,299,45,1*40
$GAGSV,3,1,11,03,01,096,,05,07,049,23,09,01,002,,13,57,236,29,7*74
$GAGSV,3,2,11,15,65,055,42,21,56,288,41,23,11,320,36,26,06,236,,7*74
$GAGSV,3,3,11,27,52,181,40,30,07,154,45,34,14,055,40,7*4E
$GBGSV,3,1,11,02,03,100,38,05,18,122,43,08,30,037,38,13,36,044,45,1*77
$GBGSV,3,2,11,19,20,044,45,21,10,151,,22,29,101,47,23,16,321,,1*75
$GBGSV,3,3,11,24,23,207,37,25,38,269,,35,18,083,47,1*46
$GNRMC,170103.00,A,4843.26108,N,00920.55542,E,0.007,,070225,,,A,V*1B
$GNGGA,170103.00,4843.26108,N,00920.55542,E,1,12,0.46,251.0,M,47.6,M,,*4A
$GPGSV,3,1,11,07,13,315,31,08,27,292,38,10,39,157,44,13,03,026,,1*64
$GPGSV,3,2,11,15,12,057,,16,63,209,40,18,37,059,46,23,53,095,42,1*63
$GPGSV,3,3,11,26,36,184,44,27,64,299,38,30,00,344,,1*56
$GLGSV,3,1,09,65,05,138,,71,21,033,41,72,27,086,47,77,16,190,38,1*76
$GLGSV,3,2,09,78,53,251,41,79,31,322,34,81,15,262,37,87,40,053,44,1*70
$GLGSV,3,3,09,88,64,299,45,1*40
$GAGSV,3,1,11,03,01,096,,05,07,049,24,09,01,002,,13,57,236,30,7*7B
$GAGSV,3,2,11,15,65,055,41,21,56,288,42,23,11,320,36,26,06,236,,7*74
$GAGSV,3,3,11,27,52,181,40,30,07,154,45,34,14,055,41,7*4F
$GBGSV,3,1,11,02,03,100,38,05,18,122,44,08,30,037,38,13,36,044,45,1*70
$GBGSV,3,2,11,19,20,044,45,21,10,151,,22,29,101,47,23,16,321,,1*75
$GBGSV,3,3,11,24,23,207,37,25,38,269,,35,18,083,47,1*46
$GNRMC,170104.00,A,4843.26109,N,00920.55538,E,0.017,,070225,,,A,V*11
$GNGGA,170104.00,4843.26109,N,00920.55538,E,1,12,0.46,250.9,M,47.6,M,,*49
$GPGSV,3,1,11,07,13,315,31,08,27,292,38,10,39,157,42,13,03,026,,1*62
$GPGSV,3,2,11,15,12,057,,16,63,209,40,18,37,059,46,23,53,095,42,1*63
$GPGSV,3,3,11,26,36,184,44,27,64,299,38,30,00,344,,1*56
$GLGSV,3,1,09,65,05,138,,71,21,033,41,72,27,086,47,77,16,190,38,1*76
$GLGSV,3,2,09,78,53,251,40,79,31,322,35,81,15,262,34,87,40,053,44,1*73
$GLGSV,3,3,09,88,64,299,45,1*40
$GAGSV,3,1,11,03,01,096,,05,07,049,25,09,01,002,,13,57,236,30,7*7A
$GAGSV,3,2,11,15,65,055,42,21,56,288,41,23,11,320,37,26,06,236,,7*75
$GAGSV,3,3,11,27,52,181,40,30,07,154,45,34,14,055,41,7*4F
$GBGSV,3,1,11,02,03,100,38,05,18,122,43,08,30,037,38,13,36,044,45,1*77
$GBGSV,3,2,11,19,20,044,45,21,10,151,,22,29,101,48,23,16,321,,1*7A
$GBGSV,3,3,11,24,23,207,37,25,38,269,,35,18,083,47,1*46
$GNRMC,170105.00,A,4843.26109,N,00920.55534,E,0.018,,070225,,,A,V*13
$GNGGA,170105.00,4843.26109,N,00920.55534,E,1,12,0.46,250.8,M,47.6,M,,*45
$GPGSV,3,1,11,07,13,315,30,08,27,292,39,10,39,157,43,13,03,026,,1*63
$GPGSV,3,2,11,15,12,057,,16,63,209,40,18,37,059,47,23,53,095,42,1*62
$GPGSV,3,3,11,26,36,184,44,27,64,299,37,30,00,344,,1*59
$GLGSV,3,1,09,65,05,138,,71,21,033,41,72,27,086,47,77,16,190,38,1*76
$GLGSV,3,2,09,78,53,251,40,79,31,322,35,81,15,262,35,87,40,053,45,1*73
$GLGSV,3,3,09,88,64,299,45,1*40
$GAGSV,3,1,11,03,01,096,,05,07,049,26,09,01,002,,13,57,236,30,7*79
$GAGSV,3,2,11,15,65,055,42,21,56,288,41,23,11,320,37,26,06,236,,7*75
$GAGSV,3,3,11,27,52,181,40,30,07,154,45,34,14,055,40,7*4E
$GBGSV,3,1,11,02,03,100,38,05,18,122,43,08,30,037,38,13,36,044,45,1*77
$GBGSV,3,2,11,19,20,044,45,21,10,151,,22,29,101,48,23,16,321,,1*7A
$GBGSV,3,3,11,24,23,207,37,25,38,269,,35,18,083,47,1*46
$GNRMC,170106.00,A,4843.26109,N,00920.55530,E,0.009,,070225,,,A,V*14
$GNGGA,170106.00,4843.26109,N,00920.55530,E,1,12,0.48,250.7,M,47.6,M,,*43
$GPGSV,3,1,11,07,13,315,30,08,27,292,39,10,39,157,43,13,03,026,,1*63
$GPGSV,3,2,11,15,12,057,,16,63,209,40,18,37,059,47,23,53,095,42,1*62
$GPGSV,3,3,11,26,36,184,44,27,64,299,37,30,00,344,,1*59
$GLGSV,3,1,09,65,05,138,,71,21,033,42,72,27,086,47,77,16,190,38,1*75
$GLGSV,3,2,09,78,53,251,40,79,31,322,36,81,15,262,34,87,40,053,44,1*70
$GLGSV,3,3,09,88,64,299,45,1*40
$GAGSV,3,1,11,03,01,096,,05,07,049,26,09,01,002,,13,57,236,31,7*78
$GAGSV,3,2,11,15,65,055,42,21,56,288,41,23,11,320,,26,06,236,,7*71
$GAGSV,3,3,11,27,52,181,40,30,07,154,45,34,14,055,40,7*4E
$GBGSV,3,1,11,02,03,100,38,05,18,122,43,08,30,037,37,13,36,044,45,1*78
$GBGSV,3,2,11,19,20,044,44,21,10,151,,22,29,101,47,23,16,321,,1*74
$GBGSV,3,3,11,24,23,207,37,25,38,269,,35,18,083,47,1*46
$GNRMC,170107.00,A,4843.26110,N,00920.55527,E,0.032,,070225,,,A,V*13
$GNGGA,170107.00,4843.26110,N,00920.55527,E,1,12,0.48,250.6,M,47.6,M,,*4D
$GPGSV,3,1,11,07,13,315,29,08,27,292,40,10,39,157,44,13,03,026,,1*62
$GPGSV,3,2,11,15,12,057,,16,63,209,40,18,37,059,47,23,53,095,42,1*62
$GPGSV,3,3,11,26,36,184,43,27,64,299,38,30,00,344,,1*51
$GLGSV,3,1,09,65,05,138,,71,21,033,42,72,27,086,47,77,16,190,39,1*74
$GLGSV,3,2,09,78,53,251,39,79,31,322,36,81,15,262,29,87,40,053,44,1*72
$GLGSV,3,3,09,88,64,299,45,1*40
