$GNRMC,210000.00,A,4843.26190,N,00920.55501,E,0.039,,080225,,,A,V*18
$GNGGA,210000.00,4843.26190,N,00920.55501,E,1,12,0.54,251.4,M,47.6,M,,*4C
$GPGSV,3,1,12,01,75,309,40,02,82,320,38,03,46,243,,04,00,191,,1*63
$GPGSV,3,2,12,08,31,176,46,10,10,059,36,14,17,282,35,17,25,313,44,1*6A
$GPGSV,3,3,12,22,18,303,36,27,03,159,,28,05,103,,32,39,061,49,1*6C
$GLGSV,3,1,10,66,07,030,32,67,58,049,41,68,61,179,42,69,13,200,,1*75
$GLGSV,3,2,10,74,09,297,34,75,11,346,43,81,00,127,13,82,45,118,51,1*75
$GLGSV,3,3,10,83,78,027,32,84,20,313,,1*76
$GAGSV,3,1,11,03,32,162,42,05,49,093,39,06,00,026,11,09,18,039,41,7*75
$GAGSV,3,2,11,13,08,288,,15,59,301,,21,15,319,35,27,22,267,32,7*7D
$GNRMC,210001.00,A,4843.26188,N,00920.55498,E,0.009,,080225,,,A,V*12
$GNGGA,210001.00,4843.26188,N,00920.55498,E,1,12,0.54,251.4,M,47.6,M,,*45
$GPGSV,3,1,12,01,75,309,40,02,82,320,38,03,46,243,,04,00,191,,1*63
$GPGSV,3,2,12,08,31,176,45,10,10,059,36,14,17,282,34,17,25,313,44,1*68
$GPGSV,3,3,12,22,18,303,36,27,03,159,,28,05,103,,32,39,061,49,1*6C
$GLGSV,3,1,10,66,07,030,32,67,58,049,41,68,61,179,42,69,13,200,,1*75
$GLGSV,3,2,10,74,09,297,34,75,11,346,43,81,00,127,11,82,45,118,51,1*77
$GLGSV,3,3,10,83,78,027,33,84,20,313,,1*77
$GAGSV,3,1,11,03,32,162,42,05,49,093,40,06,00,026,11,09,18,039,41,7*7B
$GAGSV,3,2,11,13,08,288,,15,59,301,,21,15,319,35,27,22,267,33,7*7C
$GNRMC,210002.00,A,4843.26185,N,00920.55496,E,0.018,,080225,,,A,V*12
$GNGGA,210002.00,4843.26185,N,00920.55496,E,1,12,0.54,251.5,M,47.6,M,,*44
$GPGSV,3,1,12,01,75,309,40,02,82,320,38,03,46,243,,04,00,191,,1*63
$GPGSV,3,2,12,08,31,176,45,10,10,059,36,14,17,282,34,17,25,313,44,1*68
$GPGSV,3,3,12,22,18,303,36,27,03,159,,28,05,103,,32,39,061,49,1*6C
$GLGSV,3,1,10,66,07,030,32,67,58,049,41,68,61,179,42,69,13,200,,1*75
$GLGSV,3,2,10,74,09,297,34,75,11,346,42,81,00,127,11,82,45,118,51,1*76
$GLGSV,3,3,10,83,78,027,33,84,20,313,,1*77
$GAGSV,3,1,11,03,32,162,42,05,49,093,40,06,00,026,13,09,18,039,41,7*79
$GAGSV,3,2,11,13,08,288,,15,59,301,,21,15,319,35,27,22,267,32,7*7D
$GAGSV,3,3,11,30,07,219,,34,62,087,40,36,12,102,44,7*40
$GNRMC,210003.00,A,4843.26182,N,00920.55494,E,0.013,,080225,,,A,V*1D
$GNGGA,210003.00,4843.26182,N,00920.55494,E,1,12,0.54,251.5,M,47.6,M,,*40
$GPGSV,3,1,12,01,75,309,41,02,82,320,38,03,46,243,,04,00,191,,1*62
$GPGSV,3,2,12,08,31,176,45,10,10,059,37,14,17,282,34,17,25,313,44,1*69
$GPGSV,3,3,12,22,18,303,36,27,03,159,,28,05,103,,32,39,061,49,1*6C
$GLGSV,3,1,10,66,07,030,32,67,58,049,40,68,61,179,43,69,13,200,,1*75
$GLGSV,3,2,10,74,09,297,35,75,11,346,42,81,00,127,14,82,45,118,51,1*72
$GLGSV,3,3,10,83,78,027,33,84,20,313,,1*77
$GAGSV,3,1,11,03,32,162,42,05,49,093,40,06,00,026,11,09,18,039,41,7*7B
$GAGSV,3,2,11,13,08,288,,15,59,301,,21,15,319,34,27,22,267,32,7*7C
$GNRMC,210004.00,A,4843.26178,N,00920.55491,E,0.012,,080225,,,A,V*1B
$GNGGA,210004.00,4843.26178,N,00920.55491,E,1,12,0.54,251.5,M,47.6,M,,*47
$GPGSV,3,1,12,01,75,309,41,02,82,320,37,03,46,243,,04,00,191,,1*6D
$GPGSV,3,2,12,08,31,176,45,10,10,059,37,14,17,282,34,17,25,313,44,1*69
$GPGSV,3,3,12,22,18,303,36,27,03,159,,28,05,103,,32,39,061,49,1*6C
$GLGSV,3,1,10,66,07,030,32,67,58,049,40,68,61,179,43,69,13,200,,1*75
$GLGSV,3,2,10,74,09,297,34,75,11,346,42,81,00,127,14,82,45,118,51,1*73
$GLGSV,3,3,10,83,78,027,33,84,20,313,,1*77
$GAGSV,3,1,11,03,32,162,42,05,49,093,40,06,00,026,11,09,18,039,41,7*7B
$GAGSV,3,2,11,13,08,288,,15,59,301,,21,15,319,34,27,22,267,32,7*7C
$GNRMC,210005.00,A,4843.26174,N,00920.55487,E,0.012,,080225,,,A,V*11
$GNGGA,210005.00,4843.26174,N,00920.55487,E,1,12,0.54,251.5,M,47.6,M,,*4D
$GPGSV,3,1,12,01,75,309,41,02,82,320,37,03,46,243,,04,00,191,,1*6D
$GPGSV,3,2,12,08,31,176,45,10,10,059,37,14,17,282,34,17,25,313,44,1*69
$GPGSV,3,3,12,22,18,303,36,27,03,159,,28,05,103,,32,39,061,49,1*6C
$GLGSV,3,1,10,66,07,030,31,67,58,049,40,68,61,179,43,69,13,200,,1*76
$GLGSV,3,2,10,74,09,297,35,75,11,346,42,81,00,127,10,82,45,118,51,1*76
$GLGSV,3,3,10,83,78,027,34,84,20,313,,1*70
$GAGSV,3,1,11,03,32,162,42,05,49,093,40,06,00,026,13,09,18,039,41,7*79
$GAGSV,3,2,11,13,08,288,,15,59,301,,21,15,319,34,27,22,267,32,7*7C
$GAGSV,3,3,11,30,07,219,,34,62,087,40,36,12,102,44,7*40
$GNRMC,210006.00,A,4843.26171,N,00920.55484,E,0.008,,080225,,,A,V*1F
$GNGGA,210006.00,4843.26171,N,00920.55484,E,1,12,0.55,251.4,M,47.6,M,,*48
$GPGSV,3,1,12,01,75,309,41,02,82,320,37,03,46,243,,04,00,191,,1*6D
$GPGSV,3,2,12,08,31,176,45,10,10,059,37,14,17,282,33,17,25,313,44,1*6E
$GPGSV,3,3,12,22,18,303,36,27,03,159,,28,05,103,,32,39,061,49,1*6C
$GLGSV,3,1,10,66,07,030,31,67,58,049,40,68,61,179,43,69,13,200,,1*76
$GLGSV,3,2,10,74,09,297,35,75,11,346,41,81,00,127,12,82,45,118,50,1*76
$GLGSV,3,3,10,83,78,027,34,84,20,313,,1*70
$GAGSV,3,1,11,03,32,162,42,05,49,093,40,06,00,026,12,09,18,039,41,7*78
$GAGSV,3,2,11,13,08,288,,15,59,301,,21,15,319,34,27,22,267,31,7*7F
$GAGSV,3,3,11,30,07,219,,34,62,087,40,36,12,102,44,7*40
$GNRMC,210007.00,A,4843.26168,N,00920.55481,E,0.011,,080225,,,A,V*1B
$GNGGA,210007.00,4843.26168,N,00920.55481,E,1,12,0.54,251.4,M,47.6,M,,*45
$GPGSV,3,1,12,01,75,309,41,02,82,320,37,03,46,243,,04,00,191,,1*6D
$GPGSV,3,2,12,08,31,176,44,10,10,059,37,14,17,282,33,17,25,313,43,1*68
$GPGSV,3,3,12,22,18,303,36,27,03,159,,28,05,103,,32,39,061,49,1*6C
$GLGSV,3,1,10,66,07,030,31,67,58,049,40,68,61,179,42,69,13,200,,1*77
$GLGSV,3,2,10,74,09,297,35,75,11,346,41,81,00,127,11,82,45,118,50,1*75
$GLGSV,3,3,10,83,78,027,34,84,20,313,,1*70
$GAGSV,3,1,11,03,32,162,42,05,49,093,40,06,00,026,14,09,18,039,41,7*7E
$GAGSV,3,2,11,13,08,288,,15,59,301,,21,15,319,34,27,21,266,31,7*7D
$GNRMC,210008.00,A,4843.26165,N,00920.55478,E,0.009,,080225,,,A,V*16
$GNGGA,210008.00,4843.26165,N,00920.55478,E,1,12,0.54,251.4,M,47.6,M,,*41
$GPGSV,3,1,12,01,75,309,41,02,82,320,37,03,46,243,,04,00,191,,1*6D
$GPGSV,3,2,12,08,31,176,44,10,10,059,37,14,17,282,32,17,25,313,43,1*69
$GPGSV,3,3,12,22,18,303,35,27,03,159,,28,05,103,,32,39,061,49,1*6F
$GLGSV,3,1,10,66,07,030,30,67,58,049,40,68,61,179,42,69,13,200,,1*76
$GLGSV,3,2,10,74,09,297,35,75,11,346,41,81,00,127,12,82,45,118,50,1*76
$GLGSV,3,3,10,83,78,027,35,84,20,313,,1*71
$GAGSV,3,1,11,03,32,162,42,05,49,093,40,06,00,026,11,09,18,039,41,7*7B
$GAGSV,3,2,11,13,08,288,,15,59,301,,21,15,319,33,27,21,266,31,7*7A
$GAGSV,3,3,11,30,07,219,,34,62,087,40,36,12,102,45,7*41
$GNRMC,210009.00,A,4843.26160,N,00920.55475,E,0.040,,080225,,,A,V*12
$GNGGA,210009.00,4843.26160,N,00920.55475,E,1,12,0.54,251.4,M,47.6,M,,*48
$GPGSV,3,1,12,01,75,309,41,02,82,320,37,03,46,243,,04,00,191,,1*6D
$GPGSV,3,2,12,08,31,176,44,10,10,059,37,14,17,282,32,17,25,313,43,1*69
$GPGSV,3,3,12,22,18,303,35,27,03,159,,28,05,103,,32,39,061,49,1*6F
$GLGSV,3,1,10,66,07,030,30,67,58,049,40,68,61,179,41,69,13,200,,1*75
$GLGSV,3,2,10,74,09,297,35,75,11,346,42,81,00,127,15,82,45,118,50,1*72
$GLGSV,3,3,10,83,78,027,35,84,20,313,,1*71
$GAGSV,3,1,11,03,32,162,42,05,49,093,40,06,00,026,13,09,18,039,41,7*79
$GAGSV,3,2,11,13,08,288,,15,59,301,,21,15,319,34,27,21,266,31,7*7D
$GAGSV,3,3,11,30,06,219,,34,62,087,40,36,12,102,45,7*40
$GNRMC,210010.00,A,4843.26156,N,00920.55470,E,0.005,,080225,,,A,V*1B
$GNGGA,210010.00,4843.26156,N,00920.55470,E,1,12,0.54,251.3,M,47.6,M,,*47
$GPGSV,3,1,12,01,75,309,41,02,82,320,38,03,46,243,,04,00,191,,1*62
$GPGSV,3,2,12,08,31,176,45,10,10,059,37,14,17,282,32,17,25,313,43,1*68
$GPGSV,3,3,12,22,18,303,35,27,03,159,,28,05,103,,32,39,061,49,1*6F
$GLGSV,3,1,10,66,07,030,30,67,57,049,39,68,62,179,41,69,13,200,,1*77
$GLGSV,3,2,10,74,08,297,35,75,11,346,42,81,00,127,12,82,44,118,50,1*75
$GLGSV,3,3,10,83,79,030,35,84,20,313,,1*76
$GAGSV,3,1,11,03,32,162,42,05,49,093,40,06,00,026,15,09,18,039,41,7*7F
$GNRMC,210011.00,A,4843.26152,N,00920.55464,E,0.022,,080225,,,A,V*1E
$GNGGA,210011.00,4843.26152,N,00920.55464,E,1,12,0.54,251.3,M,47.6,M,,*47
$GPGSV,3,1,12,01,75,309,40,02,82,320,38,03,46,243,,04,00,191,,1*63
$GPGSV,3,2,12,08,31,176,45,10,10,059,38,14,17,282,32,17,25,313,43,1*67
$GPGSV,3,3,12,22,18,303,35,27,03,159,,28,05,103,,32,39,061,49,1*6F
$GLGSV,3,1,10,66,07,030,30,67,57,049,39,68,62,179,41,69,13,200,,1*77
$GLGSV,3,2,10,74,08,297,35,75,11,346,42,81,00,127,13,82,44,118,50,1*74
$GLGSV,3,3,10,83,79,030,35,84,20,313,,1*76
$GAGSV,3,1,11,03,32,162,42,05,49,093,40,06,00,026,13,09,18,039,41,7*79
$GAGSV,3,2,11,13,08,288,,15,59,301,,21,15,319,33,27,21,266,31,7*7A
$GAGSV,3,3,11,30,06,219,,34,62,087,40,36,12,102,45,7*40
$GNRMC,210012.00,A,4843.26150,N,00920.55460,E,0.015,,080225,,,A,V*1F
$GNGGA,210012.00,4843.26150,N,00920.55460,E,1,12,0.55,251.3,M,47.6,M,,*43
$GPGSV,3,1,12,01,75,309,40,02,82,320,38,03,46,243,,04,00,191,,1*63
$GPGSV,3,2,12,08,31,176,45,10,10,059,38,14,17,282,32,17,25,313,44,1*60
$GPGSV,3,3,12,22,18,303,35,27,03,159,,28,05,103,,32,39,061,49,1*6F
$GLGSV,3,1,10,66,07,030,30,67,57,049,39,68,62,17941,69,13,200,,1*77
$GLGSV,3,2,10,74,08,297,35,75,11,346,43,81,00,127,11,82,44,118,50,1*77
$GLGSV,3,3,10,83,79,030,33,84,20,313,,1*70
$GAGSV,3,1,11,03,32,162,42,05,49,093,40,06,00,026,13,09,18,039,41,7*79
$GAGSV,3,2,11,13,08,288,,15,59,301,,21,15,319,33,27,21,266,31,7*7A
$GNRMC,210013.00,A,4843.26147,N,00920.55457,E,0.047,,080225,,,A,V*1B
$GNGGA,210013.00,4843.26147,N,00920.55457,E,1,12,0.54,251.2,M,47.6,M,,*40
$GPGSV,3,1,12,01,75,309,40,02,82,320,38,03,46,243,,04,00,191,,1*63
$GPGSV,3,2,12,08,31,176,45,10,10,059,38,14,17,282,32,17,25,313,44,1*60
$GPGSV,3,3,12,22,18,303,35,27,03,159,,28,05,103,,32,39,061,49,1*6F
$GLGSV,3,1,10,66,07,030,30,67,57,049,39,68,62,179,41,69,13,200,,1*77
$GLGSV,3,2,10,74,08,297,35,75,11,346,43,81,00,127,12,82,44,118,50,1*74
$GLGSV,3,3,10,83,79,030,33,84,20,313,,1*70
$GAGSV,3,1,11,03,32,162,42,05,49,093,41,06,00,026,10,09,18,039,41,7*7B
$GAGSV,3,2,11,13,08,288,,15,59,301,,21,15,319,33,27,21,266,31,7*7A
$GAGSV,3,3,11,30,06,219,,34,62,088,41,36,11,103,45,7*4C
$GBGSV,3,1,11,02,04,099,35,05,19,121,42,06,14,075,41,09,11,088,44,1*70
$GNRMC,210014.00,A,4843.26144,N,00920.55453,E,0.024,,080225,,,A,V*1E
$GNGGA,210014.00,4843.26144,N,00920.55453,E,1,12,0.54,251.2,M,47.6,M,,*40
$GPGSV,3,1,12,01,75,309,40,02,82,320,38,03,46,243,,04,00,191,,1*63
$GPGSV,3,2,12,0831,176,45,10,10,059,38,14,17,282,32,17,25,313,44,1*60
$GPGSV,3,3,12,22,18,303,34,27,03,159,,28,05,103,,32,39,061,48,1*6F
$GLGSV,3,1,10,66,07,030,31,67,57,049,39,68,62,179,41,69,13,200,,1*76
$GLGSV,3,2,10,74,08,297,36,75,11,346,43,81,00,127,10,82,44,118,50,1*75
$GLGSV,3,3,10,83,79,030,33,84,20,313,,1*70
$GAGSV,3,1,11,03,32,162,43,05,49,093,41,06,00,026,13,09,18,039,41,7*79
$GAGSV,3,2,11,13,08,288,,15,59,301,,21,15,319,33,27,21,266,30,7*7B
$GAGSV,3,3,11,30,06,219,,34,62,088,41,36,11,103,45,7*4C
$GNRMC,210015.00,A,4843.26142,N,00920.55449,E,0.020,,080225,,,A,V*16
$GNGGA,210015.00,4843.26142,N,00920.55449,E,1,12,0.54,251.2,M,47.6,M,,*4C
$GPGSV,3,1,12,01,75,309,39,02,82,320,38,03,46,243,,04,00,191,,1*6D
$GPGSV,3,2,12,08,31,176,45,10,10,059,38,14,17,282,32,17,25,313,44,1*60
$GPGSV,3,3,12,22,18,303,34,27,03,159,,28,05,103,,32,39,061,49,1*6E
$GLGSV,3,1,10,66,07,030,30,67,57,049,40,68,62,179,41,69,13,200,,1*79
$GLGSV,3,2,10,74,08,297,36,75,11,346,43,81,00,127,13,82,44,118,50,1*76
$GLGSV,3,3,10,83,79,030,34,84,20,313,,1*77
$GAGSV,3,1,11,03,32,162,43,05,49,093,41,06,00,026,12,09,18,039,41,7*78
$GAGSV,3,2,11,13,08,288,,15,59,301,,21,15,319,33,27,21,266,30,7*7B
$GNRMC,210016.00,A,4843.26139,N,00920.55446,E,0.002,,080225,,,A,V*16
$GNGGA,210016.00,4843.26139,N,00920.55446,E,1,12,0.54,251.2,M,47.6,M,,*4C
$GPGSV,3,1,12,01,75,309,40,02,82,320,38,03,46,243,,04,00,191,,1*63
$GPGSV,3,2,12,08,31,176,45,10,10,059,38,14,17,282,32,17,25,313,44,1*60
$GPGSV,3,3,12,22,18,303,34,27,03,159,,28,05,103,,32,39,061,49,1*6E
$GLGSV,3,1,10,66,07,030,30,67,57,049,40,68,62,179,42,69,13,200,,1*7A
$GLGSV,3,2,10,74,08,297,36,75,11,346,43,81,00,127,13,82,44,118,50,1*76
$GLGSV,3,3,10,83,79,030,35,84,20,313,,1*76
$GAGSV,3,1,11,03,32,162,43,05,49,093,41,06,00,026,10,09,18,039,41,7*7A
$GAGSV,3,2,11,13,08,288,,15,59,301,,21,15,319,33,27,21,266,30,7*7B
$GAGSV,3,3,11,30,06,219,,34,62,088,41,36,11,103,45,7*4C
$GNRMC,210017.00,A,4843.26137,N,00920.55440,E,0.008,,080225,,,A,V*15
$GNGGA,210017.00,4843.26137,N,00920.55440,E,1,12,0.54,251.2,M,47.6,M,,*45
$GPGSV,3,1,12,01,75,309,39,02,82,320,38,03,46,243,,04,00,191,,1*6D
$GPGSV,3,2,12,08,31,176,45,10,10,059,38,14,17,282,32,17,25,313,44,1*60
$GPGSV,3,3,12,22,18,303,33,27,03,159,,28,05,103,,32,39,061,49,1*69
$GLGSV,3,1,10,66,07,030,31,67,57,049,41,68,62,179,42,69,13,200,,1*7A
$GLGSV,3,2,10,74,08,297,36,75,11,346,43,81,00,127,11,82,44,118,50,1*74
$GLGSV,3,3,10,83,79,030,35,84,20,313,,1*76
$GAGSV,3,1,11,03,32,162,43,05,49,093,41,06,00,026,12,09,18,039,41,7*78
$GAGSV,3,2,11,13,08,288,,15,59,301,,21,15,319,33,27,21,266,29,7*73
$GNRMC,210018.00,A,4843.26135,N,00920.55437,E,0.003,,080225,,,A,V*13
$GNGGA,210018.00,4843.26135,N,00920.55437,E,1,12,0.55,251.2,M,47.6,M,,*49
$GPGSV,3,1,12,01,75,309,40,02,82,320,38,03,46,243,,04,00,191,,1*63
$GPGSV,3,2,12,08,31,176,45,10,10,059,38,14,17,282,32,17,25,313,44,1*60
$GPGSV,3,3,12,22,18,303,33,27,03,159,,28,05,103,,32,39,061,49,1*69
$GLGSV,3,1,10,66,07,030,31,67,57,049,41,68,62,179,42,69,13,200,,1*7A
$GLGSV,3,2,10,74,08,297,36,75,11,346,44,81,00,127,15,82,44,118,50,1*77
$GAGSV,3,1,11,03,32,162,43,05,49,093,41,06,00,026,13,09,18,039,41,7*79
$GAGSV,3,2,11,13,08,288,,15,59,301,,21,15,319,32,27,21,266,29,7*72
$GNRMC,210019.00,A,4843.26133,N,00920.55435,E,0.014,,080225,,,A,V*10
$GNGGA,210019.00,4843.26133,N,00920.55435,E,1,12,0.54,251.2,M,47.6,M,,*4D
$GPGSV,3,1,12,01,75,309,40,02,82,320,38,03,46,243,,04,00,191,,1*63
$GPGSV,3,2,12,08,31,176,45,10,10,059,38,14,17,282,31,17,25,313,44,1*63
$GPGSV,3,3,12,22,18,303,32,27,03,159,,28,05,103,,32,39,061,49,1*68
$GLGSV,3,1,10,66,07,030,31,67,57,049,42,68,62,179,43,69,13,200,,1*78
$GLGSV,3,2,10,74,08,297,37,75,11,346,44,81,00,127,14,82,44,118,50,1*77
$GLGSV,3,3,10,83,79,030,35,84,20,313,,1*76
$GAGSV,3,1,11,03,32,162,44,05,49,093,41,06,00,026,12,09,18,039,41,7*7F
$GAGSV,3,2,11,13,08,288,,15,59,301,,21,15,319,32,27,21,266,29,7*72
$GAGSV,3,3,11,30,06,219,,34,62,088,42,36,11,103,45,7*4F
$GNRMC,210020.00,A,4843.26132,N,00920.55432,E,0.031,,080225,,,A,V*1B
$GNGGA,210020.00,4843.26132,N,00920.55432,E,1,12,0.54,251.1,M,47.6,M,,*42
$GPGSV,3,1,12,01,75,309,39,02,82,320,38,03,46,243,,04,00,191,,1*6D
$GPGSV,3,2,12,08,31,176,45,10,10,059,39,14,17,282,31,17,25,313,44,1*62
$GPGSV,3,3,12,22,18,303,32,27,03,159,,28,05,103,,32,39,061,49,1*68
$GLGSV,3,1,10,66,07,030,30,67,57,049,42,68,62,179,43,69,13,200,,1*79
$GLGSV,3,2,10,74,08,297,37,75,11,346,44,81,00,127,10,82,44,118,50,1*73
$GLGSV,3,3,10,83,79,030,34,84,20,313,,1*77
$GAGSV,3,1,11,03,32,162,44,05,49,093,41,06,00,026,12,09,18,039,41,7*7F
$GAGSV,3,2,11,13,08,288,,15,59,301,,21,15,31932,27,21,266,29,7*72
$GAGSV,3,3,11,30,06,219,,34,62,088,42,36,11,103,45,7*4F
$GNRMC,210021.00,A,4843.26130,N,00920.55429,E,0.019,,080225,,,A,V*18
$GNGGA,210021.00,4843.26130,N,00920.55429,E,1,12,0.54,251.1,M,47.6,M,,*4B
$GPGSV,3,1,12,01,75,309,40,02,82,320,38,03,46,243,,04,00,191,,1*63
$GPGSV,3,2,12,08,31,176,46,10,10,059,39,14,17,282,31,17,25,313,44,1*61
$GPGSV,3,3,12,22,18,303,32,27,03,159,,28,05,103,,32,39,061,49,1*68
$GLGSV,3,1,10,66,07,030,31,67,57,049,43,68,62,179,44,69,13,200,,1*7E
$GLGSV,3,2,10,74,08,297,37,75,11,346,44,81,00,127,15,82,44,118,49,1*7E
$GLGSV,3,3,10,83,79,030,35,84,20,313,,1*76
$GAGSV,3,1,11,03,32,162,44,05,49,093,41,06,00,026,12,09,18,039,41,7*7F
$GAGSV,3,2,11,13,08,288,,15,59,301,,21,15,319,32,27,21,266,29,7*72
$GNRMC,210022.00,A,4843.26128,N,00920.55427,E,0.012,,080225,,,A,V*17
$GNGGA,210022.00,4843.26128,N,00920.55427,E,1,12,0.54,251.1,M,47.6,M,,*4F
$GPGSV,3,1,12,01,75,309,40,02,82,320,38,03,46,243,,04,00,191,,1*63
$GPGSV,3,2,12,08,31,176,46,10,10,059,39,14,17,282,31,17,25,313,43,1*66
$GPGSV,3,3,12,22,18,303,32,27,03,159,,28,05,103,,32,39,061,49,1*68
$GLGSV,3,1,10,66,07,030,31,67,57,049,43,68,62,179,44,69,13,200,,1*7E
$GLGSV,3,2,10,74,08,297,37,75,11,346,44,81,00,127,12,82,44,118,49,1*79
$GLGSV,3,3,10,83,79,030,35,84,20,313,,1*76
$GAGSV,3,1,11,03,32,162,44,05,49,093,41,06,00,026,12,09,18,039,41,7*7F
$GAGSV,3,2,11,13,08,288,,15,59,301,,21,15,319,32,27,21,266,29,7*72
$GAGSV,3,3,11,30,06,219,,34,62,088,42,36,11,103,45,7*4F
$GNRMC,210023.00,A,4843.26127,N,00920.55423,E,0.043,,080225,,,A,V*19
$GNGGA,210023.00,4843.26127,N,00920.55423,E,1,12,0.54,251.0,M,47.6,M,,*44
$GPGSV,3,1,12,01,75,309,40,02,82,320,38,03,46,243,,04,00,191,,1*63
$GPGSV,3,2,12,08,31,176,46,10,10,059,39,14,17,282,31,17,25,313,43,1*66
$GPGSV,3,3,12,22,18,303,32,27,03,159,,28,05,103,,32,39,061,49,1*68
$GLGSV,3,1,10,66,07,030,30,67,57,049,43,68,62,179,44,69,13,200,,1*7F
$GLGSV,3,2,10,74,08,297,37,75,11,346,43,81,00,127,15,82,44,118,49,1*79
$GLGSV,3,3,10,83,79,030,36,84,20,313,,1*75
$GAGSV,3,1,11,03,32,162,44,05,49,093,40,06,00,026,12,09,18,039,41,7*7E
$GAGSV,3,2,11,13,08,288,,15,59,301,,21,15,319,32,27,21,26,29,7*72
$GNRMC,210024.00,A,4843.26126,N,00920.55420,E,0.018,,080225,,,A,V*12
$GNGGA,210024.00,4843.26126,N,00920.55420,E,1,12,0.55,251.0,M,47.6,M,,*40
$GPGSV,3,1,12,01,75,309,40,02,82,320,38,03,46,243,,04,00,191,,1*63
$GPGSV,3,2,12,08,31,176,46,10,10,059,39,14,17,282,32,17,25,313,43,1*65
$GPGSV,3,3,12,22,18,303,32,27,03,159,,28,05,103,,32,39,061,49,1*68
$GLGSV,3,1,10,66,07,030,30,67,57,049,43,68,62,179,44,69,13,200,,1*7F
$GLGSV,3,2,10,74,08,297,37,75,11,346,43,81,00,127,12,82,44,118,49,1*7E
$GLGSV,3,3,10,83,79,030,35,84,20,313,,1*76
$GNRMC,210025.00,A,4843.26125,N,00920.55417,E,0.011,,080225,,,A,V*1D
$GNGGA,210025.00,4843.26125,N,00920.55417,E,1,12,0.54,250.9,M,47.6,M,,*4F
$GPGSV,3,1,12,01,75,309,40,02,82,320,39,03,46,243,,04,00,191,,1*62
$GPGSV,3,2,12,08,31,176,46,10,10,059,39,14,17,282,32,17,25,313,43,1*65
$GPGSV,3,3,12,22,18,303,32,27,03,159,,28,05,103,,32,39,061,49,1*68
$GLGSV,3,1,10,66,07,030,30,67,57,049,44,68,62,179,44,69,13,200,,1*78
$GLGSV,3,2,10,74,08,297,37,75,11,346,43,81,00,127,14,82,44,118,48,1*79
$GLGSV,3,3,10,83,79,030,35,84,20,313,,1*76
$GAGSV,3,1,11,03,32,162,44,05,49,093,40,06,00,026,10,09,18,039,41,7*7C
$GAGSV,3,2,11,13,08,288,,15,59,301,,21,15,319,32,27,21,266,28,7*73
$GAGSV,3,3,11,30,06,219,,34,62,088,42,36,11,103,45,7*4F
$GNRMC,210026.00,A,4843.26123,N,00920.55414,E,0.017,,080225,,,A,V*1D
$GNGGA,210026.00,4843.26123,N,00920.55414,E,1,12,0.54,250.9,M,47.6,M,,*49
$GPGSV,3,1,12,01,75,309,40,02,82,320,39,03,46,243,,04,00,191,,1*62
$GPGSV,3,2,12,08,31,176,46,10,10,059,39,14,17,282,32,17,25,313,43,1*65
$GPGSV,3,3,12,22,18,303,32,27,03,159,,28,05,103,,32,39,061,49,1*68
$GLGSV,3,1,10,66,07,030,30,67,57,049,44,68,62,179,44,69,13,200,,1*78
$GLGSV,3,2,10,74,08,297,37,75,11,346,42,81,00,127,12,82,44,118,49,1*7F
$GLGSV,3,3,10,83,79,030,34,84,20,313,,1*77
$GAGSV,3,1,11,03,32,162,44,05,49,093,40,06,00,026,12,09,18,039,41,7*7E
$GAGSV,3,2,11,13,08,288,,15,59,301,,21,15,319,32,27,21,266,28,7*73
$GNRMC,210027.00,A,4843.26122,N,00920.55411,E,0.005,,080225,,,A,V*1B
$GNGGA,210027.00,4843.26122,N,00920.55411,E,1,12,0.54,250.8,M,47.6,M,,*4D
$GPGSV,3,1,12,01,75,309,40,02,82,320,39,03,46,243,,04,00,191,,1*62
$GPGSV,3,2,12,08,31,176,46,10,10,059,39,14,17,282,32,17,25,313,43,1*65
$GPGSV,3,3,12,22,18,303,32,27,03,159,,28,05,103,,32,39,061,49,1*68
$GLGSV,3,1,10,66,07,030,30,67,57,049,44,68,62,179,44,69,13,200,,1*78
$GLGSV,3,2,10,74,08,297,37,75,11,346,42,81,00,127,12,82,44,118,48,1*7E
$GLGSV,3,3,10,83,79,030,34,84,20,313,,1*77
$GAGSV,3,1,11,03,32,162,45,05,49,093,40,06,00,026,10,09,18,039,41,7*7D
$GAGSV,3,2,11,13,08,288,,15,59,301,,21,15,319,32,27,21,266,27,7*7C
$GAGSV,3,3,11,30,06,219,,34,62,088,42,36,11,103,45,7*4F
$GNRMC,210028.00,A,4843.26120,N,00920.55409,E,0.020,,080225,,,A,V*18
$GNGGA,210028.00,4843.26120,N,00920.55409,E,1,12,0.54,250.8,M,47.6,M,,*49
$GPGSV,3,1,12,01,75,309,40,02,82,320,39,03,46,243,,04,00,191,,1*62
$GPGSV,3,2,12,08,31,176,45,10,10,059,39,14,17,282,31,17,25,313,44,1*62
$GPGSV,3,3,12,22,18,303,33,27,03,159,,28,05,103,,32,39,061,49,1*69
$GLGSV,3,1,10,66,07,030,30,67,57,049,44,68,62,179,45,69,13,200,,1*79
$GLGSV,3,2,10,74,08,297,36,75,11,346,42,81,00,127,11,82,44,118,48,1*7C
$GLGSV,3,3,10,83,79,030,33,84,20,313,,1*70
$GAGSV,3,1,11,03,32,162,45,05,49,093,40,06,00,026,12,09,18,039,41,7*7F
$GAGSV,3,2,11,13,08,288,,15,59,301,,21,15,319,32,27,21,266,27,7*7C
$GAGSV,3,3,11,30,06,219,,34,62,088,42,36,11,103,45,7*4F
$GNRMC,210029.00,A,4843.26117,N,00920.55406,E,0.009,,080225,,,A,V*19
$GNGGA,210029.00,4843.26117,N,00920.55406,E,1,12,0.54,250.8,M,47.6,M,,*43
$GPGSV,3,1,12,01,75,309,40,02,82,320,39,03,46,243,,04,00,191,,1*62
$GPGSV,3,2,12,08,31,176,45,10,10,059,39,14,17,282,32,17,25,313,44,1*61
$GPGSV,3,3,12,22,18,303,34,27,03,159,,28,05,103,,32,39,061,49,1*6E
$GLGSV,3,1,10,66,07,030,29,67,57,049,44,68,62,179,45,69,13,200,,1*71
$GLGSV,3,2,10,74,08,297,36,75,11,346,42,81,00,127,10,82,44,118,48,1*7D
$GLGSV,3,3,10,83,79,030,33,84,20,313,,1*70
$GAGSV,3,1,11,03,32,162,45,05,49,093,40,06,00,026,14,09,18,039,42,7*7A
$GAGSV,3,2,11,13,08,288,,15,59,301,,21,15,319,32,27,21,266,27,7*7C
$GNRMC,210030.00,A,4843.26113,N,00920.55403,E,0.009,,080225,,,A,V*10
$GNGGA,210030.00,4843.26113,N,00920.55403,E,1,12,0.54,250.8,M,47.6,M,,*4A
$GPGSV,3,1,12,01,75,309,41,02,82,320,39,03,46,243,,04,00,191,,1*63
$GPGSV,3,2,12,08,31,176,45,10,10,059,38,14,17,282,33,17,25,313,44,1*61
$GPGSV,3,3,12,22,18,303,34,27,03,159,,28,05,103,,32,39,061,49,1*6E
$GLGSV,3,1,10,66,07,030,30,67,57,049,44,68,62,179,45,69,13,200,,1*79
$GLGSV,3,2,10,74,08,297,37,75,11,346,41,81,00,127,13,82,44,118,48,1*7C
$GLGSV,3,3,10,83,79,030,32,84,20,313,,1*71
$GAGSV,3,1,11,03,32,162,45,05,49,093,40,06,00,026,14,09,18,039,42,7*7A
$GAGSV,3,2,11,13,08,288,,15,59,301,,21,15,319,32,27,21,266,27,7*7C
$GNRMC,210031.00,A,4843.26110,N,00920.55400,E,0.004,,080225,,,A,V*1C
$GNGGA,210031.00,4843.26110,N,00920.55400,E,1,12,0.55,250.7,M,47.6,M,,*45
$GPGSV,3,1,12,01,75,309,40,02,82,320,39,03,46,243,,04,00,191,,1*62
$GPGSV,3,2,12,08,31,176,45,10,10,059,39,14,17,282,33,17,25,313,44,1*60
$GPGSV,3,3,12,22,18,303,34,27,03,159,,28,05,103,,32,39,061,49,1*6E
$GLGSV,3,1,10,66,07,030,30,67,57,049,45,68,62,179,44,69,13,200,,1*79
$GLGSV,3,2,10,74,08,297,37,75,11,346,41,81,00,127,10,82,44,118,48,1*7F
$GLGSV,3,3,10,83,79,030,32,84,20,313,,1*71
$GAGSV,3,1,11,03,32,162,46,05,49,093,40,06,00,026,14,09,18,039,42,7*79
$GAGSV,3,2,11,13,08,288,,15,59,301,,21,15,319,32,27,21,266,26,7*7D
$GAGSV,3,3,11,30,06,219,,34,62,088,43,36,11,103,45,7*4E
$GNRMC,210032.00,A,4843.26107,N,00920.55398,E,0.008,,080225,,,A,V*13
$GNGGA,210032.00,4843.26107,N,00920.55398,E,1,12,0.54,250.7,M,47.6,M,,*47
$GPGSV,3,1,12,01,75,309,40,02,82,320,38,03,46,243,,04,00,191,,1*63
$GPGSV,3,2,12,08,31,176,45,10,10,059,39,14,17,282,33,17,25,313,44,1*60
$GPGSV,3,3,12,22,18,303,34,27,03,159,,28,05,103,,32,39,061,49,1*6E
$GLGSV,3,1,10,66,07,030,30,67,57,049,45,68,62,179,44,69,14,201,,1*7F
$GLGSV,3,2,10,74,08,297,36,75,11,346,42,81,00,127,11,82,44,118,48,1*7C
$GLGSV,3,3,10,83,79,030,32,84,20,313,,1*71
$GAGSV,3,1,11,03,32,162,46,05,49,093,40,06,00,026,09,09,18,039,42,7*75
$GAGSV,3,2,11,13,08,288,,15,59,301,,21,15,319,32,27,21,266,25,7*7E
$GNRMC,210033.00,A,4843.26104,N,00920.55396,E,0.006,,080225,,,A,V*11
$GNGGA,210033.00,4843.26104,N,00920.55396,E,1,12,0.54,250.6,M,47.6,M,,*4A
$GPGSV,3,1,12,01,75,309,40,02,82,320,38,03,46,243,,04,00,191,,1*63
$GPGSV,3,2,12,08,31,176,45,10,10,059,38,14,17,282,33,17,25,313,44,1*61
$GPGSV,3,3,12,22,18,303,35,27,03,159,,28,05,103,,32,39,061,48,1*6E
$GLGSV,3,1,10,66,07,030,30,67,57,049,45,68,62,179,44,69,14,201,,1*7F
$GLGSV,3,2,10,74,08,297,36,75,11,346,42,81,00,127,15,82,44,118,48,1*78
$GLGSV,3,3,10,83,79,030,33,84,20,313,,1*70
$GAGSV,3,1,11,03,32,162,46,05,49,093,40,06,00,026,11,09,18,039,42,7*7C
$GAGSV,3,2,11,13,08,288,,15,59,301,,21,15,319,32,27,21,266,25,7*7E
$GAGSV,3,3,11,30,06,219,,34,62,088,42,36,11,103,44,7*4E
$GNRMC,210034.00,A,4843.26101,N,00920.55394,E,0.012,,080225,,,A,V*14
$GNGGA,210034.00,4843.26101,N,00920.55394,E,1,12,0.54,250.6,M,47.6,M,,*4A
$GPGSV,3,1,12,01,75,309,40,02,82,320,38,03,46,243,,04,00,191,,1*63
$GPGSV,3,2,12,08,31,176,45,10,10,059,38,14,17,282,33,17,25,313,44,1*61
$GPGSV,3,3,12,22,18,303,35,27,03,159,,28,05,103,,32,39,061,48,1*6E
$GLGSV,3,1,10,66,07,030,30,67,57,049,45,68,62,179,44,69,14,201,,1*7F
$GLGSV,3,2,10,74,08,297,36,75,11,346,42,81,00,127,13,82,44,118,48,1*7E
$GLGSV,3,3,10,83,79,030,33,84,20,313,,1*70
$GAGSV,3,1,11,03,32,162,46,05,49,093,40,06,00,026,12,09,18,039,42,7*7F
$GAGSV,3,2,11,13,08,288,,15,59,301,,21,15,319,32,27,21,266,25,7*7E
$GNRMC,210035.00,A,4843.26097,N,00920.55391,E,0.013,,080225,,,A,V*1F
$GNGGA,210035.00,4843.26097,N,00920.55391,E,1,12,0.54,250.6,M,47.6,M,,*40
$GPGSV,3,1,12,01,75,309,40,02,82,320,37,03,46,243,,04,00,191,,1*6C
$GPGSV,3,2,12,08,31,176,45,10,10,059,38,14,17,282,34,17,25,313,44,1*66
$GPGSV,3,3,12,22,18,303,36,27,03,159,,28,05,103,,32,39,061,48,1*6D
$GLGSV,3,1,10,66,07,030,30,67,57,049,46,68,62,179,44,69,14,201,,1*7C
$GLGSV,3,2,10,74,08,297,36,75,11,346,42,81,00,127,10,82,44,118,48,1*7D
$GLGSV,3,3,10,83,79,030,34,84,20,313,,1*77
$GAGSV,3,1,11,03,32,162,46,05,49,093,41,06,00,026,13,09,18,039,42,7*7F
$GNRMC,210036.00,A,4843.26094,N,00920.55387,E,0.012,,080225,,,A,V*19
$GNGGA,210036.00,4843.26094,N,00920.55387,E,1,12,0.54,250.5,M,47.6,M,,*44
$GPGSV,3,1,12,01,75,309,40,02,82,320,37,03,46,243,,04,00,191,,1*6C
$GPGSV,3,2,12,08,31,176,44,10,10,059,37,14,17,282,33,17,25,313,44,1*6F
$GPGSV,3,3,12,22,18,303,36,27,03,159,,28,05,103,,32,39,061,48,1*6D
$GLGSV,3,1,10,66,07,030,30,67,57,049,46,68,62,179,44,69,14,201,,1*7C
$GLGSV,3,2,10,74,08,297,36,75,11,346,42,81,00,127,13,82,44,118,48,1*7E
$GLGSV,3,3,10,83,79,030,34,84,20,313,,1*77
$GAGSV,3,1,11,03,32,162,47,05,49,093,41,06,00,026,11,09,18,039,42,7*7C
$GNRMC,210037.00,A,4843.26090,N,00920.55384,E,0.009,,080225,,,A,V*15
$GNGGA,210037.00,4843.26090,N,00920.55384,E,1,12,0.54,250.5,M,47.6,M,,*42
$GPGSV,3,1,12,01,75,309,40,02,82,320,36,03,46,243,,04,00,191,,1*6D
$GPGSV,3,2,12,08,31,176,45,10,10,059,37,14,17,282,33,17,25,313,44,1*6E
$GPGSV,3,3,12,22,18,303,36,27,03,159,,28,05,103,,32,39,061,48,1*6D
$GLGSV,3,1,10,66,07,030,29,67,57,049,46,68,62,179,44,69,14,201,,1*74
$GLGSV,3,2,10,74,08,297,35,75,11,346,42,81,00,127,11,82,44,118,48,1*7F
$GLGSV,3,3,10,83,79,030,33,84,20,313,,1*70
$GAGSV,3,1,11,03,32,162,47,05,49,093,41,06,00,026,12,09,18,039,42,7*7F
$GAGSV,3,2,11,13,08,288,,15,59,301,,21,15,319,31,27,21,266,24,7*7C
$GAGSV,3,3,11,30,06,219,,34,62,088,43,36,11,103,44,7*4F
$GNRMC,210038.00,A,4843.26085,N,00920.55380,E,0.013,,080225,,,A,V*11
$GNGGA,210038.00,4843.26085,N,00920.55380,E,1,12,0.54,250.4,M,47.6,M,,*4C
$GPGSV,3,1,12,01,75,309,40,02,82,320,36,03,46,243,,04,00,191,,1*6D
$GPGSV,3,2,12,08,31,176,44,10,10,059,37,14,17,282,33,17,25,313,44,1*6F
$GPGSV,3,3,12,22,18,303,36,27,03,159,,28,05,103,,32,39,061,48,1*6D
$GLGSV,3,1,10,66,07,030,29,67,57,049,46,68,62,179,44,69,14,201,,1*74
$GLGSV,3,2,10,74,08,297,36,75,11,346,42,81,00,127,11,82,44,118,48,1*7C
$GLGSV,3,3,10,83,79,030,33,84,20,313,,1*70
$GAGSV,3,1,11,03,32,162,47,05,49,093,41,06,00,026,10,09,18,039,42,7*7D
$GAGSV,3,2,11,13,08,288,,15,59,301,,21,15,319,31,27,21,266,24,7*7C
$GNRMC,210039.00,A,4843.26081,N,00920.55376,E,0.005,,080225,,,A,V*1A
$GNGGA,210039.00,4843.26081,N,00920.55376,E,1,12,0.54,250.3,M,47.6,M,,*47
$GPGSV,3,1,12,01,75,309,40,02,82,320,34,03,46,243,,04,00,191,,1*6F
$GPGSV,3,2,12,08,31,176,44,10,10,059,36,14,17,282,33,17,25,313,44,1*6E
$GPGSV,3,3,12,22,18,303,37,27,03,159,,28,05,103,,32,39,061,48,1*6C
$GLGSV,3,1,10,66,07,030,29,67,57,049,46,68,62,179,44,69,14,201,,1*74
$GLGSV,3,2,10,74,08,297,35,75,11,346,43,81,00,127,14,82,44,118,48,1*7B
$GLGSV,3,3,10,83,79,030,34,84,20,313,,1*77
$GAGSV,3,1,11,03,32,162,47,05,49,093,41,06,00,026,13,09,18,039,42,7*7E
$GAGSV,3,2,11,13,08,288,,15,59,301,,21,15,319,31,27,21,266,24,7*7C
$GNRMC,210040.00,A,4843.26078,N,00920.55373,E,0.016,,080225,,,A,V*15
$GNGGA,210040.00,4843.26078,N,00920.55373,E,1,12,0.55,250.2,M,47.6,M,,*4A
$GPGSV,3,1,12,01,75,309,40,02,82,320,33,03,46,243,,04,00,191,,1*68
$GPGSV,3,2,12,08,31,176,43,10,10,059,36,14,17,282,33,17,25,313,44,1*69
$GPGSV,3,3,12,22,18,303,37,27,03,159,,28,05,103,,32,39,061,48,1*6C
$GLGSV,3,1,10,66,07,030,28,67,57,049,46,68,62,179,44,69,14,201,,1*75
$GLGSV,3,2,10,74,08,297,35,75,11,346,44,81,00,127,13,82,44,118,48,1*7B
$GLGSV,3,3,10,83,79,030,34,84,20,313,,1*77
$GAGSV,3,1,11,03,32,162,47,05,49,093,41,06,00,026,13,09,18,039,41,7*7D
$GAGSV,3,2,11,13,08,288,,15,59,301,,21,15,319,31,27,21,266,24,7*7C
$GAGSV,3,3,11,30,06,219,,34,62,088,43,36,11,103,44,7*4F
$GNRMC,210042.00,A,4843.26071,N,00920.55365,E,0.004,,080225,,,A,V*1A
$GNGGA,210042.00,4843.26071,N,00920.55365,E,1,12,0.58,250.0,M,47.6,M,,*49
$GPGSV,3,1,12,01,75,309,40,02,82,320,33,03,46,243,,04,00,191,,1*68
$GPGSV,3,2,12,08,31,176,43,10,10,059,35,14,17,282,33,17,25,313,45,1*6B
$GPGSV,3,3,12,22,18,303,37,27,03,159,,28,05,103,,32,39,061,48,1*6C
$GLGSV,3,1,10,66,07,030,26,67,57,049,46,68,62,179,45,69,14,201,,1*7A
$GLGSV,3,2,10,74,08,297,35,75,11,346,44,81,00,127,13,82,44,118,47,1*74
$GLGSV,3,3,10,83,79,030,35,84,20,313,,1*76
$GAGSV,3,1,11,03,32,162,48,05,49,093,41,06,00,026,12,09,18,039,41,7*73
$GAGSV,3,2,11,13,08,288,,15,59,301,,21,15,319,31,27,21,266,25,7*7D
$GAGSV,3,3,11,30,06,219,,34,62,088,43,36,11,103,44,7*4F
$GNRMC,210043.00,A,4843.26068,N,00920.55362,E,0.009,,080225,,,A,V*19
$GNGGA,210043.00,4843.26068,N,00920.55362,E,1,12,0.58,249.9,M,47.6,M,,*46
$GPGSV,3,1,12,01,75,309,41,02,82,320,34,03,46,243,,04,00,191,,1*6E
$GPGSV,3,2,12,08,31,176,43,10,10,059,35,14,17,282,33,17,25,313,44,1*6A
$GPGSV,3,3,12,22,18,303,38,27,03,159,,28,05,103,,32,39,061,48,1*63
$GLGSV,3,1,10,66,07,030,25,67,57,049,47,68,62,179,46,69,14,201,,1*7B
$GLGSV,3,2,10,74,08,297,35,75,11,346,44,81,00,127,14,82,44,118,47,1*73
$GLGSV,3,3,10,83,79,030,34,84,20,313,,1*77
$GAGSV,3,1,11,03,32,162,48,05,49,093,41,06,00,026,13,09,18,039,41,7*72
$GAGSV,3,2,11,13,08,288,,15,59,301,,21,15,319,31,27,21,266,25,7*7D
$GAGSV,3,3,11,30,06,219,,34,62,088,44,36,11,103,44,7*48
$GNRMC,210044.00,A,4843.26066,N,00920.55359,E,0.009,,080225,,,A,V*18
$GNGGA,210044.00,4843.26066,N,00920.55359,E,1,12,0.58,249.9,M,47.6,M,,*47
$GPGSV,3,1,12,01,75,309,41,02,82,320,35,03,46,243,,04,00,191,,1*6F
$GPGSV,3,2,12,08,31,176,42,10,10,059,34,14,17,282,33,17,25,313,45,1*6B
$GPGSV,3,3,12,22,18,303,38,27,03,159,,28,05,103,,32,39,061,48,1*63
$GLGSV,3,1,10,66,07,030,23,67,57,048,47,68,62,179,46,69,14,201,,1*7C
$GLGSV,3,2,10,74,08,297,35,75,11,346,44,81,00,127,14,82,44,118,47,1*73
$GLGSV,3,3,10,83,79,030,35,84,20,313,,1*76
$GAGSV,3,1,11,03,32,162,48,05,49,093,41,06,00,026,12,09,18,039,41,7*73
$GAGSV,3,2,11,13,08,288,,15,59,301,,21,15,319,31,27,21,266,25,7*7D
$GNRMC,210045.00,A,4843.26064,N,00920.55357,E,0.005,,080225,,,A,V*19
$GNGGA,210045.00,4843.26064,N,00920.55357,E,1,12,0.58,249.8,M,47.6,M,,*4B
$GPGSV,3,1,12,01,75,309,41,02,82,320,35,03,46,243,,04,00,191,,1*6F
$GPGSV,3,2,12,08,31,176,42,10,10,059,34,14,17,282,33,17,25,313,44,1*6A
$GPGSV,3,3,12,22,18,303,38,27,03,159,,28,05,103,,32,39,061,48,1*63
$GLGSV,3,1,10,66,07,030,22,67,57,048,47,68,62,179,46,69,14,201,,1*7D
$GLGSV,3,2,10,74,08,297,34,75,11,346,44,81,00,127,12,82,44,118,47,1*74
$GLGSV,3,3,10,83,79,030,34,84,20,313,,1*77
$GAGSV,3,1,11,03,32,162,48,05,49,093,41,06,00,026,12,09,18,039,41,7*73
$GAGSV,3,2,11,13,08,288,,15,59,301,,21,15,319,31,27,21,266,26,7*7E
$GAGSV,3,3,11,30,06,219,,34,62,088,44,36,11,103,44,7*48
$GNRMC,210046.00,A,4843.26061,N,00920.55354,E,0.002,,080225,,,A,V*1B
$GNGGA,210046.00,4843.26061,N,00920.55354,E,1,12,0.58,249.7,M,47.6,M,,*41
$GPGSV,3,1,12,0175,309,41,02,82,320,36,03,46,243,,04,00,191,,1*6C
$GPGSV,3,2,12,08,31,176,42,10,10,059,34,14,17,282,33,17,25,313,44,1*6A
$GPGSV,3,3,12,22,18,303,38,27,03,159,,28,05,103,,32,39,061,48,1*63
$GLGSV,3,1,10,66,07,030,21,67,57,048,47,68,62,179,46,69,14,201,,1*7E
$GLGSV,3,2,10,74,08,297,34,75,11,346,44,81,00,127,11,82,44,118,46,1*76
$GLGSV,3,3,10,83,79,030,34,84,20,313,,1*77
$GAGSV,3,1,11,03,32,162,48,05,49,093,40,06,00,026,11,09,18,039,41,7*71
$GAGSV,3,2,11,13,08,288,,15,59,301,,21,15,319,31,27,21,266,26,7*7E
$GNRMC,210047.00,A,4843.26059,N,00920.55352,E,0.002,,080225,,,A,V*17
$GNGGA,210047.00,4843.26059,N,00920.55352,E,1,12,0.58,249.6,M,47.6,M,,*4C
$GPGSV,3,1,12,01,75,309,41,02,82,320,37,03,46,243,,04,00,191,,1*6D
$GPGSV,3,2,12,08,31,176,41,10,10,059,33,14,17,282,33,17,25,313,44,1*6E
$GPGSV,3,3,12,22,18,303,38,27,03,159,,28,05,103,,32,39,061,48,1*63
$GLGSV,3,1,10,66,07,030,18,67,57,048,47,68,62,179,47,69,14,201,,1*75
$GLGSV,3,2,10,74,08,297,34,75,11,346,44,81,00,127,13,82,44,118,46,1*74
$GLGSV,3,3,10,83,79,030,34,84,20,313,,1*77
$GAGSV,3,1,11,03,32,162,48,05,49,093,41,06,00,026,11,09,18,039,41,7*70
$GAGSV,3,2,11,13,08,288,,15,59,301,,21,15,319,30,27,21,266,27,7*7E
$GNRMC,210048.00,A,4843.26057,N,00920.55349,E,0.009,,080225,,,A,V*17
$GNGGA,210048.00,4843.26057,N,00920.55349,E,1,12,0.58,249.5,M,47.6,M,,*44
$GPGSV,3,1,12,01,75,309,41,02,82,320,37,03,46,243,,04,00,191,,1*6D
$GPGSV,3,2,12,08,31,176,41,10,10,059,33,14,17,282,32,17,25,313,44,1*6F
$GPGSV,3,3,12,22,18,303,39,27,03,159,,28,05,103,,32,39,061,48,1*62
$GLGSV,3,1,10,66,07,030,17,67,57,048,47,68,62,179,47,69,14,201,,1*7A
$GLGSV,3,2,10,74,08,297,34,75,11,346,45,81,00,127,12,82,44,118,45,1*77
$GLGSV,3,3,10,83,79,030,33,84,20,313,,1*70
$GAGSV,3,1,11,03,32,162,48,05,49,093,41,06,00,026,12,09,18,039,41,7*73
$GAGSV,3,2,11,13,08,288,,15,59,301,,21,15,319,31,27,21,266,27,7*7F
$GAGSV,3,3,11,30,06,219,,34,62,088,44,36,11,103,44,7*48
$GNRMC,210049.00,A,4843.26054,N,00920.55347,E,0.015,,080225,,,A,V*16
$GNGGA,210049.00,4843.26054,N,00920.55347,E,1,12,0.57,249.4,M,47.6,M,,*46
$GPGSV,3,1,12,01,75,309,40,02,82,320,37,03,46,243,,04,00,191,,1*6C
$GPGSV,3,2,12,08,31,176,41,10,10,059,33,14,17,282,32,17,25,313,44,1*6F
$GPGSV,3,3,12,22,18,303,39,27,03,159,,28,05,103,,32,39,061,48,1*62
$GLGSV,3,1,10,66,07,030,16,67,57,048,47,68,62,179,47,69,14,201,,1*7B
$GLGSV,3,2,10,74,08,297,34,75,11,346,44,81,00,127,11,82,44,118,45,1*75
$GLGSV,3,3,10,83,79,030,33,84,20,313,,1*70
$GAGSV,3,1,11,03,32,162,48,05,49,093,41,06,00,026,12,09,18,039,41,7*73
$GAGSV,3,2,11,13,08,288,,15,59,301,,21,15,319,31,27,21,266,27,7*7F
$GAGSV,3,3,11,30,06,219,,3,62,088,44,36,11,103,44,7*48
$GNRMC,210050.00,A,4843.26051,N,00920.55346,E,0.021,,080225,,,A,V*1D
$GNGGA,210050.00,4843.26051,N,00920.55346,E,1,12,0.57,249.3,M,47.6,M,,*4D
$GPGSV,3,1,12,01,75,309,40,02,82,320,37,03,46,243,,04,00,191,,1*6C
$GPGSV,3,2,12,08,31,176,41,10,10,059,32,14,17,282,32,17,25,313,44,1*6E
$GPGSV,3,3,12,22,18,303,39,27,03,159,,28,05,103,,32,39,061,48,1*62
$GLGSV,3,1,10,66,07,030,17,67,57,048,47,68,62,179,47,69,14,201,,1*7A
$GLGSV,3,2,10,74,08,297,34,75,11,346,44,81,00,127,14,82,44,118,45,1*70
$GLGSV,3,3,10,83,79,030,34,84,20,313,,1*77
$GAGSV,3,1,11,03,32,162,48,05,49,093,41,06,00,026,11,09,18,039,41,7*70
$GAGSV,3,2,11,13,08,288,,15,59,301,,21,15,319,31,27,21,266,27,7*7F
$GNRMC,210051.00,A,4843.26048,N,00920.55345,E,0.011,,080225,,,A,V*14
$GNGGA,210051.00,4843.26048,N,00920.55345,E,1,12,0.57,249.2,M,47.6,M,,*46
$GPGSV,3,1,12,01,75,309,40,02,82,320,36,03,46,243,,04,00,191,,1*6D
$GPGSV,3,2,12,08,31,176,41,10,10,059,32,14,17,282,31,17,25,313,44,1*6D
$GPGSV,3,3,12,22,18,303,38,27,03,159,,28,05,103,,32,39,061,48,1*63
$GLGSV,3,1,10,66,07,030,18,67,57,048,46,68,62,179,47,69,14,201,,1*74
$GLGSV,3,2,10,74,08,297,34,75,11,346,44,81,00,127,13,82,44,118,45,1*77
$GLGSV,3,3,10,83,79,030,34,84,20,313,,1*77
$GAGSV,3,1,11,03,32,162,48,05,49,093,41,06,00,026,13,09,18,039,41,7*72
$GAGSV,3,2,11,13,08,288,,15,59,301,,21,15,319,31,27,21,266,27,7*7F
$GAGSV,3,3,11,30,06,219,,34,62,088,45,36,11,103,44,7*49
$GNRMC,210052.00,A,4843.26042,N,00920.55343,E,0.025,,080225,,,A,V*1C
$GNGGA,210052.00,4843.26042,N,00920.55343,E,1,12,0.57,249.1,M,47.6,M,,*4A
$GPGSV,3,1,12,01,75,309,40,02,82,320,36,03,46,243,,04,00,191,,1*6D
$GPGSV,3,2,12,08,31,176,42,10,10,059,32,14,17,282,32,17,25,313,44,1*6D
$GPGSV,3,3,12,22,18,303,38,27,03,159,,28,05,103,,32,39,061,48,1*63
$GLGSV,3,1,10,66,07,030,18,67,57,048,46,68,62,179,47,69,14,201,,1*74
$GLGSV,3,2,10,74,08,297,34,75,11,345,44,81,00,127,12,82,44,118,45,1*75
$GLGSV,3,3,10,83,79,030,34,84,20,313,,1*77
$GAGSV,3,1,11,03,32,162,49,05,49,093,41,06,00,026,15,09,18,039,41,7*75
$GAGSV,3,2,11,13,08,288,,15,59,301,,21,15,319,31,27,21,266,27,7*7F
$GNRMC,210053.00,A,4843.26036,N,00920.55340,E,0.016,,080225,,,A,V*1D
$GNGGA,210053.00,4843.26036,N,00920.55340,E,1,12,0.57,248.9,M,47.6,M,,*42
$GPGSV,3,1,12,01,75,309,40,02,82,320,36,03,46,243,,04,00,191,,1*6D
$GPGSV,3,2,12,08,31,176,42,10,10,059,31,14,17,282,32,17,25,313,44,1*6E
$GPGSV,3,3,12,22,18,303,38,27,03,159,,28,05,103,,32,39,061,48,1*63
$GLGSV,3,1,10,66,07,030,18,67,57,048,46,68,62,179,47,69,14,201,,1*74
$GLGSV,3,2,10,74,08,297,34,75,11,345,44,81,00,127,13,82,44,118,45,1*74
$GLGSV,3,3,10,83,79,030,33,84,20,313,,1*70
$GAGSV,3,1,11,03,32,162,49,05,49,093,41,06,00,026,12,09,18,039,41,7*72
$GAGSV,3,2,11,13,08,288,,15,59,301,,21,15,319,31,27,21,266,28,7*70
$GNRMC,210054.00,A,4843.26032,N,00920.55338,E,0.028,,080225,,,A,V*1C
$GNGGA,210054.00,4843.26032,N,00920.55338,E,1,12,0.57,248.8,M,47.6,M,,*4F
$GPGSV,3,1,12,01,75,309,40,02,82,320,37,03,46,243,,04,00,191,,1*6C
$GPGSV,3,2,12,08,31,176,42,10,10,059,31,14,17,282,33,17,25,313,44,1*6F
$GPGSV,3,3,12,22,18,303,38,27,03,159,,28,05,103,,32,39,061,48,1*63
$GLGSV,3,1,10,66,07,030,17,67,57,048,46,68,62,179,47,69,14,201,,1*7B
$GLGSV,3,2,10,74,08,297,35,75,11,345,44,81,00,127,10,82,44,118,45,1*76
$GLGSV,3,3,10,83,79,030,33,84,20,313,,1*70
$GAGSV,3,1,11,03,32,162,49,05,49,093,41,06,00,026,10,09,18,039,41,7*70
$GAGSV,3,2,11,13,08,288,,15,59,301,,21,15,319,31,27,21,266,28,7*70
$GAGSV,3,3,11,30,06,219,,34,62,088,45,36,11,103,44,7*49
$GNRMC,210055.00,A,4843.26028,N,00920.55336,E,0.012,,080225,,,A,V*11
$GNGGA,210055.00,4843.26028,N,00920.55336,E,1,12,0.57,248.6,M,47.6,M,,*45
$GPGSV,3,1,12,01,75,309,40,02,82,320,37,03,46,243,,04,00,191,,1*6C
$GPGSV,3,2,12,08,31,176,42,10,10,059,30,14,17,282,33,17,25,313,44,1*6E
$GPGSV,3,3,12,22,18,303,38,27,03,159,,28,05,103,,32,39,061,48,1*63
$GLGSV,3,1,10,66,07,030,16,67,57,048,46,68,62,179,46,69,14,201,,1*7B
$GLGSV,3,2,10,74,08,297,34,75,11,345,44,81,00,127,14,82,44,118,44,1*72
$GLGSV,3,3,10,83,79,030,34,84,20,313,,1*77
$GAGSV,3,1,11,03,32,162,49,05,49,093,41,06,00,026,12,09,18,039,41,7*72
$GAGSV,3,2,11,13,08,288,,15,59,301,,21,15,319,31,27,21,266,28,7*70
$GAGSV,3,3,11,30,06,219,,34,62,088,45,36,11,103,44,7*49
$GNRMC,210056.00,A,4843.26024,N,00920.55333,E,0.006,,080225,,,A,V*1E
$GNGGA,210056.00,4843.26024,N,00920.55333,E,1,12,0.57,248.5,M,47.6,M,,*4C
$GPGSV,3,1,12,01,75,309,40,02,82,320,37,03,46,243,,04,00,191,,1*6C
$GPGSV,3,2,12,08,31,176,42,10,10,059,29,14,17,282,33,17,25,313,44,1*66
$GPGSV,3,3,12,22,18,303,38,27,03,159,,28,05,103,,32,39,061,48,1*63
$GLGSV,3,1,10,66,07,030,17,67,57,048,47,68,62,179,46,69,14,201,,1*7B
$GLGSV,3,2,10,74,08,297,34,75,11,345,44,81,00,127,14,82,44,118,44,1*72
$GLGSV,3,3,10,83,79,030,34,84,20,313,,1*77
$GAGSV,3,1,11,03,32,162,49,05,49,093,41,06,00,02612,09,18,039,41,7*72
$GAGSV,3,2,11,13,08,288,,15,59,301,,21,15,319,31,27,21,266,28,7*70
$GNRMC,210057.00,A,4843.26019,N,00920.55329,E,0.004,,080225,,,A,V*18
$GNGGA,210057.00,4843.26019,N,00920.55329,E,1,12,0.57,248.4,M,47.6,M,,*49
$GPGSV,3,1,12,01,75,309,40,02,82,320,37,03,46,243,,04,00,191,,1*6C
$GPGSV,3,2,12,08,31,176,42,10,10,059,30,14,17,282,33,17,25,313,44,1*6E
$GPGSV,3,3,12,22,18,303,38,27,03,159,,28,05,103,,32,39,061,49,1*62
$GLGSV,3,1,10,66,07,030,16,67,57,048,47,68,62,179,45,69,14,201,,1*79
$GLGSV,3,2,10,74,08,297,34,75,11,345,44,81,00,127,12,82,44,118,45,1*75
$GLGSV,3,3,10,83,79,030,33,84,20,313,,1*70
$GAGSV,3,1,11,03,32,162,49,05,49,093,41,06,00,026,09,09,18,039,41,7*78
$GAGSV,3,2,11,13,08,288,,15,59,301,,21,15,319,31,27,21,266,28,7*70
$GAGSV,3,3,11,30,06,219,,34,62,088,44,36,11,103,44,7*48
$GNRMC,210058.00,A,4843.26015,N,00920.55329,E,0.016,,080225,,,A,V*18
$GNGGA,210058.00,4843.26015,N,00920.55329,E,1,12,0.57,248.3,M,47.6,M,,*4D
$GPGSV,3,1,12,01,75,309,40,02,82,320,37,03,46,243,,04,00,191,,1*6C
$GPGSV,3,2,12,08,31,176,42,10,10,059,30,14,17,282,34,17,25,313,44,1*69
$GPGSV,3,3,12,22,18,303,38,27,03,159,,28,05,103,,32,39,061,49,1*62
$GLGSV,3,1,09,66,07,030,17,67,57,048,47,68,62,179,45,69,14,201,40,1*74
$GLGSV,3,2,09,74,08,297,34,75,11,345,44,82,44,118,45,83,79,030,34,1*72
$GLGSV,3,3,09,84,20,313,,1*4E
$GAGSV,3,1,11,03,32,162,49,05,49,093,41,06,00,026,13,09,18,039,41,7*73
$GAGSV,3,2,11,13,08,288,,15,59,301,,21,15,319,31,27,21,266,28,7*70
$GAGSV,3,3,11,30,06,219,,34,62,088,44,36,11,103,44,7*48
$GNRMC,210059.00,A,4843.26010,N,00920.55327,E,0.032,,080225,,,A,V*14
$GNGGA,210059.00,4843.26010,N,00920.55327,E,1,12,0.52,248.1,M,47.6,M,,*40
$GPGSV,3,1,12,01,75,309,40,02,82,320,37,03,46,243,,04,00,191,,1*6C
$GPGSV,3,2,12,08,31,176,42,10,10,059,30,14,17,282,34,17,25,313,44,1*69
$GPGSV,3,3,12,22,18,303,39,27,03,159,,28,05,103,,32,39,061,49,1*63
$GLGSV,3,1,09,66,07,030,15,67,57,048,47,68,62,179,45,69,14,201,40,1*76
$GLGSV,3,2,09,74,08,297,35,75,11,345,44,82,44,119,46,83,79,030,35,1*70
$GLGSV,3,3,09,84,20,313,,1*4E
$GAGSV,3,1,11,03,32,162,49,05,49,093,41,06,00,026,11,09,18,039,41,7*71
$GAGSV,3,2,11,13,08,288,,15,59,301,,21,15,319,31,27,21,266,28,7*70
$GAGSV,3,3,11,30,06,219,,34,62,088,44,36,11,103,44,7*48
$GNRMC,210100.00,A,4843.26005,N,00920.55325,E,0.007,,080225,,,A,V*19
$GNGGA,210100.00,4843.26005,N,00920.55325,E,1,12,0.52,248.1,M,47.6,M,,*4B
$GPGSV,3,1,12,01,75,309,39,02,82,320,38,03,46,243,,04,00,191,,1*6D
$GPGSV,3,2,12,08,31,176,42,10,10,059,30,14,17,282,35,17,25,31,44,1*68
$GPGSV,3,3,12,22,18,303,39,27,03,159,,28,05,103,,32,39,061,49,1*63
$GLGSV,3,1,09,66,07,030,15,67,57,048,47,68,62,179,45,69,14,201,40,1*76
$GLGSV,3,2,09,74,08,297,35,75,11,345,44,82,44,119,46,83,79,032,35,1*72
$GLGSV,3,3,09,84,20,313,,1*4E
$GAGSV,3,1,11,03,32,162,49,05,49,093,41,06,00,026,13,09,18,039,41,7*73
$GAGSV,3,2,11,13,08,288,,15,59,301,,21,15,319,31,27,21,266,28,7*70
$GNRMC,210101.00,A,4843.26000,N,00920.55324,E,0.016,,08225,,,A,V*1C
$GNGGA,210101.00,4843.26000,N,00920.55324,E,1,12,0.50,248.0,M,47.6,M,,*4D
$GPGSV,3,1,12,01,75,309,39,02,82,320,38,03,46,243,,04,00,191,,1*6D
$GPGSV,3,2,12,08,31,176,42,10,10,059,30,14,17,282,35,17,25,313,44,1*68
$GPGSV,3,3,12,22,18,303,39,27,03,159,,28,05,103,,32,39,061,49,1*63
$GLGSV,3,1,09,66,07,030,14,67,57,048,47,68,62,179,45,69,14,201,40,1*77
$GLGSV,3,2,09,74,08,297,34,75,11,345,44,82,44,119,46,83,79,032,35,1*73
$GLGSV,3,3,09,84,21,313,,1*4F
$GAGSV,3,1,11,03,32,162,49,05,49,093,41,06,00,026,13,09,18,039,41,7*73
$GAGSV,3,2,11,13,08,288,,15,59,301,,21,15,319,32,27,21,266,28,7*73
$GNRMC,210102.00,A,4843.25996,N,00920.55324,E,0.009,,080225,,,A,V*14
$GNGGA,210102.00,4843.25996,N,00920.55324,E,1,12,0.50,247.9,M,47.6,M,,*4D
$GPGSV,3,1,12,01,75,309,39,02,82,320,38,03,46,243,,04,00,191,,1*6D
$GPGSV,3,2,12,08,31,176,42,10,10,059,30,14,17,282,35,17,25,313,44,1*68
$GPGSV,3,3,12,22,18,303,39,27,03,159,,28,05,103,,32,39,061,49,1*63
$GLGSV,3,1,09,66,07,030,14,67,57,048,47,68,62,179,45,69,14,201,40,1*77
$GLGSV,3,2,09,74,08,296,35,75,11,345,45,82,44,119,47,83,79,032,35,1*73
$GLGSV,3,3,09,84,21,313,,1*4F
$GAGSV,3,1,11,03,32,162,49,05,49,093,41,06,00,026,11,09,18,039,41,7*71
$GAGSV,3,2,11,13,08,288,,15,59,301,,21,15,319,32,27,21,266,28,7*73
$GAGSV,3,3,11,30,06,219,,34,62,088,44,36,11,103,43,7*4F
$GNRMC,210103.00,A,4843.25993,N,00920.55325,E,0.012,,080225,,,A,V*1B
$GNGGA,210103.00,4843.25993,N,00920.55325,E,1,12,0.50,247.8,M,47.6,M,,*49
$GPGSV,3,1,12,01,75,309,38,02,82,320,39,03,46,243,,04,00,191,,1*6D
$GPGSV,3,2,12,08,31,176,42,10,10,059,31,14,17,282,36,17,25,313,44,1*6A
$GPGSV,3,3,12,22,18,303,40,27,03,159,,28,05,103,,32,39,061,48,1*6C
$GLGSV,3,1,09,66,07,030,12,67,57,048,46,68,62,179,45,69,14,201,40,1*70
$GLGSV,3,2,09,74,08,296,35,75,11,345,45,82,44,119,47,83,79,032,35,1*73
$GLGSV,3,3,09,84,21,313,,1*4F
$GAGSV,3,1,11,03,32,162,49,05,49,093,42,06,00,026,12,09,18,039,40,7*70
$GAGSV,3,2,11,13,08,288,,15,59,301,,21,15,319,33,27,21,266,29,7*73
$GAGSV,3,3,11,30,06,219,,34,62,088,44,36,11,103,43,7*4F
$GNRMC,210104.00,A,4843.25989,N,00920.55328,E,0.017,,080225,,,A,V*1F
$GNGGA,210104.00,4843.25989,N,00920.55328,E,1,12,0.50,247.7,M,47.6,M,,*47
$GPGSV,3,1,12,01,75,309,38,02,82,320,39,03,46,243,,04,00,191,,1*6D
$GPGSV,3,2,12,08,31,176,42,10,10,059,31,14,17,282,36,17,25,313,44,1*6A
$GPGSV,3,3,12,22,18,303,40,27,03,159,,28,05,103,,32,39,061,48,1*6C
$GLGSV,3,1,09,66,07,030,17,67,57,048,46,68,62,179,45,69,14,201,40,1*75
$GLGSV,3,2,09,74,08,296,35,75,11,345,45,82,44,119,47,83,79,032,35,1*73
$GLGSV,3,3,09,84,21,313,,1*4F
$GAGSV,3,1,11,03,32,162,49,05,49,093,42,06,00,026,13,09,18,039,40,7*71
$GAGSV,3,2,11,13,08,288,,15,59,301,,21,15,319,33,27,21,266,29,7*73
$GNRMC,210105.00,A,4843.25985,N,00920.55329,E,0.002,,080225,,,A,V*17
$GNGGA,210105.00,4843.25985,N,00920.55329,E,1,12,0.50,247.6,M,47.6,M,,*4A
$GPGSV,3,1,12,01,75,309,38,02,82,320,39,03,46,243,,04,00,191,,1*6D
$GPGSV,3,2,12,08,31,176,43,10,10,059,31,14,17,282,36,17,25,313,44,1*6B
$GPGSV,3,3,12,22,18,303,40,27,03,159,,28,05,103,,32,39,061,48,1*6C
$GLGSV,3,1,09,66,07,030,14,67,57,048,46,68,62,179,45,69,14,201,41,1*77
$GLGSV,3,2,09,74,08,296,35,75,11,345,45,82,44,119,46,83,79,032,35,1*72
$GLGSV,3,3,09,84,21,313,,1*4F
$GAGSV,3,1,11,03,32,162,49,05,49,093,42,06,00,026,11,09,18,039,40,7*73
$GAGSV,3,2,11,13,08,288,,15,59,301,,21,15,319,34,27,21,266,29,7*74
$GAGSV,3,3,11,30,06,219,,34,62,088,44,36,11,103,43,7*4F
$GNRMC,210106.00,A,4843.25981,N,00920.55330,E,0.006,,080225,,,A,V*1C
$GNGGA,210106.00,4843.25981,N,00920.55330,E,1,12,0.50,247.5,M,47.6,M,,*46
$GPGSV,3,1,12,01,75,309,38,02,82,320,39,03,46,243,,04,00,191,,1*6D
$GPGSV,3,2,12,08,31,176,43,10,10,059,30,14,17,282,36,17,25,313,44,1*6A
$GPGSV,3,3,12,22,18,303,40,27,03,159,,28,05,103,,32,39,061,48,1*6C
$GLGSV,3,1,09,66,07,030,13,67,57,048,46,68,62,179,46,69,14,201,42,1*70
$GLGSV,3,2,09,74,08,296,35,75,11,345,45,82,44,119,47,83,79,032,35,1*73
$GLGSV,3,3,09,84,21,313,,1*4F
$GAGSV,3,1,11,03,32,162,48,05,49,093,42,06,00,026,14,09,18,039,40,7*77
$GAGSV,3,2,11,13,08,288,,15,59,301,,21,15,319,34,27,21,266,29,7*74
$GAGSV,3,3,11,30,06,219,,34,62,088,44,36,11,103,43,7*4F
$GNRMC,210107.00,A,4843.25980,N,00920.55332,E,0.012,,080225,,,A,V*1B
$GNGGA,210107.00,4843.25980,N,00920.55332,E,1,12,0.50,247.5,M,47.6,M,,*44
$GPGSV,3,1,12,01,76,310,38,02,82,320,39,03,46,243,,04,00,191,,1*66
$GPGSV,3,2,12,08,31,176,43,10,10,059,30,14,17,282,36,17,25,313,44,1*6A
$GPGSV,3,3,12,22,18,303,40,27,03,159,,28,05,103,,32,39,061,48,1*6C
$GLGSV,3,1,09,66,07,030,12,67,57,048,46,68,62,179,46,69,14,201,42,1*71
$GLGSV,3,2,09,74,08,296,34,75,11,345,45,82,44,119,47,83,79,032,35,1*72
$GLGSV,3,3,09,84,21,313,,1*4F
$GAGSV,3,1,11,03,32,162,48,05,49,093,41,06,00,026,10,09,18,039,40,7*70
$GAGSV,3,2,11,13,08,288,,15,59,301,,21,15,319,34,27,21,266,29,7*74
$GNRMC,210108.00,A,4843.25978,N,00920.55334,E,0.012,,080225,,,A,V*15
$GNGGA,210108.00,4843.25978,N,00920.55334,E,1,12,0.50,247.4,M,47.6,M,,*4B
$GPGSV,3,1,12,01,76,310,38,02,83,322,39,03,46,243,,04,00,191,,1*65
$GPGSV,3,2,12,08,31,176,43,10,10,059,30,14,17,282,36,17,25,313,44,1*6A
$GPGSV,3,3,12,22,18,303,40,27,03,159,,28,05,103,,32,39,061,48,1*6C
$GLGSV,3,1,09,66,07,030,12,67,57,048,46,68,62,179,46,69,14,201,42,1*71
$GLGSV,3,2,09,74,08,296,35,75,11,345,45,82,44,119,47,83,79,032,34,1*72
$GLGSV,3,3,09,84,21,313,,1*4F
$GAGSV,3,1,11,03,32,162,48,05,49,093,41,06,00,026,11,09,18,039,40,7*71
$GAGSV,3,2,11,13,08,288,,15,59,301,,21,15,319,34,27,21,266,28,7*75
$GAGSV,3,3,11,30,06,219,,34,62,088,44,36,11,103,43,7*4F
$GNRMC,210109.00,A,4843.25976,N,00920.55337,E,0.037,,080225,,,A,V*1E
$GNGGA,210109.00,4843.25976,N,00920.55337,E,1,12,0.50,247.4,M,47.6,M,,*47
$GPGSV,3,1,12,01,76,310,38,02,83,322,39,03,47,243,,04,00,191,,1*64
$GPGSV,3,2,12,08,31,176,43,10,10,059,30,14,17,282,36,17,25,313,44,1*6A
$GPGSV,3,3,12,22,18,303,40,27,03,159,,28,05,103,,32,39,061,48,1*6C
$GLGSV,3,1,09,66,07,030,11,67,57,048,46,68,62,179,46,69,14,201,42,1*72
$GLGSV,3,2,09,74,08,296,35,75,11,345,46,82,44,119,47,83,79,032,34,1*71
$GNRMC,210110.00,A,4843.25975,N,00920.55340,E,0.008,,080225,,,A,V*19
$GNGGA,210110.00,4843.25975,N,00920.55340,E,1,12,0.50,247.3,M,47.6,M,,*4B
$GPGSV,3,1,12,01,76,310,39,02,83,322,39,03,47,243,,04,01,191,,1*64
$GPGSV,3,2,12,08,31,176,44,10,10,059,31,14,17,282,36,17,25,313,44,1*6C
$GPGSV,3,3,12,22,18,303,40,27,03,159,,28,05,103,,32,39,061,48,1*6C
$GLGSV,3,1,09,66,07,030,13,67,57,048,46,68,62,179,46,69,14,201,42,1*70
$GLGSV,3,2,09,74,08,296,35,75,11,345,46,82,44,119,47,83,79,032,34,1*71
$GLGSV,3,3,09,84,21,313,,1*4F
$GAGSV,3,1,11,03,32,162,48,05,49,093,41,06,00,026,14,09,18,039,40,7*74
$GAGSV,3,2,11,13,08,288,,15,59,301,,21,15,319,35,27,21,266,28,7*74
$GAGSV,3,3,11,30,06,219,,34,62,088,45,36,11,103,43,7*4E
$GNRMC,210111.00,A,4843.25973,N,00920.55343,E,0.044,,080225,,,A,V*15
$GNGGA,210111.00,4843.25973,N,00920.55343,E,1,12,0.50,247.3,M,47.6,M,,*4F
$GPGSV,3,1,12,01,76,310,39,02,83,322,39,03,47,243,,04,01,191,,1*64
$GPGSV,3,2,12,08,31,176,44,10,10,059,31,14,17,282,37,17,25,313,44,1*6D
$GPGSV,3,3,12,22,18,303,40,27,03,159,,28,05,103,,32,39,061,48,1*6C
$GLGSV,3,1,09,66,07,030,12,67,57,048,46,68,62,179,46,69,14,201,42,1*71
$GLGSV,3,2,09,74,08,296,35,75,11,345,46,82,44,119,48,83,79,032,34,1*7E
$GLGSV,3,3,09,84,21,313,,1*4F
$GAGSV,3,1,11,03,32,162,48,05,49,092,41,06,00,026,14,09,18,039,40,7*75
$GAGSV,3,2,11,13,08,288,,15,59,301,,21,15,319,35,27,21,266,29,7*75
$GAGSV,3,3,11,30,06,219,,34,62,088,45,36,11,103,43,7*4E
$GNRMC,210112.00,A,4843.25973,N,00920.55346,E,0.005,,080225,,,A,V*16
$GNGGA,210112.00,4843.25973,N,00920.55346,E,1,12,0.50,247.3,M,47.6,M,,*49
$GPGSV,3,1,12,01,76,310,39,02,83,322,39,03,47,243,,04,01,191,,1*64
$GPGSV,3,2,12,08,31,176,44,10,10,059,31,14,17,282,37,17,25,313,44,1*6D
$GPGSV,3,3,12,22,18,303,40,27,03,159,,28,05,103,,32,39,061,48,1*6C
$GLGSV,3,1,09,66,07,030,15,67,57,048,46,68,62,179,46,69,14,201,42,1*76
$GLGSV,3,2,09,74,08,296,35,75,11,345,46,82,44,119,48,83,79,032,34,1*7E
$GLGSV,3,3,09,84,21,313,,1*4F
$GAGSV,3,1,11,03,33,162,48,05,49,092,40,06,00,026,13,09,18,039,40,7*72
$GAGSV,3,2,11,13,08,288,,15,59,301,,21,15,319,35,27,21,266,29,7*75
$GNRMC,210113.00,A,4843.25973,N,00920.55348,E,0.008,,080225,,,A,V*14
$GNGGA,210113.00,4843.25973,N,00920.55348,E,1,12,0.50,247.3,M,47.6,M,,*46
$GPGSV,3,1,12,01,76,310,40,02,83,322,38,03,47,243,,04,01,191,,1*6B
$GPGSV,3,2,12,08,31,176,44,10,10,059,31,14,17,282,36,17,25,313,44,1*6C
$GPGSV,3,3,12,22,18,303,40,27,03,159,,28,05,103,,32,39,061,48,1*6C
$GLGSV,3,1,09,66,07,030,10,67,57,048,46,68,62,179,46,69,14,201,43,1*72
$GLGSV,3,2,09,74,08,296,35,75,11,345,46,82,44,119,48,83,79,032,34,1*7E
$GLGSV,3,3,09,84,21,313,,1*4F
$GAGSV,3,1,11,03,33,162,48,05,49,092,40,06,00,026,12,09,18,039,40,7*73
$GAGSV,3,2,11,13,08,288,,15,59,301,,21,15,319,35,27,21,266,29,7*75
$GNRMC,210114.00,A,4843.25974,N,00920.55351,E,0.010,,080225,,,A,V*15
$GNGGA,210114.00,4843.25974,N,00920.55351,E,1,12,0.50,247.4,M,47.6,M,,*49
$GPGSV,3,1,12,01,76,310,40,02,83,322,37,03,47,243,,04,01,191,,1*64
$GPGSV,3,2,12,08,31,176,45,10,10,059,31,14,17,282,37,17,25,313,44,1*6C
$GPGSV,3,3,12,22,18,303,41,27,03,159,,28,0,103,,32,39,061,48,1*6D
$GLGSV,3,1,09,66,07,030,12,67,57,048,46,68,62,179,46,69,14,201,43,1*70
$GLGSV,3,2,09,74,08,296,35,75,11,345,46,82,44,119,48,83,79,032,33,1*79
$GLGSV,3,3,09,84,21,313,,1*4F
$GAGSV,3,1,11,03,33,162,48,05,49,092,40,06,00,026,11,09,18,039,40,7*70
$GAGSV,3,2,11,13,08,288,,15,59,301,,21,15,319,35,27,21,266,29,7*75
$GAGSV,3,3,11,30,06,219,,34,62,089,45,36,11,103,44,7*48
$GNRMC,210115.00,A,4843.25976,N,00920.55354,E,0.004,,080225,,,A,V*16
$GNGGA,210115.00,4843.25976,N,00920.55354,E,1,12,0.50,247.4,M,47.6,M,,*4F
$GPGSV,3,1,12,01,76,310,40,02,83,322,37,03,47,243,,04,01,191,,1*64
$GPGSV,3,2,12,08,31,176,45,10,10,059,31,14,17,282,37,17,25,313,44,1*6C
$GPGSV,3,3,12,22,18,303,41,27,03,159,,28,05,103,,32,39,061,48,1*6D
$GLGSV,3,1,09,66,07,030,13,67,57,048,46,68,62,179,46,69,14,201,43,1*71
$GLGSV,3,2,09,74,08,296,35,75,11,345,46,82,44,119,48,83,79,032,33,1*79
$GLGSV,3,3,09,84,21,313,,1*4F
$GAGSV,3,1,11,03,33,162,48,05,49,092,41,06,00,026,16,09,18,039,40,7*76
$GAGSV,3,2,11,13,08,288,,15,59,301,,21,15,319,35,27,21,266,29,7*75
$GAGSV,3,3,11,30,06,219,,34,62,089,45,36,11,103,44,7*48
$GNRMC,210116.00,A,4843.25977,N,00920.55358,E,0.012,,080225,,,A,V*1F
$GNGGA,210116.00,4843.25977,N,00920.55358,E,1,12,0.50,247.5,M,47.6,M,,*40
$GPGSV,3,1,12,01,76,310,40,02,83,322,36,03,47,243,,04,01,191,,1*65
$GPGSV,3,2,12,08,31,176,45,10,10,060,31,14,17,282,37,17,25,313,44,1*66
$GPGSV,3,3,12,22,18,303,41,27,03,159,,28,05,103,,32,39,061,48,1*6D
$GLGSV,3,1,09,66,07,030,13,67,57,048,46,68,62,179,46,69,14,201,42,1*70
$GLGSV,3,2,09,74,08,296,35,75,11,345,46,82,44,119,48,83,79,032,34,1*7E
$GLGSV,3,3,09,84,21,313,,1*4F
$GAGSV,3,1,11,03,33,162,47,05,49,092,41,06,00,026,13,09,18,039,39,7*72
$GAGSV,3,2,11,13,08,288,,15,59,301,,21,15,319,35,27,21,266,29,7*75
$GNRMC,210117.00,A,4843.25979,N,00920.55362,E,0.006,,080225,,,A,V*1C
$GNGGA,210117.00,4843.25979,,00920.55362,E,1,12,0.50,247.6,M,47.6,M,,*45
$GPGSV,3,1,12,01,76,310,39,02,83,322,36,03,47,243,,04,01,191,,1*6B
$GPGSV,3,2,12,08,31,176,45,10,10,060,32,14,17,282,37,17,25,313,44,1*65
$GPGSV,3,3,12,22,18,303,41,27,03,159,,28,05,102,,32,39,061,48,1*6C
$GLGSV,3,1,09,66,07,030,14,67,57,048,46,68,62,179,46,69,14,201,42,1*77
$GLGSV,3,2,09,74,08,296,34,75,11,345,46,82,44,119,47,83,79,032,34,1*70
$GLGSV,3,3,09,84,21,313,,1*4F
$GAGSV,3,1,11,03,33,162,47,05,49,092,41,06,00,026,12,09,18,039,40,7*7D
$GAGSV,3,2,11,13,09,289,,15,59,301,,21,15,319,35,27,21,266,29,7*75
$GAGSV,3,3,11,30,06,219,,34,62,089,45,36,11,103,44,7*48
$GNRMC,210118.00,A,4843.25981,N,00920.55365,E,0.001,,080225,,,A,V*14
$GNGGA,210118.00,4843.25981,N,00920.55365,E,1,12,0.50,247.7,M,47.6,M,,*4B
$GPGSV,3,1,12,01,76,310,39,02,83,322,36,03,47,243,,04,01,191,,1*6B
$GPGSV,3,2,12,08,31,176,45,10,10,060,33,14,17,282,36,17,25,313,44,1*65
$GPGSV,3,3,12,22,18,303,41,27,03,159,,28,05,102,,32,39,061,48,1*6C
$GLGSV,3,1,09,66,07,030,11,67,57,048,46,68,62,179,46,69,14,201,42,1*72
$GLGSV,3,2,09,74,08,296,34,75,11,345,46,82,44,119,47,83,79,032,33,1*77
$GLGSV,3,3,09,84,21,313,,1*4F
$GAGSV,3,1,11,03,33,162,47,05,49,092,41,06,00,026,12,09,18,039,40,7*7D
$GAGSV,3,2,11,13,09,289,,15,59,301,,21,15,319,35,27,21266,29,7*75
$GNRMC,210119.00,A,4843.25985,N,00920.55369,E,0.006,,080225,,,A,V*1A
$GNGGA,210119.00,4843.25985,N,00920.55369,E,1,12,0.50,247.8,M,47.6,M,,*4D
$GPGSV,3,1,12,01,76,310,39,02,83,322,36,03,47,243,,04,01,191,,1*6B
$GPGSV,3,2,12,08,31,176,45,10,10,060,34,14,17,282,36,17,25,313,45,1*63
$GPGSV,3,3,12,22,18,303,41,27,03,159,,28,05,102,,32,39,061,48,1*6C
$GLGSV,3,1,09,66,07,030,14,67,57,048,46,68,62,179,46,69,14,201,42,1*77
$GLGSV,3,2,09,74,08,296,35,75,11,345,46,82,44,119,47,83,79,032,33,1*76
$GLGSV,3,3,09,84,21,313,,1*4F
$GAGSV,3,1,11,03,33,162,47,05,49,092,41,06,00,026,13,09,18,039,40,7*7C
$GAGSV,3,2,11,13,09,289,,15,59,301,,21,15,319,35,27,21,266,29,7*75
$GAGSV,3,3,11,30,06,219,,34,62,089,45,36,11,103,44,7*48
$GNRMC,210120.00,A,4843.25988,N,00920.55372,E,0.005,,080225,,,A,V*14
$GNGGA,210120.00,4843.25988,N,00920.55372,E,1,12,0.50,247.9,M,47.6,M,,*41
$GPGSV,3,1,12,01,76,310,39,02,83,322,37,03,47,243,,04,01,191,,1*6A
$GPGSV,3,2,12,08,31,176,45,10,10,060,34,14,16,281,36,17,25,313,44,1*60
$GPGSV,3,3,12,22,18,303,41,27,03,159,,28,05,102,,32,39,061,48,1*6C
$GLGSV,3,1,09,66,07,030,18,67,57,048,46,68,62,179,46,69,14,201,42,1*7B
$GLGSV,3,2,09,74,08,296,35,75,11,345,46,82,44,119,47,83,79,032,32,1*77
$GLGSV,3,3,09,84,21,313,,1*4F
$GNRMC,210121.00,A,4843.25992,N,00920.55375,E,0.021,,080225,,,A,V*1F
$GNGGA,210121.00,4843.25992,N,00920.55375,E,1,12,0.50,248.0,M,47.6,M,,*4A
$GPGSV,3,1,12,01,76,310,39,02,83,322,37,03,47,243,,04,01,191,,1*6A
$GPGSV,3,2,12,08,31,176,45,10,10,060,35,14,16,281,35,17,25,313,44,1*62
$GPGSV,3,3,12,22,18,303,41,27,03,159,,28,05,102,,32,39,061,48,1*6C
$GLGSV,3,1,09,66,07,030,15,67,57,048,45,68,62,179,45,69,14,201,41,1*75
$GLGSV,3,2,09,74,08,296,35,75,11,345,46,82,44,119,48,83,79,032,32,1*78
$GLGSV,3,3,09,84,21,313,,1*4F
$GAGSV,3,1,11,03,33,162,47,05,49,092,41,06,00,026,13,09,18,039,40,7*7C
$GNRMC,210122.00,A,4843.25995,N,00920.55378,E,0.008,,080225,,,A,V*1D
$GNGGA,210122.00,4843.25995,N,00920.55378,E,1,12,0.50,248.1,M,47.6,M,,*42
$GPGSV,3,1,12,01,76,310,39,02,83,322,38,03,47,243,,04,01,191,,1*65
$GPGSV,3,2,12,08,31,176,45,10,10,060,35,14,16,281,35,17,25,313,44,1*62
$GPGSV,3,3,12,22,18,303,41,27,03,159,,28,05,102,,32,39,061,48,1*6C
$GLGSV,3,1,09,66,07,030,15,67,57,048,45,68,62,179,45,69,14,201,41,1*75
$GLGSV,3,2,09,74,08,296,35,75,11,345,46,82,44,119,48,83,79,032,31,1*7B
$GLGSV,3,3,09,84,21,313,,1*4F
$GAGSV,3,1,11,03,33,162,46,05,49,092,41,06,00,026,13,09,18,039,40,7*7D
$GAGSV,3,2,11,13,09,289,,15,59,301,,21,15,319,35,27,21,266,30,7*7D
$GAGSV,3,3,11,30,06,219,,34,62,089,45,36,11,103,45,7*49
$GNRMC,210123.00,A,4843.25999,N,00920.55382,E,0.016,,080225,,,A,V*1A
$GNGGA,210123.00,4843.25999,N,00920.55382,E,1,12,0.50,248.2,M,47.6,M,,*49
$GPGSV,3,1,12,01,76,310,38,02,83,322,38,03,47,243,,04,01,191,,1*64
$GPGSV,3,2,12,08,31,176,45,10,10,060,35,14,16,281,35,17,26,313,44,1*61
$GPGSV,3,3,12,22,18,303,41,27,03,159,,28,05,102,,32,39,061,48,1*6C
$GLGSV,3,1,09,66,07,030,18,67,57,048,45,68,62,179,45,69,14,201,41,1*78
$GLGSV,3,2,09,74,08,296,35,75,11,345,46,82,44,119,48,83,79,032,31,1*7B
$GLGSV,3,3,09,84,21,313,,1*4F
$GAGSV,3,1,11,03,33,162,46,05,49,092,41,06,00,026,12,09,18,039,40,7*7C
$GAGSV,3,2,11,13,09,289,,15,59,301,,21,15,319,35,27,21,266,30,7*7D
$GAGSV,3,3,11,30,06,219,,34,62,089,45,36,11,103,44,7*48
$GNRMC,210124.00,A,4843.26003,N,00920.55385,E,0.003,,080225,,,A,V*17
$GNGGA,210124.00,4843.26003,N,00920.55385,E,1,12,0.50,248.2,M,47.6,M,,*40
$GPGSV,3,1,12,01,76,310,38,02,83,322,38,03,47,243,,04,01,191,,1*64
$GPGSV,3,2,12,08,31,176,45,10,10,060,36,14,16,281,35,17,26,313,44,1*62
$GPGSV,3,3,12,22,18,303,41,27,03,159,,28,05,102,,32,39,061,48,1*6C
$GLGSV,3,1,09,66,07,030,16,67,57,048,45,68,62,179,45,69,14,201,41,1*76
$GLGSV,3,2,09,74,08,296,35,75,11,345,45,82,44,119,48,83,79,032,30,1*79
$GLGSV,3,3,09,84,21,313,,1*4F
$GAGSV,3,1,11,03,33,162,46,05,49,092,41,06,00,026,10,09,18,039,40,7*7E
$GAGSV,3,2,11,13,09,289,,15,59,301,,21,15,319,35,27,21,266,30,7*7D
$GNRMC,210125.00,A,4843.26007,N,00920.55388,E,0.009,,080225,,,A,V*15
$GNGGA,210125.00,4843.26007,N,00920.55388,E,1,12,0.50,248.3,M,47.6,M,,*49
$GPGSV,3,1,12,01,76,310,38,02,83,322,39,03,47,243,,04,01,191,,1*65
$GPGSV,3,2,12,08,31,176,45,10,10,060,36,14,16,281,35,17,26,313,44,1*62
$GPGSV,3,3,12,22,18,303,41,27,03,159,,28,05,102,,32,39,061,48,1*6C
$GLGSV,3,1,09,66,07,030,14,67,57,048,45,68,62,179,45,69,14,201,41,1*74
$GLGSV,3,2,09,74,08,296,35,75,11,345,45,82,44,119,48,83,79,032,29,1*71
$GLGSV,3,3,09,84,21,313,,1*4F
$GAGSV,3,1,11,03,33,162,46,05,49,092,41,06,00,026,11,09,18,039,40,7*7F
$GAGSV,3,2,11,13,09,289,,15,59,301,,21,15,319,35,27,21,266,30,7*7D
$GAGSV,3,3,11,30,06,219,,34,62,089,45,36,11,103,44,7*48
$GNRMC,210126.00,A,4843.26010,N,00920.55391,E,0.003,,080225,,,A,V*12
$GNGGA,210126.00,4843.26010,N,00920.55391,E,1,12,0.50,248.4,M,47.6,M,,*43
$GPGSV,3,1,12,01,76,310,37,02,83,322,39,03,47,243,,04,01,191,,1*6A
$GPGSV,3,2,12,08,31,176,45,10,10,060,37,14,16,281,35,17,26,313,44,1*63
$GPGSV,3,3,12,22,18,303,41,27,03,159,,28,05,102,,32,39,061,48,1*6C
$GLGSV,3,1,09,66,07,030,19,67,57,048,45,68,62,179,45,69,14,201,41,1*79
$GLGSV,3,2,09,74,08,296,36,75,11,345,45,82,44,119,48,83,79,032,29,1*72
$GLGSV,3,3,09,84,21,313,,1*4F
$GAGSV,3,1,11,03,33,162,46,05,49,092,41,06,00,026,11,09,18,039,40,7*7F
$GAGSV,3,2,11,13,09,289,,15,59,301,,21,15,319,34,27,21,266,30,7*7C
$GAGSV,3,3,11,30,06,219,,34,62,089,45,36,11,103,44,7*48
$GNRMC,210127.00,A,4843.26014,N,00920.55393,E,0.014,,080225,,,A,V*13
$GNGGA,210127.00,4843.26014,N,00920.55393,E,1,12,0.49,248.5,M,47.6,M,,*4D
$GPGSV,3,1,12,01,76,310,37,02,83,322,39,03,47,243,,04,01,191,,1*6A
$GPGSV,3,2,12,08,31,176,45,10,10,060,37,14,16,281,35,17,26,313,44,1*63
$GPGSV,3,3,12,22,18,302,41,27,03,159,,28,05,102,,32,39,061,48,1*6D
$GLGSV,3,1,09,66,07,030,22,67,57,048,45,68,62,179,45,69,14,201,41,1*71
$GLGSV,3,2,09,74,08,296,38,75,11,345,45,82,44,119,48,83,79,032,28,1*7D
$GLGSV,3,3,09,84,21,313,,1*4F
$GAGSV,3,1,11,03,33,162,45,05,49,092,41,06,00,026,11,09,18,039,40,7*7C
$GAGSV,3,2,11,13,09,289,,15,59,301,,21,15,319,34,27,21,266,30,7*7C
$GNRMC,210128.00,A,4843.26017,N,00920.55395,E,0.008,,080225,,,A,V*14
$GNGGA,210128.00,4843.26017,N,00920.55395,E,1,12,0.49,248.6,M,47.6,M,,*44
$GPGSV,3,1,12,01,76,310,37,02,83,322,39,03,47,243,,04,01,191,,1*6A
$GPGSV,3,2,12,08,31,176,45,10,10,060,38,14,16,281,36,17,26,313,44,1*6F
