$GNRMC,010001.00,A,4843.26052,N,00920.55591,E,0.012,,080225,,,A,V*14
$GNGGA,010001.00,4843.26052,N,00920.55591,E,1,12,0.50,249.8,M,47.6,M,,*48
$GPGSV,3,1,12,03,30,104,44,04,64,059,45,06,59,279,38,07,26,173,44,1*60
$GPGSV,3,2,12,09,82,247,35,11,30,311,37,16,02,083,,17,03,218,,1*66
$GPGSV,3,3,12,19,15,239,35,20,08,297,,26,09,057,33,31,10,035,,1*69
$GLGSV,3,1,10,67,01,070,10,68,45,051,46,69,66,308,38,70,09,262,,1*73
$GLGSV,3,2,10,77,16,023,38,78,27,084,49,79,08,132,,83,13,184,36,1*79
$GLGSV,3,3,10,84,57,248,22,85,32,323,38,1*7C
$GAGSV,3,1,10,02,02,009,,07,20,057,44,10,29,315,39,11,04,324,,7*78
$GAGSV,3,2,10,12,50,300,30,19,55,234,29,26,14,157,38,29,75,066,38,7*78
$GAGSV,3,3,10,30,06,056,29,33,58,187,42,7*7A
$GBGSV,3,1,12,02,02,101,37,05,19,122,43,06,26,044,41,09,37,055,40,1*76
$GBGSV,3,2,12,14,23,079,46,16,23,041,41,24,28,078,48,25,21,136,48,1*79
$GBGSV,3,3,12,26,10,031,,27,39,250,,28,21,203,,30,25,309,,1*7C
$GNRMC,010002.00,A,4843.26052,N,00920.55589,E,0.010,,080225,,,A,V*1C
$GNGGA,010002.00,4843.26052,N,00920.55589,E,1,12,0.50,249.7,M,47.6,M,,*4D
$GPGSV,3,1,12,03,30,104,45,04,64,059,45,06,59,279,38,07,26,173,43,1*66
$GPGSV,3,2,12,09,82,247,35,11,30,311,37,16,02,083,,17,03,218,,1*66
$GPGSV,3,3,12,19,15,239,35,20,08,297,,26,09,057,34,31,10,035,,1*6E
$GLGSV,3,1,10,67,01,070,11,68,45,051,46,69,66,308,38,70,09,262,,1*72
$GLGSV,3,2,10,77,16,023,38,78,27,084,49,79,08,132,,83,13,184,36,1*79
$GLGSV,3,3,10,84,57,248,21,85,32,323,37,1*70
$GAGSV,3,1,10,02,02,009,,07,20,057,44,10,29,315,40,11,04,324,,7*76
$GAGSV,3,2,10,12,50,300,30,19,55,234,29,26,14,157,38,29,75,066,38,7*78
$GAGSV,3,3,10,30,06,056,29,33,58,187,41,7*79
$GBGSV,3,1,12,02,02,101,37,05,19,122,43,06,26,044,41,09,37,055,40,1*76
$GBGSV,3,2,12,14,23,079,46,16,23,041,41,24,28,078,48,25,21,136,48,1*79
$GBGSV,3,3,12,26,10,031,,27,39,250,,28,21,203,,30,25,309,,1*7C
$GNRMC,010003.00,A,4843.26051,N,00920.55589,E,0.010,,080225,,,A,V*1E
$GNGGA,010003.00,4843.26051,N,00920.55589,E,1,12,0.50,249.7,M,47.6,M,,*4F
$GPGSV,3,1,12,03,30,104,45,04,64,059,44,06,59,279,38,07,26,173,43,1*67
$GPGSV,3,2,12,09,82,247,35,11,30,311,36,16,02,083,,17,03,218,,1*67
$GPGSV,3,3,12,19,15,239,35,20,08,297,,26,09,056,34,31,10,035,,1*6F
$GLGSV,3,1,10,67,01,070,12,68,45,051,46,69,66,308,39,70,09,262,,1*70
$GLGSV,3,2,10,77,16,023,38,78,27,084,49,79,08,132,,83,13,184,36,1*79
$GLGSV,3,3,10,84,57,248,21,85,32,323,37,1*70
$GAGSV,3,1,10,02,02,009,,07,20,057,44,10,29,315,40,11,04,324,,7*76
$GAGSV,3,2,10,12,50,300,30,19,55,234,30,26,14,157,38,29,75,066,38,7*70
$GAGSV,3,3,10,30,06,056,29,33,58,187,41,7*79
$GBGSV,3,1,12,02,02,101,37,05,19,122,43,06,26,044,41,09,37,055,40,1*76
$GBGSV,3,2,12,14,23,079,46,16,23,041,41,24,28,078,48,25,21,136,48,1*79
$GBGSV,3,3,12,26,10,031,,27,39,250,,28,21,203,,30,25,309,,1*7C
$GNRMC,010004.00,A,4843.26051,N,00920.55588,E,0.013,,080225,,,A,V*1B
$GNGGA,010004.00,4843.26051,N,00920.55588,E,1,12,0.50,249.6,M,47.6,M,,*48
$GPGSV,3,1,12,03,30,104,45,04,64,059,45,06,59,279,38,07,26,173,42,1*67
$GPGSV,3,2,12,09,82,247,35,11,30,311,36,16,02,083,,17,03,218,,1*67
$GPGSV,3,3,12,19,15,239,35,20,08,297,,26,09,056,34,31,10,035,,1*6F
$GLGSV,3,1,10,67,01,070,13,68,45,051,46,69,66,308,40,70,09,262,,1*7F
$GLGSV,3,2,10,77,16,023,38,78,27,084,49,79,08,132,,83,13,184,36,1*79
$GLGSV,3,3,10,84,57,248,21,85,32,323,38,1*7F
$GAGSV,3,1,10,02,02,009,,07,20,057,44,10,29,315,40,11,04,324,,7*76
$GAGSV,3,2,10,12,50,300,30,19,55,234,30,26,14,157,37,29,75,066,38,7*7F
$GAGSV,3,3,10,30,06,056,29,33,58,187,41,7*79
$GBGSV,3,1,12,02,02,101,36,05,19,122,43,06,26,044,41,09,37,055,40,1*77
$GBGSV,3,2,12,14,23,079,46,16,23,041,41,24,28,078,48,25,21,136,48,1*79
$GBGSV,3,3,12,26,10,031,,27,39,250,,28,21,203,,30,25,309,,1*7C
$GNRMC,010005.00,A,4843.26050,N,00920.55586,E,0.020,,080225,,,A,V*15
$GNGGA,010005.00,4843.26050,N,00920.55586,E,1,12,0.50,249.6,M,47.6,M,,*46
$GPGSV,3,1,12,03,30,104,45,04,64,059,45,06,59,279,38,07,26,173,42,1*67
$GPGSV,3,2,12,09,82,247,35,11,30,311,37,16,02,083,,17,03,218,,1*66
$GPGSV,3,3,12,19,15,239,35,20,08,297,,26,09,056,33,31,10,035,,1*68
$GLGSV,3,1,10,67,01,070,13,68,45,051,45,69,66,308,40,70,09,262,,1*7C
$GLGSV,3,2,10,77,16,023,38,78,27,084,49,79,08,132,,83,13,184,37,1*78
$GLGSV,3,3,10,84,57,248,21,85,32,323,37,1*70
$GAGSV,3,1,10,02,02,009,,07,20,057,44,10,29,315,40,11,04,324,,7*76
$GAGSV,3,2,10,12,50,300,30,19,55,234,30,26,14,157,37,29,75,066,37,7*70
$GAGSV,3,3,10,30,06,056,29,33,58,187,41,7*79
$GBGSV,3,1,12,02,02,101,36,05,19,122,43,06,26,044,41,09,37,055,40,1*77
$GBGSV,3,2,12,14,23,079,46,16,23,041,41,24,28,078,48,25,21,136,48,1*79
$GBGSV,3,3,12,26,10,031,,27,39,250,,28,21,203,,30,25,309,,1*7C
$GNRMC,010006.00,A,4843.26048,N,00920.55586,E,0.014,,080225,,,A,V*18
$GNGGA,010006.00,4843.26048,N,00920.55586,E,1,12,0.50,249.6,M,47.6,M,,*4C
$GPGSV,3,1,12,03,30,104,45,04,64,059,45,06,59,279,38,07,26,173,42,1*67
$GPGSV,3,2,12,09,82,247,35,11,30,311,36,16,02,083,,17,03,218,,1*67
$GPGSV,3,3,12,19,15,239,35,20,08,297,,26,09,056,33,31,10,035,,1*68
$GLGSV,3,1,10,67,01,070,13,68,45,051,45,69,66,308,41,70,09,262,,1*7D
$GLGSV,3,2,10,77,16,023,38,78,27,084,49,79,08,132,,83,13,184,36,1*79
$GLGSV,3,3,10,84,57,248,20,85,32,323,38,1*7E
$GAGSV,3,1,10,02,02,009,,07,20,057,44,10,29,315,39,11,04,324,,7*78
$GAGSV,3,2,10,12,50,300,30,19,55,234,30,26,14,157,37,29,75,066,37,7*70
$GAGSV,3,3,10,30,06,056,29,33,58,187,41,7*79
$GBGSV,3,1,12,02,02,101,37,05,19,122,43,06,26,044,42,09,37,055,40,1*75
$GBGSV,3,2,12,14,23,079,45,16,23,041,41,24,28,078,48,25,21,136,48,1*7A
$GBGSV,3,3,12,26,10,031,,27,39,250,,28,21,203,,30,25,309,,1*7C
$GNRMC,010007.00,A,4843.26047,N,00920.55583,E,0.006,,080225,,,A,V*10
$GNGGA,010007.00,4843.26047,N,00920.55583,E,1,12,0.50,249.5,M,47.6,M,,*44
$GPGSV,3,1,12,03,30,104,45,04,64,059,45,06,59,279,38,07,26,173,42,1*67
$GPGSV,3,2,12,09,82,247,35,11,30,311,36,16,02,083,,17,03,218,,1*67
$GPGSV,3,3,12,19,15,239,35,20,08,297,,26,09,056,33,31,10,035,,1*68
$GLGSV,3,1,10,67,01,070,13,68,45,051,45,69,66,308,41,70,09,262,,1*7D
$GLGSV,3,2,10,77,16,023,37,78,27,084,49,79,08,132,,83,13,184,36,1*76
$GLGSV,3,3,10,84,57,248,20,85,32,323,37,1*71
$GAGSV,3,1,10,02,02,009,,07,20,057,44,10,29,315,40,11,04,324,,7*76
$GAGSV,3,2,10,12,50,300,30,19,55,234,30,26,14,157,37,29,75,066,37,7*70
$GAGSV,3,3,10,30,06,056,29,33,58,187,41,7*79
$GBGSV,3,1,12,02,02,101,37,05,19,122,43,06,26,044,41,09,37,055,40,1*76
$GBGSV,3,2,12,14,23,079,45,16,23,041,41,24,28,078,48,25,21,136,48,1*7A
$GBGSV,3,3,12,26,10,031,,27,39,250,,28,21,203,,30,25,309,,1*7C
$GNRMC,010008.00,A,4843.26046,N,00920.55580,E,0.009,,080225,,,A,V*12
$GNGGA,010008.00,4843.26046,N,00920.55580,E,1,12,0.50,249.4,M,47.6,M,,*48
$GPGSV,3,1,12,03,30,104,46,04,64,059,44,06,59,279,38,07,26,173,42,1*65
$GPGSV,3,2,12,09,82,247,35,11,30,311,36,16,02,083,,17,03,218,,1*67
$GPGSV,3,3,12,19,15,239,35,20,08,297,,26,09,056,32,31,09,035,,1*61
$GLGSV,3,1,10,67,01,070,14,68,45,051,45,69,66,308,41,70,09,262,,1*7A
$GLGSV,3,2,10,77,16,023,36,78,27,084,49,79,08,132,,83,13,184,36,1*77
$GLGSV,3,3,10,84,57,248,20,85,32,323,37,1*71
$GAGSV,3,1,10,02,02,009,,07,20,057,44,10,29,315,40,11,04,324,,7*76
$GAGSV,3,2,10,12,50,300,30,19,55,234,31,26,14,17,38,29,75,066,37,7*7E
$GAGSV,3,3,10,30,06,056,29,33,58,187,40,7*78
$GBGSV,3,1,12,02,02,101,37,05,19,122,43,06,26,044,41,09,37,055,40,1*76
$GBGSV,3,2,12,14,23,079,45,16,23,041,41,24,28,078,48,25,21,136,48,1*7A
$GBGSV,3,3,12,26,10,031,,27,39,250,,28,21,203,,30,25,309,,1*7C
$GNRMC,010009.00,A,4843.26045,N,00920.55576,E,0.029,,080225,,,A,V*1B
$GNGGA,010009.00,4843.26045,N,00920.55576,E,1,12,0.50,249.3,M,47.6,M,,*44
$GPGSV,3,1,12,03,30,104,46,04,64,059,44,06,59,279,38,07,26,173,42,1*65
$GPGSV,3,2,12,09,82,247,35,11,30,311,36,16,02,083,,17,03,218,,1*67
$GPGSV,3,3,12,19,15,239,35,20,08,297,,26,09,056,33,31,09,035,,1*60
$GLGSV,3,1,10,67,01,070,07,68,45,051,45,69,66,308,41,70,09,262,,1*78
$GLGSV,3,2,10,77,16,023,37,78,27,084,49,79,08,132,,83,13,184,37,1*77
$GLGSV,3,3,10,84,57,248,20,85,32,323,36,1*70
$GAGSV,3,1,10,02,02,009,,07,20,057,44,10,29,315,40,11,04,324,,7*76
$GAGSV,3,2,10,12,50,300,30,19,55,234,31,26,14,157,38,29,75,066,37,7*7E
$GAGSV,3,3,10,30,06,056,29,33,58,187,40,7*78
$GBGSV,3,1,12,02,02,101,37,05,19,122,43,06,26,044,41,09,37,055,40,1*76
$GBGSV,3,2,12,14,23,079,45,16,23,041,41,24,28,078,48,25,21,136,47,1*75
$GBGSV,3,3,12,26,10,031,,27,39,250,,28,21,203,,30,25,309,,1*7C
$GNRMC,010010.00,A,4843.26045,N,00920.55573,E,0.008,,080225,,,A,V*15
$GNGGA,010010.00,4843.26045,N,00920.55573,E,1,12,0.50,249.2,M,47.6,M,,*48
$GPGSV,3,1,12,03,30,104,46,04,64,059,44,06,59,279,38,07,26,173,42,1*65
$GPGSV,3,2,12,09,82,247,35,11,30,311,36,16,02,083,,17,03,218,,1*67
$GPGSV,3,3,12,19,15,239,34,20,08,297,,26,09,056,33,31,09,035,,1*61
$GLGSV,3,1,10,67,01,070,11,68,44,051,45,69,66,309,42,70,09,262,,1*7C
$GLGSV,3,2,10,77,16,023,37,78,28,083,49,79,08,132,,83,13,184,37,1*7F
$GLGSV,3,3,10,84,57,248,18,85,33,323,36,1*7A
$GAGSV,3,1,10,02,02,009,,07,20,057,44,10,29,315,40,11,04,324,,7*76
$GAGSV,3,2,10,12,50,300,30,19,55,234,31,26,14,157,39,29,75,066,37,7*7F
$GAGSV,3,3,10,30,06,056,29,33,58,187,40,7*78
$GBGSV,3,1,12,02,02,101,36,05,19,122,43,06,26,044,42,09,37,055,40,1*74
$GBGSV,3,2,12,14,23,079,45,16,23,041,41,24,28,078,48,25,21,136,47,1*75
$GBGSV,3,3,12,26,10,031,,27,39,250,,28,21,203,,30,25,309,,1*7C
$GNRMC,010011.00,A,4843.26044,N,00920.55570,E,0.022,,080225,,,A,V*1E
$GNGGA,010011.00,4843.26044,N,00920.55570,E,1,12,0.50,249.2,M,47.6,M,,*4B
$GPGSV,3,1,12,03,30,104,46,04,64,059,44,06,59,279,38,07,26,173,42,1*65
$GPGSV,3,2,12,09,82,247,35,11,30,311,36,16,02,083,,17,03,218,,1*67
$GPGSV,3,3,12,19,15,239,35,20,08,297,,26,09,056,34,31,09,035,,1*67
$GLGSV,3,1,10,67,01,070,12,68,44,051,45,69,66,309,42,70,09,262,,1*7F
$GLGSV,3,2,10,77,16,023,37,78,28,083,49,79,08,132,,83,13,184,37,1*7F
$GLGSV,3,3,10,84,57,248,18,85,33,323,36,1*7A
$GAGSV,3,1,10,02,02,009,,07,20,057,44,10,29,315,40,11,04,324,,7*76
$GAGSV,3,2,10,12,50,300,30,19,55,234,31,26,14,157,39,29,75,066,37,7*7F
$GAGSV,3,3,10,30,06,056,29,33,58,187,41,7*79
$GBGSV,3,1,12,02,02,101,36,05,19,122,43,06,26,044,41,09,37,055,40,1*77
$GBGSV,3,2,12,14,23,079,45,16,23,041,41,24,28,078,48,25,21,136,47,1*75
$GBGSV,3,3,12,26,10,031,,27,39,250,,28,21,203,,30,25,309,,1*7C
$GNRMC,010012.00,A,4843.26043,N,00920.55567,E,0.023,,080225,,,A,V*1D
$GNGGA,010012.00,4843.26043,N,00920.55567,E,1,12,0.50,249.1,M,47.6,M,,*4A
$GPGSV,3,1,12,03,30,104,47,04,64,059,44,06,59,279,38,07,26,173,42,1*64
$GPGSV,3,2,12,09,82,247,35,11,30,311,36,16,02,083,,17,03,218,,1*67
$GPGSV,3,3,12,19,15,239,35,20,08,297,,26,09,056,35,31,09,035,,1*66
$GLGSV,3,1,10,67,01,070,10,68,44,051,46,69,66,309,42,70,09,262,,1*7E
$GLGSV,3,2,10,77,16,023,38,78,28,083,50,79,08,132,,83,13,184,38,1*77
$GLGSV,3,3,10,84,57,248,15,85,33,323,36,1*77
$GAGSV,3,1,10,02,02,008,,07,20,057,44,10,29,315,40,11,04,324,,7*77
$GAGSV,3,2,10,12,50,300,30,19,55,234,32,26,14,157,39,29,75,066,37,7*7C
$GAGSV,3,3,10,30,06,056,29,33,58,187,41,7*79
$GBGSV,3,1,12,02,02,101,37,05,19,122,43,06,26,044,41,09,37,055,40,1*76
$GBGSV,3,2,12,14,23,079,45,16,23,041,41,24,28,078,48,25,21,136,47,1*75
$GBGSV,3,3,12,26,10,031,,27,39,250,,28,21,203,,30,25,309,,1*7C
$GNRMC,010013.00,A,4843.26042,N,00920.55563,E,0.009,,080225,,,A,V*11
$GNGGA,010013.00,4843.26042,N,00920.55563,E,1,12,0.50,249.0,M,47.6,M,,*4F
$GPGSV,3,1,12,03,30,104,47,04,64,059,44,06,59,279,39,07,26,173,42,1*65
$GPGSV,3,2,12,09,82,247,35,11,30,311,36,16,02,083,,17,03,218,,1*67
$GPGSV,3,3,12,19,15,239,35,20,08,297,,26,09,056,36,31,09,035,,1*65
$GLGSV,3,1,10,67,01,070,13,68,44,051,46,69,66,309,42,70,09,262,,1*7D
$GLGSV,3,2,10,77,16,022,38,78,28,083,50,79,08,132,,83,13,184,38,1*76
$GLGSV,3,3,10,84,57,248,14,85,33,323,36,1*76
$GAGSV,3,1,10,02,02,008,,07,20,057,44,10,29,315,40,11,04,324,,7*77
$GAGSV,3,2,10,12,50,300,30,19,55,234,32,26,14,157,39,29,75,066,37,7*7C
$GAGSV,3,3,10,30,06,056,29,33,58,187,41,7*79
$GBGSV,3,1,12,02,02,101,37,05,19,122,43,06,26,044,41,09,37,055,40,1*76
$GBGSV,3,2,12,14,23,079,45,16,23,041,41,24,28,078,48,25,21,136,47,1*75
$GBGSV,3,3,12,26,10,031,,27,39,250,,28,21,203,,30,25,309,,1*7C
$GNGGA,010014.00,4843.26041,N,00920.55559,E,1,12,0.50,248.9,M,47.6,M,,*4A
$GPGSV,3,1,12,03,30,104,47,04,64,059,44,06,59,279,39,07,26,173,41,1*66
$GPGSV,3,2,12,09,82,247,34,11,30,311,36,16,02,083,,17,03,218,,1*66
$GPGSV,3,3,12,19,15,239,34,20,08,297,,26,09,056,36,31,09,035,,1*64
$GLGSV,3,1,10,67,01,070,12,68,44,052,46,69,66,309,42,70,09,262,,1*7F
$GLGSV,3,2,10,77,16,022,38,78,28,083,50,79,08,132,,83,13,184,38,1*76
$GLGSV,3,3,10,84,57,248,14,85,33,323,36,1*76
$GAGSV,3,1,11,02,02,008,,04,00,236,,07,20,057,44,10,29,315,40,7*74
$GAGSV,3,2,11,11,04,324,,12,50,300,31,19,55,234,32,26,14,157,39,7*70
$GAGSV,3,3,11,29,75,066,36,30,06,056,29,33,58,187,41,7*44
$GBGSV,3,1,12,02,02,101,37,05,19,122,43,06,26,044,41,09,37,055,40,1*76
$GBGSV,3,2,12,14,23,079,45,16,23,041,41,24,28,078,48,25,21,136,47,1*75
$GBGSV,3,3,12,26,10,031,,27,39,250,,28,21,203,,30,25,309,,1*7C
$GNRMC,010015.00,A,4843.26041,N,00920.55556,E,0.027,,080225,,,A,V*1E
$GNGGA,010015.00,4843.26041,N,00920.55556,E,1,12,0.50,248.8,M,47.6,M,,*45
$GPGSV,3,1,12,03,30,104,47,04,64,059,44,06,59,279,39,07,26,173,41,1*66
$GPGSV,3,2,12,09,82,247,34,11,30,311,37,16,02,083,,17,03,218,,1*67
$GPGSV,3,3,12,19,15,239,34,20,08,297,,26,09,056,36,31,09,035,,1*64
$GLGSV,3,1,10,67,01,070,15,68,44,052,46,69,66,309,42,70,09,262,,1*78
$GLGSV,3,2,10,77,16,022,38,78,28,083,50,79,08,132,,83,13,184,38,1*76
$GLGSV,3,3,10,84,57,248,14,85,33,323,36,1*76
$GAGSV,3,1,11,02,02,008,,04,00,236,,07,20,057,44,10,29,315,40,7*74
$GAGSV,3,2,11,11,04,324,,12,50,300,31,19,55,234,32,26,14,157,39,7*70
$GAGSV,3,3,11,29,75,066,36,30,06,056,29,33,58,187,41,7*44
$GBGSV,3,1,12,02,02,101,37,05,19,122,43,06,26,044,41,09,37,055,40,1*76
$GBGSV,3,2,12,14,23,079,45,16,23,041,41,24,28,078,48,25,21,136,47,1*75
$GBGSV,3,3,12,26,10,031,,27,39,250,,28,21,203,,30,25,309,,1*7C
$GNRMC,010016.00,A,4843.26040,N,00920.55551,E,0.028,,080225,,,A,V*14
$GNGGA,010016.00,4843.26040,N,00920.55551,E,1,12,0.50,248.7,M,47.6,M,,*4F
$GPGSV,3,1,12,03,30,104,47,04,64,059,44,06,59,279,39,07,26,173,42,1*65
$GPGSV,3,2,12,09,82,247,35,11,30,311,37,16,02,083,,17,03,218,,1*66
$GPGSV,3,3,12,19,15,239,34,20,08,297,,26,09,056,36,31,09,035,,1*64
$GLGSV,3,1,10,67,01,070,12,68,44,052,46,69,66,309,42,70,09,262,,1*7F
$GLGSV,3,2,10,77,16,022,38,78,28,083,50,79,08,132,,83,13,184,38,1*76
$GLGSV,3,3,10,84,57,248,12,85,33,323,35,1*73
$GAGSV,3,1,11,02,02,008,,04,00,236,,07,20,057,44,10,29,315,40,7*74
$GAGSV,3,2,11,11,04,324,,12,50,300,31,19,55,234,33,26,14,157,39,7*71
$GAGSV,3,3,11,29,75,066,36,30,06,056,28,33,58,187,41,7*45
$GBGSV,3,1,12,02,02,101,37,05,19,122,43,06,26,044,41,09,37,055,40,1*76
$GBGSV,3,2,12,14,23,079,45,16,23,041,41,24,28,078,48,25,21,136,46,1*74
$GBGSV,3,3,12,26,10,031,,27,39,250,,28,21,203,,30,25,309,,1*7C
$GNRMC,010017.00,A,4843.26039,N,00920.55545,E,0.020,,080225,,,A,V*16
$GNGGA,010017.00,4843.26039,N,00920.55545,E,1,12,0.50,248.6,M,47.6,M,,*44
$GPGSV,3,1,12,03,30,104,47,04,64,059,44,06,59,279,39,07,26,173,41,1*66
$GPGSV,3,2,12,09,82,247,34,11,30,311,37,16,02,083,,17,03,218,,1*67
$GPGSV,3,3,12,19,15,239,34,20,08,297,,26,09,056,36,31,09,035,,1*64
$GLGSV,3,1,10,67,01,070,13,68,44,052,46,69,66,309,42,70,09,262,,1*7E
$GLGSV,3,2,10,77,16,022,38,78,28,083,50,79,08,132,,83,13,184,38,1*76
$GLGSV,3,3,10,84,57,248,11,85,33,323,35,1*70
$GAGSV,3,1,11,02,02,008,,04,00,236,,07,20,058,44,10,29,315,40,7*7B
$GAGSV,3,2,11,11,04,324,,12,50,300,31,19,55,234,33,26,14,157,40,7*7F
$GAGSV,3,3,11,29,75,066,37,30,06,056,28,33,58,187,42,7*47
$GBGSV,3,1,12,02,02,101,36,05,19,122,43,06,26,044,41,09,37,055,40,1*77
$GBGSV,3,2,12,14,23,079,45,16,23,041,41,24,28,078,48,25,21,136,46,1*74
$GBGSV,3,3,12,26,10,031,,27,39,250,,28,21,203,,30,25,309,,1*7C
$GNRMC,010018.00,A,4843.26039,N,00920.55540,E,0.041,,080225,,,A,V*1B
$GNGGA,010018.00,4843.26039,N,00920.55540,E,1,12,0.50,248.5,M,47.6,M,,*4D
$GPGSV,3,1,12,03,30,104,47,04,64,059,43,06,59,279,39,07,26,173,42,1*62
$GPGSV,3,2,12,09,82,247,34,11,30,311,37,16,02,083,,17,03,218,,1*67
$GPGSV,3,3,12,19,15,239,34,20,08,297,,26,09,056,36,31,09,035,,1*64
$GLGSV,3,1,10,67,01,070,11,68,44,052,46,69,66,309,42,70,09,262,,1*7C
$GLGSV,3,2,10,77,16,022,38,78,28,083,50,79,08,132,,83,13,184,38,1*76
$GLGSV,3,3,10,84,57,248,13,85,33,323,35,1*72
$GAGSV,3,1,11,02,02,008,,04,00,236,,07,20,058,44,10,29,315,40,7*7B
$GAGSV,3,2,11,11,04,324,,12,50,300,31,19,55,234,33,26,14,157,40,7*7F
$GAGSV,3,3,11,29,75,066,36,30,06,056,28,33,58,187,42,7*46
$GBGSV,3,1,12,02,02,101,37,05,19,122,43,06,26,044,41,09,37,055,40,1*76
$GBGSV,3,2,12,14,23,079,45,16,23,041,41,24,28,078,48,25,21,136,46,1*74
$GBGSV,3,3,12,26,10,031,,27,39,250,,28,21,203,,30,25,309,,1*7C
$GNRMC,010019.00,A,4843.26039,N,00920.55535,E,0.010,,080225,,,A,V*1C
$GNGGA,010019.00,4843.26039,N,00920.55535,E,1,12,0.50,248.5,M,47.6,M,,*4E
$GPGSV,3,1,12,03,30,104,47,04,64,059,43,06,59,279,39,07,26,173,42,1*62
$GPGSV,3,2,12,09,82,247,35,11,30,311,37,16,02,083,,17,03,218,,1*66
$GPGSV,3,3,12,19,15,239,34,20,08,297,,26,09,056,36,31,09,035,,1*64
$GLGSV,3,1,10,67,01,070,12,68,44,052,46,69,66,309,42,70,09,262,,1*7F
$GLGSV,3,2,10,77,16,022,38,78,28,083,50,79,08,132,,83,13,184,38,1*76
$GLGSV,3,3,10,84,57,248,10,85,33,323,34,1*70
$GAGSV,3,1,11,02,02,008,,04,00,236,,07,20,058,44,10,29,315,40,7*7B
$GAGSV,3,2,11,11,04,324,,12,50,300,31,19,55,234,33,26,14,157,40,7*7F
$GAGSV,3,3,11,29,75,066,36,30,06,056,28,33,58,187,42,7*46
$GBGSV,3,1,12,02,02,101,37,05,19,122,43,06,26,044,41,09,37,055,40,1*76
$GBGSV,3,2,12,14,23,079,45,16,23,041,41,24,28,078,48,25,21,136,46,1*74
$GBGSV,3,3,12,26,10,031,,27,39,250,,28,21,203,,30,25,309,,1*7C
$GNRMC,010020.00,A,4843.26038,N,00920.55530,E,0.039,,080225,,,A,V*19
$GNGGA,010020.00,4843.26038,N,00920.55530,E,1,12,0.50,248.4,M,47.6,M,,*41
$GPGSV,3,1,12,03,30,104,47,04,64,059,43,06,59,279,39,07,26,173,43,1*63
$GPGSV,3,2,12,09,82,247,35,11,30,311,37,16,02,083,,17,03,218,,1*66
$GPGSV,3,3,12,19,15,239,33,20,08,297,,26,09,056,36,31,09,035,,1*63
$GLGSV,3,1,10,67,01,070,11,68,44,052,46,69,66,309,42,70,09,262,,1*7C
$GLGSV,3,2,10,77,16,022,37,78,28,083,50,79,08,132,,83,13,184,39,1*78
$GLGSV,3,3,10,84,57,248,12,85,33,323,33,1*75
$GAGSV,3,1,11,02,02,008,,04,00,236,,07,20,058,44,10,29,315,40,7*7B
$GAGSV,3,2,11,11,04,324,,12,50,300,32,19,55,234,33,26,14,157,40,7*7C
$GAGSV,3,3,11,29,75,066,37,30,06,056,28,33,58,187,42,7*47
$GBGSV,3,1,12,02,02,101,37,05,19,122,43,06,26,044,41,09,37,055,40,1*76
$GBGSV,3,2,12,14,23,080,45,16,23,041,41,24,28,078,48,25,21,136,46,1*72
$GBGSV,3,3,12,26,10,031,,27,39,250,,28,21,203,,30,25,309,,1*7C
$GNRMC,010021.00,A,4843.26038,N,00920.55525,E,0.037,,080225,,,A,V*12
$GNGGA,010021.00,4843.26038,N,00920.55525,E,1,12,0.50,248.3,M,47.6,M,,*43
$GPGSV,3,1,12,03,30,104,47,04,64,059,43,06,59,279,39,07,26,173,43,1*63
$GPGSV,3,2,12,09,82,247,35,11,30,311,38,16,02,083,,17,03,218,,1*69
$GPGSV,3,3,12,19,15,239,34,20,08,297,,26,09,056,36,31,09,035,,1*64
$GLGSV,3,1,10,67,01,070,15,8,44,052,46,69,66,309,41,70,09,262,,1*7B
$GLGSV,3,2,10,77,16,022,37,78,28,083,50,79,08,132,,83,13,184,39,1*78
$GLGSV,3,3,10,84,57,248,15,85,33,323,33,1*72
$GAGSV,3,1,11,02,02,008,,04,00,236,,07,20,058,44,10,29,315,40,7*7B
$GAGSV,3,2,11,11,05,324,,12,50,300,31,19,55,234,33,26,14,157,40,7*7E
$GAGSV,3,3,11,29,75,066,37,30,06,056,28,33,58,187,42,7*47
$GBGSV,3,1,12,02,02,101,36,05,19,122,43,06,26,044,41,09,37,055,40,1*77
$GBGSV,3,2,12,14,23,080,45,16,23,041,41,24,28,078,48,25,21,136,46,1*72
$GBGSV,3,3,12,26,10,031,,27,39,250,,28,21,203,,30,25,309,,1*7C
$GNRMC,010022.00,A,4843.26038,N,00920.55521,E,0.010,,080225,,,A,V*10
$GNGGA,010022.00,4843.26038,N,00920.55521,E,1,12,0.50,248.3,M,47.6,M,,*44
$GPGSV,3,1,12,03,30,104,47,04,64,059,43,06,59,279,39,07,26,173,43,1*63
$GPGSV,3,2,12,09,82,247,35,11,30,311,38,16,02,083,,17,03,218,,1*69
$GPGSV,3,3,12,19,15,239,34,20,08,297,,26,09,056,36,31,09,035,,1*64
$GLGSV,3,1,10,67,01,070,15,68,44,052,46,69,66,309,41,70,09,262,,1*7B
$GLGSV,3,2,10,77,16,022,37,78,28,083,50,79,08,132,,83,13,184,40,1*76
$GLGSV,3,3,10,84,57,248,14,85,33,323,32,1*72
$GAGSV,3,1,11,02,02,008,,04,00,236,,07,20,058,44,10,29,315,40,7*7B
$GAGSV,3,2,11,11,05,324,,12,51,299,31,19,55,234,32,26,14,157,40,7*7F
$GAGSV,3,3,11,29,75,066,37,30,06,056,28,33,58,187,42,7*47
$GBGSV,3,1,12,02,02,101,36,05,19,122,43,06,26,044,41,09,37,055,40,1*77
$GBGSV,3,2,12,14,23,080,45,16,23,041,41,24,28,078,48,25,21,136,46,1*72
$GBGSV,3,3,12,26,10,031,,27,39,250,,28,21,203,,30,25,309,,1*7C
$GNRMC,010023.00,A,4843.26039,N,00920.55516,E,0.012,,080225,,,A,V*16
$GNGGA,010023.00,4843.26039,N,00920.55516,E,1,12,0.50,248.2,M,47.6,M,,*41
$GPGSV,3,1,12,03,30,104,46,04,64,059,42,06,59,279,39,07,26,173,43,1*63
$GPGSV,3,2,12,09,82,247,36,11,30,311,38,16,02,083,,17,03,218,,1*6A
$GPGSV,3,3,12,19,15,239,33,20,08,297,,26,09,056,36,31,09,035,,1*63
$GLGSV,3,1,10,67,01,070,12,68,4,052,46,69,66,309,41,70,09,262,,1*7C
$GLGSV,3,2,10,77,16,022,36,78,28,083,49,79,08,132,,83,13,184,40,1*7F
$GLGSV,3,3,10,84,57,248,11,85,33,323,32,1*77
$GAGSV,3,1,11,02,02,008,,04,00,236,,07,20,058,44,10,29,315,39,7*75
$GAGSV,3,2,11,11,05,324,,12,51,299,31,19,55,234,32,26,14,157,39,7*71
$GAGSV,3,3,11,29,75,066,37,30,06,056,29,33,58,187,43,7*47
$GBGSV,3,1,12,02,02,101,36,05,19,122,43,06,26,044,41,09,37,055,40,1*77
$GBGSV,3,2,12,14,23,080,45,16,23,041,41,24,28,078,48,25,21,136,46,1*72
$GBGSV,3,3,12,26,10,031,,27,39,250,,28,21,203,,30,25,309,,1*7C
$GNRMC,010024.00,A,4843.26040,N,00920.55512,E,0.002,,080225,,,A,V*1A
$GNGGA,010024.00,4843.26040,N,00920.55512,E,1,12,0.50,248.2,M,47.6,M,,*4C
$GPGSV,3,1,12,03,30,104,46,04,64,059,42,06,59,279,39,07,26,173,43,1*63
$GPGSV,3,2,12,09,82,247,35,11,30,311,38,16,02,083,,17,03,218,,1*69
$GPGSV,3,3,12,19,15,239,33,20,08,297,,26,09,056,36,31,09,035,,1*63
$GLGSV,3,1,10,67,01,070,12,68,44,052,46,69,66,309,40,70,09,262,,1*7D
$GLGSV,3,2,10,77,16,022,36,78,28,083,49,79,08,132,,83,13,184,40,1*7F
$GLGSV,3,3,10,84,57,248,16,85,33,323,31,1*73
$GAGSV,3,1,11,02,02,008,,04,00,236,,07,20,058,44,10,29,315,40,7*7B
$GAGSV,3,2,11,11,05,324,,12,51,299,31,19,55,234,32,26,14,157,39,7*71
$GAGSV,3,3,11,29,75,066,37,30,06,056,29,33,58,187,43,7*47
$GBGSV,3,1,12,02,02,101,37,05,19,122,43,06,26,044,42,09,37,055,40,1*75
$GBGSV,3,2,12,14,23,080,45,16,23,041,41,24,28,078,48,25,21,136,46,1*72
$GBGSV,3,3,12,26,10,031,,27,39,250,,28,21,203,,30,25,309,,1*7C
$GNRMC,010025.00,A,4843.26042,N,00920.55509,E,0.005,,080225,,,A,V*14
$GNGGA,010025.00,4843.26042,N,00920.55509,E,1,12,0.50,248.2,M,47.6,M,,*45
$GPGSV,3,1,12,03,30,104,46,04,64,059,42,06,59,279,39,07,26,173,44,1*64
$GPGSV,3,2,12,09,82,247,35,11,30,311,38,16,02,083,,17,03,218,,1*69
$GPGSV,3,3,12,19,15,239,32,20,08,297,,26,09,056,36,31,09,035,,1*62
$GLGSV,3,1,10,67,01,070,13,68,44,052,46,69,66,309,40,70,09,262,,1*7C
$GLGSV,3,2,10,77,16,022,35,78,28,083,49,79,08,132,,83,13,184,41,1*7D
$GLGSV,3,3,10,84,57,248,15,85,33,323,30,1*71
$GAGSV,3,1,11,02,02,008,,04,00,236,,07,20,058,44,10,29,315,40,7*7B
$GAGSV,3,2,11,11,05,324,,12,51,299,32,19,55,234,32,26,14,157,39,7*72
$GAGSV,3,3,11,29,75,066,38,30,06,056,29,33,58,187,43,7*48
$GBGSV,3,1,12,02,02,101,37,05,19,122,43,06,26,044,41,09,37,055,40,1*76
$GBGSV,3,2,12,14,23,080,45,16,23,041,41,24,28,078,48,25,21,136,46,1*72
$GBGSV,3,3,12,26,10,031,,27,39,250,,28,21,203,,30,25,309,,1*7C
$GNRMC,010026.00,A,4843.26043,N,00920.55506,E,0.018,,080225,,,A,V*15
$GNGGA,010026.00,4843.26043,N,00920.55506,E,1,12,0.50,248.2,M,47.6,M,,*48
$GPGSV,3,1,12,03,30,104,45,04,64,059,42,06,59,279,40,07,26,173,44,1*69
$GPGSV,3,2,12,09,82,247,35,11,30,311,38,16,02,083,,17,03,218,,1*69
$GPGSV,3,3,12,19,15,239,32,20,08,297,,26,09,056,35,31,09,035,,1*61
$GLGSV,3,1,10,67,01,070,10,68,44,052,46,69,66,309,40,70,09,262,,1*7F
$GLGSV,3,2,10,77,16,022,35,78,28,083,49,79,08,132,,83,13,184,41,1*7D
$GLGSV,3,3,10,84,57,248,13,85,33,323,30,1*77
$GAGSV,3,1,11,02,02,008,,04,00,236,,07,20,058,44,10,29,315,40,7*7B
$GAGSV,3,2,11,11,05,324,,12,51,299,32,19,55,234,32,26,14,157,39,7*72
$GAGSV,3,3,11,29,75,066,38,30,06,056,29,33,58,187,43,7*48
$GBGSV,3,1,12,02,02,101,37,05,19,122,43,06,26,044,41,09,37,055,40,1*76
$GBGSV,3,2,12,14,23,080,45,16,23,041,41,24,28,078,48,25,21,136,45,1*71
$GBGSV,3,3,12,26,10,031,,27,39,250,,28,21,203,,30,25,309,,1*7C
$GNRMC,010027.00,A,4843.2604,N,00920.55503,E,0.011,,080225,,,A,V*18
$GNGGA,010027.00,4843.26043,N,00920.55503,E,1,12,0.50,248.2,M,47.6,M,,*4C
$GPGSV,3,1,12,03,30,104,45,04,64,059,42,06,59,279,40,07,26,173,44,1*69
$GPGSV,3,2,12,09,82,247,35,11,30,311,38,16,02,083,,17,03,218,,1*69
$GPGSV,3,3,12,19,15,239,32,20,08,297,,26,09,056,35,31,09,035,,1*61
$GLGSV,3,1,10,67,01,070,13,68,44,052,45,69,66,309,40,70,09,262,,1*7F
$GLGSV,3,2,10,77,16,022,35,78,28,083,50,79,08,132,,83,13,184,41,1*75
$GLGSV,3,3,10,84,57,248,14,85,33,323,30,1*70
$GAGSV,3,1,11,02,02,008,,04,00,236,,07,20,058,44,10,29,315,40,7*7B
$GAGSV,3,2,11,11,05,324,,12,51,299,32,19,55,234,32,26,14,157,39,7*72
$GAGSV,3,3,11,29,75,066,38,30,06,056,28,33,58,187,43,7*49
$GBGSV,3,1,12,02,02,101,37,05,19,122,43,06,26,044,41,09,37,055,40,1*76
$GBGSV,3,2,12,14,23,080,45,16,23,041,41,24,28,078,48,25,21,136,45,1*71
$GBGSV,3,3,12,26,10,031,,27,39,250,,28,21,203,,30,25,309,,1*7C
$GNRMC,010028.00,A,4843.26044,N,00920.55501,E,0.016,,080225,,,A,V*15
$GNGGA,010028.00,4843.26044,N,00920.55501,E,1,12,0.50,248.2,M,47.6,M,,*46
$GPGSV,3,1,12,03,30,104,45,04,64,059,42,06,59,279,40,07,26,173,44,1*69
$GPGSV,3,2,12,09,82,247,35,11,30,311,38,16,02,083,,17,03,218,,1*69
$GPGSV,3,3,12,19,15,239,32,20,08,297,,26,09,056,35,31,09,035,,1*61
$GLGSV,3,1,10,67,01,070,11,68,44,052,45,69,66,309,39,70,09,262,,1*73
$GLGSV,3,2,10,77,16,022,34,78,28,083,50,79,08,132,,83,13,184,41,1*74
$GLGSV,3,3,10,84,57,248,18,85,33,323,29,1*74
$GAGSV,3,2,11,11,05,324,,12,51,299,32,19,55,234,32,26,14,157,39,7*72
$GAGSV,3,3,11,29,75,066,38,30,06,056,28,33,58,187,43,7*49
$GBGSV,3,1,12,02,02,101,36,05,19,122,43,06,26,044,41,09,37,055,40,1*77
$GBGSV,3,2,12,14,23,080,45,16,23,041,41,24,28,078,48,25,21,136,45,1*71
$GBGSV,3,3,12,26,10,031,,27,39,250,,28,21,203,,30,25,309,,1*7C
$GNRMC,010029.00,A,4843.26045,N,00920.55499,E,0.032,,080225,,,A,V*13
$GNGGA,010029.00,4843.26045,N,00920.55499,E,1,12,0.50,248.3,M,47.6,M,,*47
$GPGSV,3,1,12,03,30,104,45,04,64,059,42,06,59,279,40,07,26,173,44,1*69
$GPGSV,3,2,12,09,82,247,35,11,30,311,38,16,02,083,,17,03,218,,1*69
$GPGSV,3,3,12,19,15,239,31,20,08,297,,26,09,056,36,31,09,035,,1*61
$GLGSV,3,1,10,67,01,070,14,68,44,052,45,69,66,309,40,70,09,262,,1*78
$GLGSV,3,2,10,77,16,022,34,78,28,083,50,79,08,132,,83,13,184,41,1*74
$GLGSV,3,3,10,84,57,248,21,85,33,323,29,1*7E
$GAGSV,3,1,11,02,02,008,,04,00,236,,07,20,058,44,10,29,315,40,7*7B
$GAGSV,3,2,11,11,05,324,,12,51,299,32,19,55,234,32,26,14,157,40,7*7C
$GAGSV,3,3,11,29,75,066,38,30,06,056,28,33,58,187,43,7*49
$GBGSV,3,1,12,02,02,101,37,05,19,122,43,06,26,044,41,09,37,055,40,1*76
$GBGSV,3,2,12,14,23,080,45,16,23,041,41,24,28,078,48,25,21,136,45,1*71
$GBGSV,3,3,12,26,10,031,,27,39,250,,28,21,203,,30,25,309,,1*7C
$GNRMC,010030.00,A,4843.26046,N,00920.55497,E,0.031,,080225,,,A,V*15
$GNGGA,010030.00,4843.26046,N,00920.55497,E,1,12,0.50,248.3,M,47.6,M,,*42
$GPGSV,3,1,12,03,30,104,44,04,64,059,41,06,59,279,40,07,26,173,44,1*6B
$GPGSV,3,2,12,09,82,247,35,11,30,311,39,16,02,083,,17,03,218,,1*68
$GPGSV,3,3,12,19,15,239,31,20,08,297,,26,09,056,36,31,09,035,,1*61
$GLGSV,3,1,10,67,01,070,11,68,44,052,45,69,66,309,40,70,09,262,,1*7D
$GLGSV,3,2,10,77,16,022,33,78,28,083,50,79,08,132,,83,13,184,40,1*72
$GLGSV,3,3,10,84,57,248,19,85,33,323,29,1*75
$GAGSV,3,1,11,02,02,008,,04,00,236,,07,20,058,44,10,29,315,40,7*7B
$GAGSV,3,2,11,11,05,324,,12,51,299,32,19,55,234,31,26,14,157,40,7*7F
$GAGSV,3,3,11,29,75,066,38,30,06,056,28,33,58,187,43,7*49
$GBGSV,3,1,12,02,02,101,37,05,19,122,43,06,26,044,41,09,37,055,40,1*76
$GBGSV,3,2,12,14,23,080,45,16,23,041,41,24,28,078,48,25,21,136,45,1*71
$GBGSV,3,3,12,26,10,031,,27,39,250,,28,21,203,,30,25,309,,1*7C
$GNRMC,010031.00,A,4843.26048,N,00920.55495,E,0.007,,080225,,,A,V*1D
$GNGGA,010031.00,4843.26048,N,00920.55495,E,1,12,0.50,248.2,M,47.6,M,,*4E
$GPGSV,3,1,12,03,30,104,45,04,64,059,41,06,59,279,40,07,26,173,44,1*6A
$GPGSV,3,2,12,09,82,247,36,11,30,311,39,16,02,083,,17,03,218,,1*6B
$GPGSV,3,3,12,19,15,239,31,20,08,297,,26,09,056,36,31,09,035,,1*61
$GLGSV,3,1,10,67,01,070,12,68,44,052,45,69,66,309,40,70,09,262,,1*7E
$GLGSV,3,2,10,77,16,022,33,78,28,083,50,79,08,132,,83,13,184,40,1*72
$GLGSV,3,3,10,8,57,248,15,85,33,323,29,1*79
$GAGSV,3,1,11,02,02,008,,04,00,236,,07,20,058,44,10,29,315,40,7*7B
$GAGSV,3,2,11,11,05,324,,12,51,299,32,19,55,234,30,26,13,157,41,7*78
$GAGSV,3,3,11,29,75,066,39,30,06,056,29,33,58,187,42,7*48
$GBGSV,3,1,12,02,02,101,37,05,19,122,43,06,26,044,41,09,37,055,40,1*76
$GBGSV,3,2,12,14,23,080,45,16,23,041,41,24,28,078,48,25,21,136,45,1*71
$GBGSV,3,3,12,26,10,031,,27,39,250,,28,21,203,,30,25,309,,1*7C
$GNRMC,010032.00,A,4843.26049,N,00920.55494,E,0.016,,080225,,,A,V*1E
$GNGGA,010032.00,4843.26049,N,00920.55494,E,1,12,0.50,248.3,M,47.6,M,,*4C
$GPGSV,3,1,12,03,30,104,45,04,64,059,42,06,59,279,40,07,26,173,44,1*69
$GPGSV,3,2,12,09,82,247,36,11,30,311,39,16,02,083,,17,03,218,,1*6B
$GLGSV,3,1,10,67,01,070,13,68,44,052,45,69,66,309,40,70,09,262,,1*7F
$GLGSV,3,2,10,77,16,022,32,78,28,083,50,79,08,132,,83,13,184,40,1*73
$GLGSV,3,3,10,84,57,248,18,85,33,323,29,1*74
$GAGSV,3,1,12,02,02,008,,04,00,236,,07,20,058,44,10,29,315,40,7*78
$GAGSV,3,2,12,11,05,324,,12,51,299,32,19,55,234,30,26,13,157,41,7*7B
$GAGSV,3,3,12,27,00,102,,29,75,066,39,30,06,056,29,33,58,187,42,7*7D
$GBGSV,3,1,12,02,02,101,37,05,19,122,43,06,26,044,41,09,37,055,40,1*76
$GBGSV,3,2,12,14,23,080,45,16,23,041,41,24,28,078,48,25,21,136,45,1*71
$GBGSV,3,3,12,26,10,031,,27,39,250,,28,21,203,,30,25,309,,1*7C
$GNRMC,010033.00,A,4843.26050,N,00920.55494,E,0.008,,080225,,,A,V*18
$GNGGA,010033.00,4843.26050,N,00920.55494,E,1,12,0.50,248.3,M,47.6,M,,*45
$GPGSV,3,1,12,03,30,104,45,04,64,059,42,06,59,279,40,07,26,173,45,1*68
$GPGSV,3,2,12,09,82,247,36,11,30,311,39,16,02,083,,17,03,218,,1*6B
$GPGSV,3,3,12,19,15,239,31,20,08,297,,26,09,056,36,31,09,035,,1*61
$GLGSV,3,1,10,67,01,070,12,68,44,052,45,69,66,309,40,70,09,262,,1*7E
$GLGSV,3,2,10,77,16,022,32,78,28,083,50,79,08,132,,83,13,184,40,1*73
$GLGSV,3,3,10,84,57,248,15,85,33,323,29,1*79
$GAGSV,3,2,12,11,05,324,,12,51,299,32,19,55,234,31,26,13,157,40,7*7B
$GAGSV,3,3,12,27,00,102,,29,74,065,39,30,06,056,29,33,58,187,42,7*7F
$GBGSV,3,1,12,02,02,101,36,05,19,122,43,06,26,044,41,09,37,055,40,1*77
$GBGSV,3,2,12,14,23,080,45,16,23,041,41,24,28,078,48,25,21,136,45,1*71
$GBGSV,3,3,12,26,10,031,,27,39,250,,28,21,203,,30,25,309,,1*7C
$GNRMC,010034.00,A,4843.26050,N,00920.55493,E,0.005,,080225,,,A,V*15
$GNGGA,010034.00,4843.26050,N,00920.55493,E,1,12,0.50,248.3,M,47.6,M,,*45
$GPGSV,3,1,12,03,30,104,45,04,64,059,42,06,59,279,40,07,26,173,45,1*68
$GPGSV,3,2,12,09,82,247,36,11,30,311,40,16,02,083,,17,03,218,,1*65
$GPGSV,3,3,12,19,15,239,30,20,08,297,,26,09,056,36,31,09,035,,1*60
$GLGSV,3,1,10,67,01,070,11,68,44,052,45,69,66,309,40,70,09,262,,1*7D
$GLGSV,3,2,10,77,16,022,31,78,28,083,50,79,08,132,,83,13,184,40,1*70
$GLGSV,3,3,10,84,57,248,17,85,33,323,30,1*73
$GAGSV,3,1,12,02,02,008,,04,00,236,,07,20,058,44,10,29,315,40,7*78
$GAGSV,3,2,12,11,05,324,,12,51,299,32,19,55,234,30,26,13,157,40,7*7A
$GAGSV,3,3,12,27,00,102,,29,74,065,40,30,07,056,29,33,58,187,42,7*70
$GBGSV,3,1,12,02,02,101,36,05,19,122,43,06,26,044,41,09,37,055,40,1*77
$GBGSV,3,2,12,14,23,080,45,16,23,041,41,24,28,078,48,25,21,136,45,1*71
$GBGSV,3,3,12,26,10,031,,27,39,250,,28,21,203,,30,25,309,,1*7C
$GNRMC,010035.00,A,4843.26051,N,00920.55492,E,0.013,,080225,,,A,V*13
$GNGGA,010035.00,4843.26051,N,00920.55492,E,1,12,0.50,248.3,M,47.6,M,,*44
$GPGSV,3,1,12,03,30,104,45,04,64,059,42,06,59,279,40,07,26,173,45,1*68
$GPGSV,3,2,12,09,82,247,36,11,30,311,40,16,02,083,,17,03,218,,1*65
$GPGSV,3,3,12,19,15,239,30,20,08,297,,26,09,056,35,31,09,035,,1*63
$GLGSV,3,1,10,67,01,070,11,68,44,052,46,69,66,309,40,70,09,262,,1*7E
$GLGSV,3,2,10,77,16,022,30,78,28,083,50,79,08,132,,83,13,184,40,1*71
$GLGSV,3,3,10,84,57,248,19,85,33,323,29,1*75
$GAGSV,3,1,12,02,02,008,,04,00,236,,07,20,058,44,10,29,315,40,7*78
$GAGSV,3,2,12,11,05,324,,12,51,299,32,19,55,234,30,26,13,157,40,7*7A
$GAGSV,3,3,12,27,00,102,,29,74,065,40,30,07,056,29,33,58,187,42,7*70
$GBGSV,3,1,12,02,02,101,37,05,19,122,43,06,26,044,41,09,37,055,40,1*76
$GBGSV,3,2,12,14,23,080,45,16,23,041,41,24,28,078,48,25,21,136,45,1*71
$GBGSV,3,3,12,26,10,031,,27,39,250,,28,21,203,,30,25,309,,1*7C
$GNRMC,010036.00,A,4843.26051,N,00920.55490,E,0.003,,080225,,,A,V*13
$GNGGA,010036.00,4843.26051,N,00920.55490,E,1,12,0.50,248.3,M,47.6,M,,*45
$GPGSV,3,1,12,03,30,104,45,04,64,059,42,06,59,279,40,07,26,173,44,1*69
$GPGSV,3,2,12,09,82,247,36,11,30,311,40,16,02,083,,17,03,218,,1*65
$GPGSV,3,3,12,19,15,29,30,20,08,297,,26,09,056,35,31,09,035,,1*63
$GLGSV,3,1,10,67,01,070,14,68,44,052,46,69,66,309,40,70,09,262,,1*7B
$GLGSV,3,2,10,77,16,022,31,78,28,083,50,79,08,132,,83,13,184,40,1*70
$GLGSV,3,3,10,84,57,248,14,85,33,323,30,1*70
$GAGSV,3,1,12,02,02,008,,04,00,236,,07,20,058,44,10,29,315,40,7*78
$GAGSV,3,2,12,11,05,324,,12,51,299,32,19,55,234,29,26,13,157,40,7*72
$GAGSV,3,3,12,27,00,102,,29,74,065,40,30,07,056,29,33,57,187,41,7*7C
$GBGSV,3,1,12,02,02,101,37,05,19,122,43,06,26,044,41,09,37,055,40,1*76
$GBGSV,3,2,12,14,23,080,44,16,23,041,41,24,28,078,48,25,21,136,45,1*70
$GBGSV,3,3,12,26,10,031,,27,39,250,,28,21,203,,30,25,309,,1*7C
$GNRMC,010037.00,A,4843.26051,N,00920.55489,E,0.010,,080225,,,A,V*18
$GNGGA,010037.00,4843.26051,N,00920.55489,E,1,12,0.50,248.3,M,47.6,M,,*4C
$GPGSV,3,1,12,03,30,104,45,04,64,059,42,06,59,279,40,07,26,173,44,1*69
$GPGSV,3,2,12,09,82,247,36,11,30,311,40,16,02,083,,17,03,218,,1*65
$GPGSV,3,3,12,19,15,239,29,20,08,297,,26,09,056,34,31,09,035,,1*6A
$GLGSV,3,1,10,67,01,070,14,68,44,052,46,69,66,309,39,70,09,262,,1*75
$GLGSV,3,2,10,77,16,022,31,78,28,083,50,79,08,132,,83,13,184,40,1*70
$GLGSV,3,3,10,84,57,248,13,85,33,323,30,1*77
$GAGSV,3,1,12,02,02,008,,04,00,236,,07,20,058,44,10,29,315,40,7*78
$GAGSV,3,2,12,11,05,324,,12,51,299,32,19,55,234,29,26,13,157,40,7*72
$GAGSV,3,3,12,27,00,102,,29,74,065,40,30,07,056,30,33,57,187,41,7*74
$GBGSV,3,1,12,02,02,101,37,05,19,122,43,06,26,044,41,09,37,055,40,1*76
$GBGSV,3,2,12,14,23,080,44,16,23,041,41,24,28,078,48,25,21,136,45,1*70
$GBGSV,3,3,12,26,10,031,,27,39,250,,28,21,203,,30,25,309,,1*7C
$GNRMC,010038.00,A,4843.26051,N,00920.55487,E,0.009,,080225,,,A,V*11
$GNGGA,010038.00,4843.26051,N,00920.55487,E,1,12,0.50,248.3,M,47.6,M,,*4D
$GPGSV,3,1,12,03,30,104,45,04,64,059,42,06,59,279,40,07,26,173,44,1*69
$GLGSV,3,1,10,67,01,070,11,68,44,052,46,69,66,309,39,70,09,262,,1*70
$GLGSV,3,2,10,77,16,022,31,78,28,083,50,79,08,132,,83,13,184,40,1*70
$GLGSV,3,3,10,84,57,248,18,85,33,323,30,1*7C
$GAGSV,3,1,12,02,02,008,,04,00,236,,07,20,058,44,10,29,315,40,7*78
$GAGSV,3,2,12,11,05,324,,12,51,299,32,19,55,234,28,26,13,157,40,7*73
$GAGSV,3,3,12,27,00,102,,29,74,065,41,30,07,056,30,33,57,187,41,7*75
$GBGSV,3,1,12,02,02,101,37,05,19,122,43,06,26,044,41,09,37,055,40,1*76
$GBGSV,3,2,12,14,23,080,44,16,23,041,41,24,28,078,48,25,21,136,45,1*70
$GBGSV,3,3,12,26,10,031,,27,39,250,,28,21,203,,30,25,309,,1*7C
$GNRMC,010039.00,A,4843.26051,N,00920.55486,E,0.020,,080225,,,A,V*1A
$GNGGA,010039.00,4843.26051,N,00920.55486,E,1,12,0.50,248.3,M,47.6,M,,*4D
$GPGSV,3,1,12,03,30,104,45,04,64,059,42,06,59,279,39,07,26,173,44,1*67
$GPGSV,3,2,12,09,82,247,36,11,30,311,40,16,02,083,,17,03,218,,1*65
$GPGSV,3,3,12,19,15,239,29,20,08,297,,26,09,056,34,31,09,035,,1*6A
$GLGSV,3,1,10,67,01,070,11,68,44,052,46,69,66,309,38,70,09,262,,1*71
$GLGSV,3,2,10,77,16,022,31,78,28,083,50,79,08,132,,83,13,184,40,1*70
$GLGSV,3,3,10,84,57,248,18,85,33,323,30,1*7C
$GAGSV,3,1,12,02,02,008,,04,00,236,,07,20,058,44,10,29,315,40,7*78
$GAGSV,3,2,12,11,05,324,,12,51,299,32,19,55,234,28,26,13,157,40,7*73
$GAGSV,3,3,12,27,00,102,,29,74,065,41,30,07,056,30,33,57,187,41,7*75
$GBGSV,3,1,12,02,02,101,37,05,19,122,43,06,26,044,41,09,37,055,40,1*76
$GBGSV,3,2,12,14,23,080,43,16,23,041,41,24,28,078,47,25,21,136,44,1*79
$GBGSV,3,3,12,26,10,031,,27,39,250,,28,21,203,,30,25309,,1*7C
$GNRMC,010040.00,A,4843.26051,N,00920.55485,E,0.016,,080225,,,A,V*12
$GNGGA,010040.00,4843.26051,N,00920.55485,E,1,12,0.50,248.3,M,47.6,M,,*40
$GPGSV,3,1,12,03,30,104,45,04,64,059,42,06,59,279,39,07,26,173,45,1*66
$GPGSV,3,2,12,09,82,247,37,11,30,311,40,16,02,083,,17,03,218,,1*64
$GPGSV,3,3,12,19,15,239,30,20,08,297,,26,09,056,33,31,09,035,,1*65
$GLGSV,3,1,10,67,01,070,11,68,44,052,45,69,66,309,38,70,09,262,,1*72
$GLGSV,3,2,10,77,16,022,32,78,28,083,49,79,08,132,,83,13,184,40,1*7B
$GLGSV,3,3,10,84,57,248,15,85,33,323,30,1*71
$GAGSV,3,1,12,02,02,008,,04,00,236,,07,20,058,44,10,29,315,40,7*78
$GAGSV,3,2,12,11,05,324,,12,51,299,32,19,55,234,28,26,13,157,40,7*73
$GAGSV,3,3,12,27,00,102,,29,74,065,41,30,07,056,31,33,57,187,40,7*75
$GBGSV,3,1,12,02,02,101,37,05,19,122,43,06,26,044,41,09,37,055,40,1*76
$GBGSV,3,2,12,14,23,080,43,16,23,041,41,24,28,078,47,25,21,136,44,1*79
$GBGSV,3,3,12,26,10,031,,27,39,250,,28,21,203,,30,25,309,,1*7C
$GNRMC,010041.00,A,4843.26051,N,00920.55484,E,0.009,,080225,,,A,V*1C
$GNGGA,010041.00,4843.26051,N,00920.55484,E,1,12,0.50,248.3,M,47.6,M,,*40
$GPGSV,3,1,12,03,30,104,45,04,64,059,42,06,59,279,39,07,26,173,45,1*66
$GPGSV,3,2,12,09,82,247,37,11,30,311,40,16,02,083,,17,03,218,,1*64
$GPGSV,3,3,12,19,15,239,30,20,08,297,,26,09,056,32,31,09,035,,1*64
$GLGSV,3,1,10,67,01,070,13,68,44,052,45,69,66,309,38,70,09,262,,1*70
$GLGSV,3,2,10,77,16,022,33,78,28,083,49,79,08,132,,83,13,184,40,1*7A
$GLGSV,3,3,10,84,57,248,20,85,33,323,30,1*77
$GAGSV,3,1,12,02,02,008,,04,00,236,,07,20,058,44,10,29,315,40,7*78
$GAGSV,3,2,12,11,05,324,,12,51,299,32,19,55,234,27,26,13,157,40,7*7C
$GAGSV,3,3,12,27,00,102,,29,74,065,41,30,07,056,31,33,57,187,40,7*75
$GBGSV,3,1,12,02,02,101,36,05,19,122,43,06,26,044,41,09,37,055,40,1*77
$GBGSV,3,2,12,14,23,080,43,16,23,041,41,24,28,078,47,25,21,136,44,1*79
$GBGSV,3,3,12,26,10,031,,27,39,250,,28,21,203,,30,25,309,,1*7C
$GNRMC,010042.00,A,4843.26050,N,00920.55483,E,0.009,,080225,,,A,V*19
$GNGGA,010042.00,4843.26050,N,00920.55483,E,1,12,0.50,248.3,M,47.6,M,,*45
$GPGSV,3,1,12,03,30,104,46,04,64,059,41,06,59,279,38,07,26,173,44,1*66
$GPGSV,3,2,12,09,82,247,37,11,30,311,40,16,02,083,,17,03,218,,1*64
$GPGSV,3,3,12,19,15,239,31,20,08,297,,26,09,056,32,31,09,035,,1*65
$GLGSV,3,1,10,67,01,070,13,68,44,052,45,69,66,309,38,70,09,262,,1*70
$GLGSV,3,2,10,77,16,022,34,78,28,083,49,79,08,132,,83,13,184,40,1*7D
$GLGSV,3,3,10,84,57,248,20,85,33,323,30,1*77
$GAGSV,3,1,12,02,02,008,,04,00,236,,07,20,058,44,10,29,315,40,7*78
$GAGSV,3,2,12,11,05,324,,12,51,299,32,19,55,234,26,26,13,157,41,7*7C
$GAGSV,3,3,12,27,00,102,,29,74,065,41,30,07,056,31,33,57,187,40,7*75
$GBGSV,3,1,12,02,02,101,36,05,19,122,43,06,26,044,41,09,37,055,40,1*77
$GBGSV,3,2,12,14,23,080,43,16,23,041,41,24,28,078,47,25,21,136,44,1*79
$GBGSV,3,3,12,26,10,031,,27,39,250,,28,21,203,,30,25,309,,1*7C
$GNRMC,010043.00,A,4843.26050,N,00920.55482,E,0.013,,080225,,,A,V*12
$GNGGA,010043.00,4843.26050,N,00920.55482,E,1,12,0.50,248.3,M,47.6,M,,*45
$GPGSV,3,1,12,03,30,104,45,04,64,059,41,06,59,279,37,07,26,173,44,1*6A
$GPGSV,3,2,12,09,82,247,38,11,30,311,40,16,02,083,,17,03,218,,1*6B
$GPGSV,3,3,12,19,15,239,31,20,08,297,,26,09,056,32,31,09,035,,1*65
$GLGSV,3,1,10,67,01,070,14,68,44,052,46,69,66,309,38,70,09,262,,1*74
$GLGSV,3,2,10,77,16,022,34,78,28,083,49,79,08,132,,83,13,184,40,1*7D
$GLGSV,3,3,10,84,57,248,20,85,33,323,31,1*76
$GAGSV,3,1,12,02,02,008,,04,00,236,,07,20,058,44,10,29,315,40,7*78
$GAGSV,3,2,12,11,05,324,,12,51,299,32,19,55,234,25,26,13,157,40,7*7E
$GAGSV,3,3,12,27,00,102,,29,74,065,42,30,07,056,32,33,57,187,40,7*75
$GBGSV,3,1,12,02,02,101,36,05,19,122,43,06,26,044,41,09,37,055,40,1*77
$GBGSV,3,2,12,14,23,080,43,16,23,041,41,24,28,078,47,25,21,136,44,1*79
$GBGSV,3,3,12,26,10,031,,27,39,250,,28,21,203,,30,25,309,,1*7C
$GNRMC,010044.00,A,4843.26051,N,00920.55480,E,0.007,,080225,,,A,V*13
$GNGGA,010044.00,4843.26051,N,00920.55480,E,1,12,0.50,248.3,M,47.6,M,,*41
$GPGSV,3,1,12,03,30,104,45,04,64,059,41,06,59,279,37,07,26,173,45,1*6B
$GPGSV,3,2,12,09,82,247,38,11,30,311,40,16,02,083,,17,03,218,,1*6B
$GPGSV,3,3,12,19,15,239,31,20,08,297,,26,09,056,31,31,09,035,,1*66
$GLGSV,3,1,10,67,01,070,10,68,44,052,46,69,66,309,39,70,09,262,,1*71
$GLGSV,3,2,10,77,16,022,34,78,28,083,49,79,08,132,,83,13,184,40,1*7D
$GLGSV,3,3,10,84,57,248,22,85,33,323,31,1*74
$GAGSV,3,1,12,02,02,008,,04,00,236,,07,20,058,44,10,29,315,40,7*78
$GAGSV,3,2,12,11,05,324,,12,51,29,31,19,55,234,25,26,13,157,40,7*7D
$GAGSV,3,3,12,27,00,102,,29,74,065,42,30,07,056,32,33,57,187,40,7*75
$GBGSV,3,1,12,02,02,101,37,05,19,122,43,06,26,044,41,09,37,055,40,1*76
$GBGSV,3,2,12,14,23,080,43,16,23,041,41,24,28,078,47,25,21,136,44,1*79
$GBGSV,3,3,12,26,10,031,,27,39,250,,28,21,203,,30,25,309,,1*7C
$GNGGA,010045.00,4843.26051,N,00920.55480,E,1,12,0.50,248.4,M,47.6,M,,*47
$GPGSV,3,1,12,03,30,104,45,04,64,059,40,06,59,279,37,07,26,173,45,1*6A
$GPGSV,3,2,12,09,82,247,38,11,30,311,40,16,02,083,,17,03,218,,1*6B
$GPGSV,3,3,12,19,15,239,31,20,08,297,,26,09,056,31,31,09,035,,1*66
$GLGSV,3,1,10,67,01,070,11,68,44,052,46,69,66,309,39,70,09,262,,1*70
$GLGSV,3,2,10,77,16,022,34,78,28,083,49,79,08,132,,83,13,184,41,1*7C
$GLGSV,3,3,10,84,57,248,12,85,33,323,31,1*77
$GAGSV,3,1,12,02,02,008,,04,00,236,,07,20,058,44,10,29,315,40,7*78
$GAGSV,3,2,12,11,05,324,,12,51,299,32,19,55,234,24,26,13,157,40,7*7F
$GAGSV,3,3,12,27,00,102,,29,74,065,42,30,07,056,32,33,57,187,41,7*74
$GBGSV,3,1,12,02,02,101,37,05,19,122,43,06,26,044,41,09,37,055,40,1*76
$GBGSV,3,2,12,14,23,080,42,16,23,041,41,24,28,078,47,25,21,136,44,1*78
$GBGSV,3,3,12,26,10,031,,27,39,250,,28,21,203,,30,25,309,,1*7C
$GNRMC,010046.00,A,4843.26051,N,00920.55479,E,0.008,,080225,,,A,V*18
$GNGGA,010046.00,4843.26051,N,00920.55479,E,1,12,0.50,248.5,M,47.6,M,,*43
$GPGSV,3,1,12,03,30,104,45,04,64,059,40,06,59,279,36,07,26,173,45,1*6B
$GPGSV,3,2,12,09,82,247,38,11,30,311,40,16,02,083,,17,03,218,,1*6B
$GPGSV,3,3,12,19,15,239,30,20,08,297,,26,09,056,31,31,09,035,,1*67
$GLGSV,3,1,10,67,01,070,13,68,44,052,46,69,66,309,40,70,09,262,,1*7C
$GLGSV,3,2,10,77,16,022,34,78,28,083,50,79,08,132,,83,13,184,41,1*74
$GLGSV,3,3,10,84,57,248,18,85,33,323,31,1*7D
$GAGSV,3,2,12,11,05,324,,12,51,299,31,19,55,234,24,26,13,157,40,7*7C
$GAGSV,3,3,12,27,00,102,,29,74,065,42,30,07,056,33,33,57,187,41,7*75
$GBGSV,3,1,12,02,02,101,37,05,19,122,43,06,26,044,41,09,37,055,40,1*76
$GBGSV,3,2,12,14,23,080,42,16,23,041,41,24,28,078,47,25,21,136,44,1*78
$GBGSV,3,3,12,26,10,031,,27,39,250,,28,21,203,,30,25,309,,1*7C
$GNRMC,010047.00,A,4843.26052,N,00920.55479,E,0.014,,080225,,,A,V*17
$GNGGA,010047.00,4843.26052,N,00920.55479,E,1,12,0.50,248.6,M,47.6,M,,*42
$GPGSV,3,1,12,03,30,104,44,04,64,059,40,06,59,29,36,07,26,173,45,1*6A
$GPGSV,3,2,12,09,82,247,38,11,30,311,40,16,02,083,,17,03,218,,1*6B
$GPGSV,3,3,12,19,15,239,30,20,08,297,,26,09,056,31,31,09,035,,1*67
$GLGSV,3,1,10,67,01,070,09,68,44,052,46,69,66,309,40,70,09,262,,1*77
$GLGSV,3,2,10,77,16,022,34,78,28,083,50,79,08,132,,83,13,184,41,1*74
$GLGSV,3,3,10,84,57,248,22,85,33,323,32,1*77
$GAGSV,3,1,12,02,02,008,,04,00,236,,07,20,058,44,10,29,315,40,7*78
$GAGSV,3,2,12,11,05,324,,12,51,299,31,19,55,234,23,26,13,157,40,7*7B
$GAGSV,3,3,12,27,00,102,,29,74,065,42,30,07,056,33,33,57,187,41,7*75
$GBGSV,3,1,12,02,02,101,37,05,19,122,43,06,26,044,41,09,37,055,40,1*76
$GBGSV,3,2,12,14,23,080,42,16,23,041,41,24,28,078,47,25,21,136,44,1*78
$GBGSV,3,3,12,26,10,031,,27,39,250,,28,21,203,,30,25,309,,1*7C
$GNRMC,010048.00,A,4843.26052,N,00920.55479,E,0.012,,080225,,,A,V*1E
$GNGGA,010048.00,4843.26052,N,00920.55479,E,1,12,0.50,248.7,M,47.6,M,,*4C
$GPGSV,3,1,12,03,30,104,44,04,64,059,39,06,59,279,36,07,26,173,45,1*64
$GPGSV,3,2,12,09,82,247,38,11,30,311,39,16,02,083,,17,03,218,,1*65
$GPGSV,3,3,12,19,15,239,29,20,08,297,,26,09,056,31,31,09,035,,1*6F
$GLGSV,3,1,10,67,01,070,12,68,44,052,46,69,66,309,40,70,09,262,,1*7D
$GLGSV,3,2,10,77,16,022,34,78,28,083,50,79,08,132,,83,13,184,41,1*74
$GLGSV,3,3,10,84,57,248,23,85,33,323,32,1*76
$GAGSV,3,1,12,02,02,008,,04,00,236,,07,20,058,44,10,29,315,40,7*78
$GAGSV,3,2,12,11,05,324,,12,51,299,31,19,55,234,23,26,13,157,40,7*7B
$GAGSV,3,3,12,27,00,102,,29,74,065,42,30,07,056,33,33,57,187,41,7*75
$GBGSV,3,1,12,02,02,101,37,05,19,122,43,06,26,044,41,09,37,055,40,1*76
$GBGSV,3,2,12,14,23,080,42,16,23,041,41,24,28,078,47,25,21,136,44,1*78
$GBGSV,3,3,12,26,10,031,,27,39,250,,28,21,203,,30,25,309,,1*7C
$GNRMC,010049.00,A,4843.26053,N,00920.55480,E,0.011,,080225,,,A,V*1B
$GNGGA,010049.00,4843.26053,N,00920.55480,E,1,12,0.50,248.7,M,47.6,M,,*4A
$GPGSV,3,1,12,03,30,104,44,04,64,059,39,06,59,279,36,07,26,173,45,1*64
$GPGSV,3,2,12,09,82,247,38,11,30,311,39,16,02,083,,17,03,218,,1*65
$GPGSV,3,3,12,19,15,239,29,20,08,297,,26,09,056,31,31,09,035,,1*6F
$GLGSV,3,1,10,67,01,070,11,68,44,052,46,69,66,309,41,70,09,262,,1*7F
$GLGSV,3,2,10,77,16,022,34,78,28,083,50,79,08,132,,83,13,184,41,1*74
$GLGSV,3,3,10,84,57,248,23,85,33,323,32,1*76
$GAGSV,3,1,12,02,02,008,,04,00,236,,07,20,058,44,10,29,315,40,7*78
$GAGSV,3,2,12,11,05,324,,12,51,299,31,19,55,234,23,26,13,157,40,7*7B
$GAGSV,3,3,12,27,00,102,,29,74,065,42,30,07,056,33,33,57,187,41,7*75
$GBGSV,3,1,12,02,02,101,36,05,19,122,43,06,26,044,41,09,37,055,40,1*77
$GBGSV,3,2,12,14,23,080,42,16,23,041,41,24,28,078,47,25,21,136,44,1*78
$GBGSV,3,3,12,26,10,031,,27,39,250,,28,21,203,,30,25,309,,1*7C
$GNRMC,010050.00,A,4843.26054,N,00920.55481,E,0.015,,080225,,,A,V*11
$GNGGA,010050.00,4843.26054,N,00920.55481,E,1,12,0.50,248.8,M,47.6,M,,*4B
$GPGSV,3,1,12,03,30,104,43,04,64,059,39,06,59,279,36,07,26,173,45,1*63
$GPGSV,3,2,12,09,82,247,38,11,30,311,39,16,02,083,,17,03,218,,1*65
$GPGSV,3,3,12,19,15,239,29,20,08,297,,26,09,056,31,31,09,035,,1*6F
$GLGSV,3,1,10,67,01,070,11,68,44,052,46,69,66,309,40,70,09,262,,1*7E
$GLGSV,3,2,10,77,16,022,33,78,28,083,50,79,08,132,,83,13,184,41,1*73
$GLGSV,3,3,10,84,57,248,23,85,33,323,32,1*76
$GAGSV,3,1,12,02,02,008,,04,00,236,,07,20,058,44,10,29,315,40,7*78
$GAGSV,3,2,12,11,05,324,,12,51,299,31,19,55,234,22,26,13,157,40,7*7A
$GAGSV,3,3,12,27,00,102,,29,74,065,42,30,07,056,34,33,57,187,41,7*72
$GBGSV,3,1,12,02,02,101,37,05,19,122,43,06,26,044,41,09,37,055,40,1*76
$GBGSV,3,2,12,14,22,080,42,16,23,041,41,24,28,078,47,25,21,136,44,1*79
$GBGSV,3,3,12,26,10,031,,27,39,250,,28,21,203,,30,25,309,,1*7C
$GNRMC,010051.00,A,4843.26055,N,00920.55482,E,0.011,,080225,,,A,V*16
$GNGGA,010051.00,4843.26055,N,00920.55482,E,1,12,0.50,248.8,M,47.6,M,,*48
$GPGSV,3,1,12,03,30,104,43,04,64,059,39,06,59,279,36,07,26,173,45,1*63
$GPGSV,3,2,12,09,82,247,38,11,30,311,39,16,02,083,,17,03,218,,1*65
$GPGSV,3,3,12,19,15,239,29,20,08,297,,26,09,056,31,31,09,035,,1*6F
$GLGSV,3,1,10,67,01,070,13,68,44,052,46,69,66,309,40,70,09,262,,1*7C
$GLGSV,3,2,10,77,16,022,34,78,28,083,50,79,08,132,,83,13,184,40,1*75
$GLGSV,3,3,10,84,57,248,23,85,33,323,33,1*77
$GAGSV,3,1,12,02,02,008,,04,00,236,,07,20,058,44,10,29,315,40,7*78
$GAGSV,3,2,12,11,05,324,,12,51,299,30,19,55,234,21,26,13,157,40,7*78
$GAGSV,3,3,12,27,00,102,,29,74,065,42,30,07,056,34,33,57,187,41,7*72
$GBGSV,3,1,12,02,02,101,37,05,19,122,43,06,26,044,41,09,37,055,40,1*76
$GBGSV,3,2,12,14,22,080,42,16,23,041,41,24,28,078,47,25,21,136,45,1*78
$GBGSV,3,3,12,26,10,031,,27,39,250,,28,21,203,,30,25,309,,1*7C
$GNRMC,010052.00,A,4843.26055,N,00920.55484,E,0.020,,080225,,A,V*11
$GNGGA,010052.00,4843.26055,N,00920.55484,E,1,12,0.50,248.9,M,47.6,M,,*4C
$GPGSV,3,1,12,03,30,104,43,04,64,059,38,06,59,279,36,07,26,173,45,1*62
$GPGSV,3,2,12,09,82,247,38,11,30,311,39,16,02,083,,17,03,218,,1*65
$GPGSV,3,3,12,19,15,239,28,20,08,297,,26,09,056,31,31,09,035,,1*6E
$GLGSV,3,1,10,67,01,070,10,68,44,052,46,69,66,309,41,70,09,262,,1*7E
$GLGSV,3,2,10,77,16,022,34,78,28,083,50,79,08,132,,83,13,184,40,1*75
$GLGSV,3,3,10,84,57,248,23,85,33,323,33,1*77
$GAGSV,3,1,12,02,02,008,,04,00,236,,07,20,058,44,10,29,315,40,7*78
$GAGSV,3,2,12,11,05,324,,12,51,299,30,19,55,234,21,26,13,157,40,7*78
$GAGSV,3,3,12,27,00,102,,29,74,065,42,30,07,056,34,33,57,187,42,7*71
$GBGSV,3,1,12,02,02,101,37,05,19,122,43,06,26,044,41,09,37,055,40,1*76
$GBGSV,3,2,12,14,22,080,42,16,23,041,41,24,28,078,47,25,21,136,45,1*78
$GBGSV,3,3,12,26,10,031,,27,39,250,,28,21,203,,30,25,309,,1*7C
$GNRMC,010053.00,A,4843.26055,N,00920.55487,E,0.006,,080225,,,A,V*17
$GNGGA,010053.00,4843.26055,N,00920.55487,E,1,12,0.50,248.9,M,47.6,M,,*4E
$GPGSV,3,1,12,03,30,104,42,04,64,059,38,06,59,279,36,07,26,173,45,1*63
$GPGSV,3,2,12,09,82,247,38,11,30,311,39,16,02,083,,17,03,218,,1*65
$GPGSV,3,3,12,19,15,239,29,20,08,297,,26,09,056,31,31,09,035,,1*6F
$GLGSV,3,1,10,67,01,070,12,68,44,052,46,69,66,309,41,70,09,262,,1*7C
$GLGSV,3,2,10,77,16,022,34,78,28,083,50,79,08,132,,83,13,184,40,1*75
$GLGSV,3,3,10,84,57,248,22,85,33,323,33,1*76
$GAGSV,3,1,12,02,02,008,,04,00,236,,07,20,058,44,10,29,315,40,7*78
$GAGSV,3,2,12,11,05,324,,12,51,299,30,19,55,234,21,26,13,157,40,7*78
$GAGSV,3,3,12,27,00,102,,29,74,065,42,30,07,056,34,33,57,187,42,7*71
$GBGSV,3,1,12,02,02,101,37,05,19,122,43,06,26,044,41,09,37,055,40,1*76
$GBGSV,3,2,12,14,22,080,42,16,23,041,41,24,28,078,47,25,21,136,44,1*79
$GBGSV,3,3,12,26,10,031,,27,39,250,,28,21,203,,30,25,309,,1*7C
$GNRMC,010054.00,A,4843.26056,N,00920.55490,E,0.006,,080225,,,A,V*15
$GNGGA,010054.00,4843.26056,N,00920.55490,E,1,12,0.50,248.9,M,47.6,M,,*4C
$GPGSV,3,1,12,03,30,104,42,04,64,059,38,06,59,279,36,07,26,173,45,1*63
$GPGSV,3,2,12,09,82,247,38,11,30,311,38,16,02,083,,17,03,218,,1*64
$GPGSV,3,3,12,19,15,239,29,20,08,297,,26,09,056,31,31,09,035,,1*6F
$GLGSV,3,1,10,67,01,070,12,68,44,052,47,69,66,309,42,70,09,262,,1*7E
$GLGSV,3,2,10,77,16,022,35,78,28,083,50,79,08,132,,83,13,184,41,1*75
$GLGSV,3,3,10,84,57,248,22,85,33,323,34,1*71
$GAGSV,3,1,12,02,02,008,,04,00,236,,07,0,058,44,10,29,315,40,7*78
$GAGSV,3,2,12,11,05,324,,12,51,299,30,19,55,234,21,26,13,157,40,7*78
$GAGSV,3,3,12,27,00,102,,29,74,065,42,30,07,056,34,33,57,187,42,7*71
$GBGSV,3,1,12,02,02,101,37,05,19,122,43,06,26,044,41,09,37,055,40,1*76
$GBGSV,3,2,12,14,22,080,42,16,23,041,41,24,28,078,47,25,21,136,44,1*79
$GBGSV,3,3,12,26,10,031,,27,39,250,,28,21,203,,30,25,309,,1*7C
$GNRMC,010055.00,A,4843.26057,N,00920.55492,E,0.005,,080225,,,A,V*14
$GNGGA,010055.00,4843.26057,N,00920.55492,E,1,12,0.50,249.0,M,47.6,M,,*46
$GPGSV,3,1,12,03,30,104,41,04,64,059,38,06,59,279,36,07,26,173,45,1*60
$GPGSV,3,2,12,09,82,247,38,11,30,311,38,16,02,083,,17,03,218,,1*64
$GPGSV,3,3,12,19,15,239,30,20,08,297,,26,09,056,32,31,09,035,,1*64
$GLGSV,3,1,10,67,01,070,10,68,44,052,47,69,66,309,42,70,09,262,,1*7C
$GLGSV,3,2,10,77,16,022,35,78,28,083,50,79,08,132,,83,13,184,40,1*74
$GLGSV,3,3,10,84,57,248,23,85,33,323,34,1*70
$GAGSV,3,1,12,02,02,008,,04,00,236,,07,20,058,44,10,29,315,40,7*78
$GAGSV,3,2,12,11,05,324,,12,51,299,30,19,55,234,21,26,13,157,40,7*78
$GAGSV,3,3,12,27,00,102,,29,74,065,42,30,07,056,35,33,57,187,42,7*70
$GBGSV,3,1,12,02,02,101,37,05,19,122,43,06,26,044,41,09,37,055,40,1*76
$GBGSV,3,2,12,14,22,080,42,16,23,041,41,24,28,078,47,25,21,136,45,1*78
$GBGSV,3,3,12,26,10,031,,27,39,250,,28,21,203,,30,25,309,,1*7C
$GNRMC,010056.00,A,4843.26057,N,00920.55494,E,0.013,,080225,,,A,V*16
$GNGGA,010056.00,4843.26057,N,00920.55494,E,1,12,0.50,249.0,M,47.6,M,,*43
$GPGSV,3,1,12,03,30,104,41,04,64,059,38,06,59,279,36,07,26,173,46,1*63
$GPGSV,3,2,12,09,82,247,39,11,30,311,38,16,02,083,,17,03,218,,1*65
$GPGSV,3,3,12,19,15,239,31,20,08,297,,26,09,056,33,31,09,035,,1*64
$GLGSV,3,1,10,67,01,070,10,68,44,052,47,69,66,309,42,70,09,262,,1*7C
$GLGSV,3,2,10,77,16,022,35,78,28,083,50,79,08,132,,83,13,184,40,1*74
$GLGSV,3,3,10,84,57,248,23,85,33,323,34,1*70
$GAGSV,3,1,12,02,02,008,,04,00,236,,07,20,058,44,10,29,315,40,7*78
$GAGSV,3,2,12,11,05,324,,12,51,299,29,19,55,234,20,26,13,157,40,7*71
$GAGSV,3,3,12,27,00,102,,29,74,065,42,30,07,056,35,33,57,187,42,7*70
$GBGSV,3,1,12,02,02,101,37,05,19,122,43,06,26,044,41,09,37,055,40,1*76
$GBGSV,3,2,12,14,22,080,42,16,23,041,41,24,28,078,47,25,21,136,45,1*78
$GBGSV,3,3,12,26,10,031,,27,39,250,,28,21,203,,30,25,309,,1*7C
$GNRMC,010057.00,A,4843.26057,N,00920.55498,E,0.011,,080225,,,A,V*19
$GNGGA,010057.00,4843.26057,N,00920.55498,E,1,12,0.50,249.0,M,47.6,M,,*4E
$GPGSV,3,1,12,03,30,104,41,04,64,059,38,06,59,279,36,07,26,173,46,1*63
$GPGSV,3,2,12,09,82,247,39,11,30,311,38,16,02,083,,17,03,218,,1*65
$GPGSV,3,3,12,19,15,239,31,20,08,297,,26,09,056,33,31,09,035,,1*64
$GLGSV,3,1,10,67,01,070,11,68,44,052,47,69,66,309,42,70,09,262,,1*7D
$GLGSV,3,2,10,77,16,022,35,78,28,083,50,79,08,132,,83,13,184,40,1*74
$GLGSV,3,3,10,84,57,248,22,85,33,323,34,1*71
$GAGSV,3,1,12,02,02,008,,04,00,236,,07,20,058,44,10,29,315,40,7*78
$GAGSV,3,2,12,11,05,324,,12,51,299,30,19,55,234,19,26,13,157,40,7*73
$GAGSV,3,3,12,27,00,102,,29,74,065,42,30,07,056,35,33,57,187,42,7*70
$GBGSV,3,1,12,02,02,101,37,05,19,122,43,06,26,044,41,09,37,055,40,1*76
$GBGSV,3,2,12,14,22,080,42,16,23,041,41,24,28,077,47,25,21,136,45,1*77
$GBGSV,3,3,12,26,10,031,,27,39,250,,28,21,203,,30,25,309,,1*7C
$GNRMC,010058.00,A,4843.26057,N,00920.55501,E,0.018,,080225,,,A,V*1E
$GNGGA,010058.00,4843.26057,N,00920.55501,E,1,12,0.50,248.9,M,47.6,M,,*48
$GPGSV,3,1,12,03,30,104,41,04,64,059,38,06,59,279,37,07,26,173,46,1*62
$GPGSV,3,2,12,09,82,247,40,11,30,311,38,16,02,083,,17,03,218,,1*6B
$GPGSV,3,3,12,19,15,239,31,20,08,297,,26,09,056,34,31,09,035,,1*63
$GLGSV,3,1,10,67,01,070,15,68,44,052,47,69,66,309,42,70,09,262,,1*79
$GLGSV,3,2,10,77,16,022,34,78,28,083,49,79,08,132,,83,13,184,40,1*7D
$GLGSV,3,3,10,84,57,248,20,85,33,323,35,1*72
$GAGSV,3,1,12,02,02,008,,04,00,236,,07,20,058,44,10,29,315,40,7*78
$GAGSV,3,2,12,11,05,324,,12,51,299,30,19,55,234,18,26,13,157,40,7*72
$GAGSV,3,3,12,27,00,102,,29,74,065,42,30,07,056,35,33,57,187,42,7*70
$GBGSV,3,1,12,02,02,101,37,05,19,122,43,06,26,044,41,09,37,055,40,1*76
$GBGSV,3,2,12,14,22,080,42,16,23,041,41,24,28,077,47,25,21,136,45,1*77
$GBGSV,3,3,12,26,10,031,,27,39,250,,28,21,203,,30,25,309,,1*7C
$GNRMC,010059.00,A,4843.26058,N,00920.55503,E,0.033,,080225,,,A,V*1B
$GNGGA,010059.00,4843.26058,N,00920.55503,E,1,12,0.50,248.9,M,47.6,M,,*44
$GPGSV,3,1,12,03,30,104,41,04,64,059,38,06,59,279,37,07,26,173,46,1*62
$GPGSV,3,2,12,09,82,247,40,11,30,311,37,16,02,083,,17,03,218,,1*64
$GPGSV,3,3,12,19,15,239,31,20,08,297,,26,09,056,35,31,09,035,,1*62
$GLGSV,3,1,10,67,01,070,13,68,44,052,47,69,66,309,42,70,09,262,,1*7F
$GLGSV,3,2,10,77,16,022,34,78,28,083,50,79,08,132,,83,13,184,40,1*75
$GLGSV,3,3,10,84,57,248,19,85,33,323,34,1*79
$GAGSV,3,1,1202,02,008,,04,00,236,,07,20,058,45,10,29,315,40,7*79
$GAGSV,3,2,12,11,05,324,,12,51,299,29,19,55,234,18,26,13,157,40,7*7A
$GAGSV,3,3,12,27,00,102,,29,74,065,42,30,07,056,35,33,57,187,42,7*70
$GBGSV,3,1,12,02,02,101,36,05,19,122,43,06,26,044,41,09,37,055,40,1*77
$GBGSV,3,2,12,14,22,080,42,16,23,041,41,24,28,077,47,25,21,136,45,1*77
$GBGSV,3,3,12,26,09,031,,27,39,250,,28,21,203,,30,25,309,,1*74
$GNRMC,010100.00,A,4843.2605,N,00920.55506,E,0.019,,080225,,,A,V*1B
$GNGGA,010100.00,4843.26058,N,00920.55506,E,1,12,0.50,248.9,M,47.6,M,,*4C
$GPGSV,3,1,12,03,30,104,41,04,64,059,39,06,59,279,38,07,26,173,46,1*6C
$GPGSV,3,2,12,09,82,247,40,11,30,311,37,16,02,083,,17,03,218,,1*64
$GPGSV,3,3,12,19,15,239,31,20,08,297,,26,09,056,36,31,09,035,,1*61
$GLGSV,3,1,10,67,01,070,11,68,44,052,47,69,66,309,42,70,09,262,,1*7D
$GLGSV,3,2,10,77,16,022,34,78,28,083,50,79,08,132,,83,13,184,39,1*7B
$GLGSV,3,3,10,84,57,248,17,85,33,323,34,1*77
$GAGSV,3,1,12,02,02,008,,04,00,236,,07,20,058,45,10,29,315,40,7*79
$GAGSV,3,2,12,11,05,324,,12,51,299,30,19,55,234,18,26,13,157,40,7*72
$GAGSV,3,3,12,27,00,102,,29,74,065,42,30,07,056,35,33,57,187,42,7*70
$GBGSV,3,1,12,02,02,101,37,05,19,122,43,06,26,044,41,09,37,055,40,1*76
$GBGSV,3,2,12,14,22,080,42,16,23,041,41,24,28,077,47,25,21,136,45,1*77
$GBGSV,3,3,12,26,09,031,,27,39,249,,28,21,203,,30,25,309,,1*7C
$GNRMC,010101.00,A,4843.26059,N,00920.55509,E,0.037,,080225,,,A,V*18
$GNGGA,010101.00,4843.26059,N,00920.55509,E,1,12,0.50,248.9,M,47.6,M,,*43
$GPGSV,3,1,12,03,30,104,42,04,64,059,39,06,59,279,38,07,26,173,46,1*6F
$GPGSV,3,2,12,09,82,247,40,11,30,311,37,16,02,083,,17,03,218,,1*64
$GPGSV,3,3,12,19,15,239,32,20,08,297,,26,09,056,36,31,09,035,,1*62
$GLGSV,3,1,10,67,01,070,11,68,44,052,47,69,66,309,42,70,09,262,,1*7D
$GLGSV,3,2,10,77,16,022,34,78,28,083,50,79,08,132,,83,13,184,39,1*7B
$GLGSV,3,3,10,84,57,248,17,85,33,323,34,1*77
$GAGSV,3,1,12,02,02,008,,04,00,236,,07,20,058,45,10,29,315,40,7*79
$GAGSV,3,2,12,11,05,324,,12,51,299,29,19,55,234,18,26,13,157,40,7*7A
$GAGSV,3,3,12,27,00,102,,29,74,065,42,30,07,056,35,33,57,187,42,7*70
$GBGSV,3,1,12,02,02,101,37,05,19,122,43,06,26,044,41,09,37,055,40,1*76
$GBGSV,3,2,12,14,22,080,42,16,23,041,41,24,28,077,47,25,21,136,46,1*74
$GBGSV,3,3,12,26,09,031,,27,39,249,,28,20,202,,30,25,309,,1*7C
$GNRMC,010102.00,A,4843.26059,N,00920.55511,E,0.019,,080225,,,A,V*1E
$GNGGA,010102.00,4843.26059,N,00920.55511,E,1,12,0.50,248.9,M,47.6,M,,*49
$GPGSV,3,1,12,03,30,104,42,04,64,059,39,06,59,279,38,07,26,173,46,1*6F
$GPGSV,3,2,12,09,82,247,40,11,30,311,37,16,02,083,,17,03,218,,1*64
$GPGSV,3,3,12,19,15,239,33,20,08,297,,26,09,056,37,31,09,035,,1*62
$GLGSV,3,1,10,67,01,070,12,68,44,052,47,69,66,309,42,70,09,262,,1*7E
$GLGSV,3,2,10,77,16,022,35,78,28,083,50,79,08,132,,83,13,184,39,1*7A
$GLGSV,3,3,10,84,57,248,16,85,33,323,34,1*76
$GAGSV,3,1,12,02,02,008,,04,00,236,,07,20,058,45,10,29,315,40,7*79
$GAGSV,3,2,12,11,05,324,,12,51,299,30,19,55,234,17,26,13,157,40,7*7D
$GAGSV,3,3,12,27,00,102,,29,74,065,42,30,07,056,36,33,57,187,42,7*73
$GBGSV,3,1,12,02,02,101,37,05,19,122,43,06,26,044,41,09,37,055,40,1*76
$GBGSV,3,2,12,14,22,080,41,16,23,041,41,24,28,077,47,25,21,136,46,1*77
$GBGSV,3,3,12,26,09,031,,27,39,249,,28,20,202,,30,25,309,,1*7C
$GNRMC,010103.00,A,4843.26060,N,00920.55512,E,0.021,,080225,,,A,V*1D
$GNGGA,010103.00,4843.26060,N,00920.55512,E,1,12,0.50,248.9,M,47.6,M,,*41
$GPGSV,3,1,12,03,30,104,42,04,64,059,39,06,59,279,38,07,26,173,46,1*6F
$GPGSV,3,2,12,09,82,247,39,11,30,311,37,16,02,083,,17,03,218,,1*6A
$GPGSV,3,3,12,19,15,239,33,20,08,297,,26,09,056,38,31,09,035,,1*6D
$GLGSV,3,1,10,67,01,070,14,68,44,052,47,69,66,309,42,70,09,262,,1*78
$GLGSV,3,2,10,77,16,022,35,78,28,083,50,79,08,132,,83,13,184,39,1*7A
$GLGSV,3,3,10,84,57,248,17,85,33,323,33,1*70
$GAGSV,3,1,12,02,02,008,,04,00,236,,07,20,058,45,10,29,315,40,7*79
$GAGSV,3,2,12,11,05,324,,12,51,299,30,19,55,234,15,26,13,157,39,7*71
$GAGSV,3,3,12,27,00,102,,29,74,065,42,30,07,056,35,33,57,187,41,7*73
$GBGSV,3,1,12,02,02,101,36,05,19,122,43,06,26,044,41,09,37,055,40,1*77
$GBGSV,3,2,12,14,22,080,41,16,23,041,41,24,28,077,47,25,21,136,46,1*77
$GBGSV,3,3,12,26,09,031,,27,39,249,,28,20,202,,30,25,308,,1*7D
$GNRMC,010104.00,A,4843.26060,N,00920.55513,E,0.008,,080225,,,A,V*10
$GNGGA,010104.00,4843.26060,N,00920.55513,E,1,12,0.50,248.9,M,47.6,M,,*47
$GPGSV,3,1,12,03,30,104,42,04,64,059,39,06,59,279,39,07,26,173,46,1*6E
$GPGSV,3,2,12,09,82,247,40,11,30,311,37,16,02,083,,17,03,218,,1*64
$GPGSV,3,3,12,19,15,239,33,20,08,297,,26,09,056,38,31,09,035,,1*6D
$GLGSV,3,1,10,67,01,070,14,68,44,052,47,69,66,309,41,70,09,262,,1*7B
$GLGSV,3,2,10,77,16,022,35,78,28,083,50,79,08,132,,83,13,184,39,1*7A
$GLGSV,3,3,10,84,57,248,16,85,33,323,33,1*71
$GAGSV,3,1,12,02,02,008,,04,00,236,,07,20,058,45,10,29,315,40,7*79
$GAGSV,3,2,12,11,05,324,,12,51,299,30,19,55,234,16,26,13,157,40,7*7C
$GAGSV,3,3,12,27,00,102,,29,74,065,42,30,07,056,35,33,57,187,41,7*73
$GBGSV,3,1,12,02,02,101,36,05,19,122,43,06,26,044,41,09,37,055,40,1*77
$GBGSV,3,2,12,14,22,080,41,16,23,041,41,24,28,077,47,25,21,136,46,1*77
$GBGSV,3,3,12,26,09,031,,27,39,249,,28,20,202,,30,25,308,,1*7D
$GNRMC,010105.00,A,4843.26062,N,00920.55513,E,0.005,,080225,,,A,V*1E
$GNGGA,010105.00,4843.26062,N,00920.55513,E,1,12,0.50,248.8,M,47.6,M,,*45
$GPGSV,3,1,12,03,30,104,42,04,64,059,39,06,59,279,39,07,26,173,46,1*6E
$GPGSV,3,2,12,09,82,247,40,11,30,311,37,16,02,083,,17,03,218,,1*64
$GPGSV,3,3,12,19,15,239,33,20,08,297,,26,09,056,39,31,09,035,,1*6C
$GLGSV,3,1,10,67,01,070,14,68,44,052,47,69,66,309,41,70,09,262,,1*7B
$GLGSV,3,2,10,77,16,022,34,78,28,083,50,79,08,132,,83,13,184,38,1*7A
$GLGSV,3,3,10,84,57,248,16,85,33,323,33,1*71
$GAGSV,3,1,12,02,02,008,,04,00,236,,07,20,058,45,10,29,315,40,7*79
$GAGSV,3,2,12,11,05,324,,12,51,299,30,19,55,234,13,26,13,157,40,7*79
$GAGSV,3,3,12,27,00,102,,29,74,065,42,30,07,056,34,33,57,187,41,7*72
$GBGSV,3,1,12,02,02,101,36,05,19,122,43,06,26,044,41,09,37,055,40,1*77
