$GNRMC,200000.00,A,4843.26114,N,00920.55363,E,0.013,,080225,,,A,V*1F
$GNGGA,200000.00,4843.26114,N,00920.55363,E,1,12,0.49,250.1,M,47.6,M,,*4B
$GPGSV,3,1,11,01,49,284,40,02,56,293,40,03,20,226,38,08,60,182,42,1*62
$GPGSV,3,2,11,10,34,053,49,14,20,308,38,17,03,316,,22,12,326,,1*6A
$GPGSV,3,3,11,24,01,021,,27,28,154,46,32,41,096,49,1*5B
$GLGSV,3,1,09,66,35,038,48,67,63,123,48,68,26,179,43,73,16,281,40,1*74
$GLGSV,3,2,09,74,17,326,30,75,00,011,,81,24,107,47,82,68,067,47,1*7F
$GLGSV,3,3,09,83,53,321,30,1*4F
$GAGSV,3,1,10,03,10,166,,05,36,119,49,06,15,036,38,09,29,056,43,7*7D
$GAGSV,3,2,10,15,41,283,34,21,07,335,,27,31,288,32,30,26,230,38,7*74
$GAGSV,3,3,10,34,77,036,38,36,28,086,46,7*78
$GBGSV,4,1,13,02,04,099,36,05,19,121,43,06,02,080,,08,04,050,,1*7F
$GNRMC,200001.00,A,4843.26113,N,00920.55363,E,0.006,,080225,,,A,V*1D
$GNGGA,200001.00,4843.26113,N,00920.55363,E,1,12,0.49,250.1,M,47.6,M,,*4D
$GPGSV,3,1,11,01,49,284,40,02,56,293,40,03,20,226,38,08,60,182,42,1*62
$GPGSV,3,2,11,10,34,053,49,14,20,308,38,17,03,316,,22,12,326,,1*6A
$GPGSV,3,3,11,24,01,021,,27,28,154,46,32,41,096,49,1*5B
$GLGSV,3,1,09,66,35,038,48,67,63,123,48,68,26,179,43,73,16,281,40,1*74
$GLGSV,3,2,09,74,17,326,30,75,00,011,,81,24,107,47,82,68,067,47,1*7F
$GLGSV,3,3,09,83,53,321,31,1*4E
$GAGSV,3,1,10,03,10,166,,05,36,119,49,06,15,036,38,09,29,056,43,7*7D
$GAGSV,3,2,10,15,41,283,35,21,07,335,,27,31,288,32,30,26,230,38,7*75
$GAGSV,3,3,10,34,77,036,38,36,28,086,46,7*78
$GNRMC,200002.00,A,4843.26111,N,00920.55363,E,0.005,,080225,,,A,V*1F
$GNGGA,200002.00,4843.26111,N,00920.55363,E,1,12,0.49,250.1,M,47.6,M,,*4C
$GPGSV,3,1,11,01,50,284,40,02,57,294,40,03,21,226,38,08,60,182,42,1*6D
$GPGSV,3,2,11,10,34,053,49,14,20,308,38,17,03,316,,22,12,326,,1*6A
$GPGSV,3,3,11,24,01,021,,27,28,154,46,32,41,096,49,1*5B
$GLGSV,3,1,09,66,35,038,48,67,63,123,47,68,26,179,42,73,16,281,40,1*7A
$GLGSV,3,2,09,74,17,326,30,75,00,011,,81,24,107,47,82,68,067,47,1*7F
$GLGSV,3,3,09,83,53,321,31,1*4E
$GAGSV,3,1,10,03,10,166,,05,36,119,49,06,15,036,37,09,29,056,43,7*72
$GAGSV,3,2,10,15,41,283,35,21,07,335,,27,31,288,32,30,26,230,38,7*75
$GAGSV,3,3,10,34,77,036,38,36,28,086,46,7*78
$GNRMC,200003.00,A,4843.26110,N,00920.55363,E,0.007,,080225,,,A,V*1D
$GNGGA,200003.00,4843.26110,N,00920.55363,E,1,12,0.50,250.0,M,47.6,M,,*45
$GPGSV,3,1,1101,50,284,40,02,57,294,40,03,21,226,38,08,60,182,42,1*6D
$GPGSV,3,2,11,10,34,053,49,14,20,308,38,17,03,316,,22,12,326,,1*6A
$GPGSV,3,3,11,24,01,021,,27,28,154,46,32,41,096,48,1*5A
$GLGSV,3,1,09,66,35,038,48,67,63,123,47,68,26,179,42,73,16,281,39,1*74
$GLGSV,3,2,09,74,17,326,30,75,00,011,,81,24,107,47,82,68,067,47,1*7F
$GLGSV,3,3,09,83,53,321,31,1*4E
$GAGSV,3,1,10,03,10,166,,05,36,119,49,06,15,036,37,09,29,056,43,7*72
$GAGSV,3,2,10,15,41,283,35,21,07,335,,27,31,288,32,30,26,230,38,7*75
$GAGSV,3,3,10,34,77,036,38,36,28,086,46,7*78
$GNRMC,200004.00,A,4843.26109,N,00920.55364,E,0.007,,080225,,,A,V*15
$GNGGA,200004.00,4843.26109,N,00920.55364,E,1,12,0.50,250.0,M,47.6,M,,*4D
$GPGSV,3,1,11,01,50,284,40,02,57,294,40,03,21,226,38,08,60,182,42,1*6D
$GPGSV,3,2,11,10,34,053,49,14,20,308,38,17,03,316,,22,12,326,,1*6A
$GPGSV,3,3,11,24,01,021,,27,28,154,46,32,41,096,48,1*5A
$GLGSV,3,1,09,66,35,038,48,67,63,123,47,68,26,179,41,73,16,281,38,1*76
$GLGSV,3,2,09,74,17,326,30,75,00,011,,81,24,107,47,82,68,067,47,1*7F
$GLGSV,3,3,09,83,53,321,30,1*4F
$GAGSV,3,1,10,03,10,166,,05,36,119,49,06,15,036,37,09,29,056,43,7*72
$GAGSV,3,2,10,15,41,283,35,21,07,335,,27,31,288,32,30,26,230,38,7*75
$GNRMC,200005.00,A,4843.26108,N,00920.55365,E,0.003,,080225,,,A,V*10
$GNGGA,200005.00,4843.26108,N,00920.55365,E,1,12,0.49,250.0,M,47.6,M,,*44
$GPGSV,3,1,11,01,50,284,40,02,57,294,40,03,21,226,38,08,60,182,42,1*6D
$GPGSV,3,2,11,10,34,053,49,14,20,308,37,17,03,316,,22,12,326,,1*65
$GPGSV,3,3,11,24,01,021,,27,28,154,47,32,41,096,49,1*5A
$GLGSV,3,1,09,66,35,038,48,67,63,123,47,68,26,179,40,73,16,281,37,1*78
$GLGSV,3,2,09,74,17,326,30,75,00,011,,81,24,107,47,82,68,067,46,1*7E
$GLGSV,3,3,09,83,53,321,30,1*4F
$GAGSV,3,110,03,10,166,,05,36,119,49,06,15,036,37,09,29,056,43,7*72
$GAGSV,3,2,10,15,41,283,35,21,07,335,,27,31,288,32,30,26,230,38,7*75
$GAGSV,3,3,10,34,77,036,38,36,28,086,46,7*78
$GNRMC,200006.00,A,4843.26106,N,00920.55365,E,0.003,,080225,,,A,V*1D
$GNGGA,200006.00,4843.26106,N,00920.55365,E,1,12,0.49,250.0,M,47.6,M,,*49
$GPGSV,3,1,11,01,50,284,40,02,57,294,40,03,21,226,38,08,60,182,42,1*6D
$GPGSV,3,2,11,10,34,053,49,14,20,308,37,17,03,316,,22,12,326,,1*65
$GPGSV,3,3,11,24,01,021,,27,28,154,47,32,41,096,49,1*5A
$GLGSV,3,1,09,66,35,038,48,67,63,123,47,68,26,179,41,73,16,281,37,1*79
$GLGSV,3,2,09,74,17,325,30,75,00,011,,81,24,107,47,82,68,067,47,1*7C
$GLGSV,3,3,09,83,53,321,30,1*4F
$GAGSV,3,1,10,03,10,166,,05,36,119,49,06,15,036,36,09,29,056,43,7*73
$GAGSV,3,2,10,15,41,283,35,21,07,335,,27,31,288,32,30,26,230,38,7*75
$GAGSV,3,3,10,34,77,036,38,36,28,086,46,7*78
$GNRMC,200007.00,A,4843.26105,N,00920.55365,E,0.011,,080225,,,A,V*1C
$GNGGA,200007.00,4843.26105,N,00920.55365,E,1,12,0.49,250.0,M,47.6,M,,*4B
$GPGSV,3,1,11,01,50,284,40,02,57,294,40,03,21,226,38,08,60,182,42,1*6D
$GPGSV,3,2,11,10,34,053,49,14,20,307,37,17,03,316,,22,12,326,,1*6A
$GPGSV,3,3,11,24,01,021,,27,28,154,47,32,41,096,49,1*5A
$GLGSV,3,1,09,66,35,038,48,67,63,123,48,68,26,179,40,73,16,281,37,1*77
$GLGSV,3,2,09,74,17,325,30,75,00,011,,81,24,107,47,82,68,067,47,1*7C
$GLGSV,3,3,09,83,53,321,29,1*47
$GAGSV,3,1,10,03,10,166,,05,36,119,49,06,15,036,36,09,29,056,43,7*73
$GAGSV,3,2,10,15,41,283,35,21,07,335,,27,31,288,32,30,26,230,38,7*75
$GAGSV,3,3,10,34,77,036,38,36,28,86,46,7*78
$GNRMC,200008.00,A,4843.26103,N,00920.55364,E,0.016,,080225,,,A,V*13
$GNGGA,200008.00,4843.26103,N,00920.55364,E,1,12,0.49,249.9,M,47.6,M,,*42
$GPGSV,3,1,11,01,50,284,40,02,57,294,40,03,21,226,38,08,60,182,42,1*6D
$GPGSV,3,2,11,10,34,053,49,14,20,307,37,17,03,316,,22,12,326,,1*6A
$GPGSV,3,3,11,24,01,021,,27,28,154,47,32,41,096,49,1*5A
$GLGSV,3,1,09,66,35,038,48,67,63,123,48,68,26,179,39,73,16,281,37,1*79
$GLGSV,3,2,09,74,17,325,31,75,00,011,,81,24,107,46,82,68,067,47,1*7C
$GLGSV,3,3,09,83,53,321,29,1*47
$GAGSV,3,1,10,03,10,166,,05,36,119,49,06,15,036,35,09,29,056,43,7*70
$GAGSV,3,2,10,15,41,283,35,21,07,335,,27,31,288,32,30,26,230,38,7*75
$GAGSV,3,3,10,34,77,036,38,36,28,086,46,7*78
$GNRMC,200009.00,A,4843.26101,N,00920.55363,E,0.023,,080225,,,A,V*11
$GNGGA,200009.00,4843.26101,N,00920.55363,E,1,12,0.49,250.0,M,47.6,M,,*47
$GPGSV,3,1,11,01,50,284,40,02,57,294,41,03,21,226,37,08,59,182,42,1*69
$GPGSV,3,2,11,10,34,053,49,14,20,307,37,17,03,316,,22,12,326,,1*6A
$GPGSV,3,3,11,24,01,021,,27,28,154,47,32,41,096,49,1*5A
$GLGSV,3,1,09,66,35,038,48,67,63,123,48,6826,179,39,73,16,281,38,1*76
$GLGSV,3,2,09,74,17,325,31,75,00,011,,81,24,107,47,82,68,067,47,1*7D
$GLGSV,3,3,09,83,53,321,29,1*47
$GAGSV,3,1,10,03,10,166,,05,36,119,49,06,15,036,35,09,29,056,43,7*70
$GNRMC,200010.00,A,4843.26099,N,00920.55362,E,0.009,,080225,,,A,V*10
$GNGGA,200010.00,4843.26099,N,00920.55362,E,1,12,0.49,249.9,M,47.6,M,,*4F
$GPGSV,3,1,11,01,50,284,40,02,57,294,41,03,21,226,37,08,59,182,41,1*6A
$GPGSV,3,2,11,10,34,053,49,14,20,307,36,17,03,316,,22,12,326,,1*6B
$GPGSV,3,3,11,24,01,021,,27,28,154,47,32,41,096,50,1*52
$GLGSV,3,1,09,66,34,037,48,67,64,121,48,68,27,179,39,73,15,280,37,1*71
$GLGSV,3,2,09,74,17,325,31,75,00,011,,81,23,107,47,82,67,069,47,1*7B
$GLGSV,3,3,09,83,53,321,29,1*47
$GAGSV,3,1,10,03,0,166,,05,36,11,49,06,15,036,35,09,29,056,43,7*70
$GAGSV,3,2,10,15,41,283,35,21,07,335,,27,31,288,32,30,26,23038,7*75
$GAGSV,3,3,10,34,77,036,38,36,28,086,46,7*78
$GNRMC,200011.00,A,4843.26097,N,00920.55362,E,0.012,,080225,,,A,V*15
$GNGGA,200011.00,4843.26097,N,00920.55362,E,1,12,0.49,249.8,M,47.6,M,,*41
$GPGSV,3,1,11,01,50,284,40,02,57,294,41,03,21,226,37,08,59,182,41,1*6A
$GPGSV,3,2,11,10,34,053,49,14,20,307,37,17,03,316,,22,12,326,,1*6A
$GPGSV,3,3,11,24,01,021,,27,28,154,47,32,41,096,50,1*52
$GLGSV,3,1,09,66,34,037,48,67,64,121,48,68,27,179,39,73,15,280,37,1*71
$GLGSV,3,2,09,74,17,325,31,75,00,011,,81,23,107,47,82,67,069,46,1*7A
$GLGSV,3,3,09,83,53,321,29,1*47
$GAGSV,3,1,10,03,10,166,,05,36,119,49,06,15,036,35,09,29,056,43,7*70
$GAGSV,3,2,10,15,41,283,35,21,07,335,,27,31,288,32,30,26,230,38,7*75
$GAGSV,3,3,10,34,77,036,39,36,28,086,46,7*79
$GNRMC,200012.00,A,4843.26094,N,00920.55361,E,0.019,,080225,,,A,V*1D
$GNGGA,200012.00,4843.26094,N,00920.55361,E,1,12,0.49,249.8,M,47.6,M,,*42
$GPGSV,3,1,11,01,50,284,40,02,57,294,41,03,21,226,37,08,59,182,41,1*6A
$GPGSV,3,2,11,10,34,053,49,14,20,307,36,17,03,316,,22,12,326,,1*6B
$GPGSV,3,3,11,24,01,021,,27,28,154,47,32,41,096,50,1*52
$GLGSV,3,1,09,66,34,037,48,67,64,121,48,68,27,179,39,73,15,280,36,1*70
$GLGSV,3,2,09,74,17,325,31,75,00,011,,81,23,107,47,82,67,069,46,1*7A
$GLGSV,3,3,09,83,53,321,29,1*47
$GAGSV,3,1,10,03,10,166,,05,36,119,48,06,15,036,35,09,29,056,43,7*71
$GAGSV,3,2,10,15,41,283,35,21,07,335,,27,31,288,32,30,26,230,38,7*75
$GAGSV,3,3,10,34,77,036,39,36,28,086,46,7*79
$GBGSV,4,1,13,02,04,099,36,05,19,121,43,06,03,080,,08,04,050,,1*7E
$GNRMC,200013.00,A,4843.26093,N,00920.55360,E,0.009,,080225,,,A,V*1B
$GNGGA,200013.00,4843.26093,N,00920.55360,E,1,12,0.49,249.7,M,47.6,M,,*4A
$GPGSV,3,1,11,01,50,284,40,02,57,294,40,03,21,226,37,08,59,182,41,1*6B
$GPGSV,3,2,11,10,34,053,49,14,20,307,36,17,03,316,,22,12,326,,1*6B
$GPGSV,3,3,11,24,01,021,,27,28,154,47,32,41,096,50,1*52
$GLGSV,3,1,09,66,34,037,48,67,64,121,48,68,27,179,39,73,15,280,35,1*73
$GLGSV,3,2,09,74,17,325,31,75,00,011,,81,23,107,47,82,67,069,46,1*7A
$GLGSV,3,3,09,83,53,321,29,1*47
$GAGSV,3,1,10,03,10,166,,05,36,119,48,06,15,036,35,09,29,056,43,7*71
$GAGSV,3,2,10,15,41,283,35,21,07,335,,27,31,288,32,30,26,230,38,7*75
$GNRMC,200014.00,A,4843.26091,N,00920.55358,E,0.002,,080225,,,A,V*1E
$GNGGA,200014.00,4843.26091,N,00920.55358,E,1,12,0.49,249.6,M,47.6,M,,*45
$GPGSV,3,1,11,01,50,284,40,02,57,294,40,03,21,226,36,08,59,182,41,1*6A
$GPGSV,3,2,11,10,34,053,49,14,20,307,37,17,03,316,,22,12,326,,1*6A
$GPGSV,3,3,11,24,01,021,,27,28,154,47,32,41,096,50,1*52
$GLGSV,3,1,09,66,34,037,47,67,64,121,48,68,27,179,40,73,15,280,34,1*73
$GLGSV,3,2,09,74,17,325,32,75,00,011,,81,23,107,47,82,67,069,46,1*79
$GNRMC,200015.00,A,4843.26090,N,00920.55356,E,0.024,,080225,,,A,V*14
$GNGGA,200015.00,4843.26090,N,00920.55356,E,1,12,0.49,249.5,M,47.6,M,,*48
$GPGSV,3,1,11,01,50,284,40,02,57,294,40,03,21,226,36,08,59,182,41,1*6A
$GPGSV,3,2,11,10,34,053,49,14,20,307,37,17,03,316,,22,12,326,,1*6A
$GPGSV,3,3,11,24,01,021,,27,28,154,47,32,41,096,50,1*52
$GLGSV,3,1,09,66,34,037,47,67,64,121,48,68,27,179,41,73,15,280,34,1*72
$GLGSV,3,2,09,74,17,325,32,75,00,011,,81,23,107,47,82,67,069,46,1*79
$GLGSV,3,3,09,83,53,321,28,1*46
$GAGSV,3,1,10,03,10,166,,05,36,119,48,06,15,036,35,09,29,056,43,7*71
$GAGSV,3,2,10,15,41,283,35,21,07,335,,27,31,288,32,30,26,230,38,7*75
$GNRMC,200016.00,A,4843.26088,N,00920.55355,E,0.006,,080225,,,A,V*1D
$GNGGA,200016.00,4843.26088,N,00920.55355,E,1,12,0.49,249.5,M,47.6,M,,*41
$GPGSV,3,1,11,01,50,284,39,02,57,294,40,03,21,226,37,08,59,182,41,1*65
$GPGSV,3,2,11,10,34,053,49,14,20,307,37,17,03,316,,22,12,326,,1*6A
$GPGSV,3,3,11,24,01,021,,27,28,154,48,32,41,096,50,1*5D
$GLGSV,3,1,09,66,34,037,47,67,64,121,48,68,27,179,41,73,15,280,34,1*72
$GLGSV,3,2,09,74,17,325,32,75,00,011,,81,23,107,47,82,67,069,46,1*79
$GLGSV,3,3,09,83,53,321,28,1*46
$GAGSV,3,1,10,03,10,166,,05,36,119,48,06,15,036,36,09,29,056,43,7*72
$GAGSV,3,210,15,41,283,35,21,07,335,,27,31,288,32,30,26,230,39,7*74
$GPGSV,3,1,11,01,50,284,39,02,57,294,40,03,21,226,37,08,59,182,41,1*65
$GPGSV,3,2,11,10,34,053,50,14,20,307,37,17,03,316,,22,12,326,,1*62
$GPGSV,3,3,11,24,01,021,,27,28,154,48,32,41,096,50,1*5D
$GLGSV,3,1,09,66,34,037,47,67,64,121,47,68,27,179,42,73,15,280,35,1*7F
$GLGSV,3,2,09,74,17,325,32,75,00,011,,81,23,107,47,82,67,069,46,1*79
$GLGSV,3,3,09,83,53,321,29,1*47
$GAGSV,3,1,10,03,10,166,,05,36,119,48,06,15,036,36,09,29,056,43,7*72
$GAGSV,3,2,10,15,41,283,34,21,07,335,,27,31,288,32,30,26,230,39,7*75
$GAGSV,3,3,10,34,77,036,39,36,28,086,45,7*7A
$GNRMC,200018.00,A,4843.26085,N,00920.55352,E,0.011,,080225,,,A,V*1F
$GNGGA,200018.00,4843.26085,N,00920.55352,E,1,12,0.49,249.4,M,47.6,M,,*44
$GPGSV,3,1,11,01,50,284,39,02,57,294,39,03,21,226,37,08,59,182,41,1*6B
$GPGSV,3,2,11,10,34,053,50,14,20,307,37,17,03,316,,22,12,326,,1*62
$GPGSV,3,3,11,24,01,021,,27,28,154,48,32,4,096,49,1*55
$GLGSV,3,1,09,66,34,037,47,67,64,121,47,68,27,179,43,73,15,280,35,1*7E
$GLGSV,3,2,09,74,17,325,32,75,00,011,,81,23,107,47,82,67,069,46,1*79
$GLGSV,3,3,09,83,53,321,30,1*4F
$GAGSV,3,2,10,15,41,283,34,21,07,335,,27,31,288,31,30,26,230,39,7*76
$GAGSV,3,3,10,34,77,036,38,36,28,086,45,7*7B
$GNRMC,200019.00,A,4843.26083,N,00920.55350,E,0.002,,080225,,,A,V*18
$GNGGA,200019.00,4843.26083,N,00920.55350,E,1,12,0.49,249.4,M,47.6,M,,*41
$GPGSV,3,1,11,01,50,284,38,02,57,294,39,03,21,226,37,08,59,182,42,1*69
$GPGSV,3,2,11,10,34,053,50,14,20,307,38,17,03,316,,22,12,326,,1*6D
$GPGSV,3,3,11,24,01,021,,27,28,154,48,32,41,096,49,1*55
$GLGSV,3,1,09,66,34,037,47,67,64,121,46,68,27,179,43,73,15,280,34,1*7E
$GLGSV,3,2,09,74,17,325,32,75,00,011,,81,23,107,47,82,67,069,46,1*79
$GLGSV,3,3,09,83,53,321,30,1*4F
$GAGSV,3,1,10,03,10,166,,05,36,119,48,06,15,036,36,09,29,056,43,7*72
$GAGSV,3,2,10,15,41,283,35,21,07,335,,27,31,288,31,30,26,230,39,7*77
$GAGSV,3,3,10,34,77,036,38,36,28,086,45,7*7B
$GNRMC,200020.00,A,4843.26080,N,00920.55348,E,0.009,,080225,,,A,V*13
$GNGGA,200020.00,4843.26080,N,00920.55348,E,1,12,0.49,249.5,M,47.6,M,,*40
$GPGSV,3,1,11,01,50,284,38,02,57,294,39,03,21,226,37,08,59,182,42,1*69
$GPGSV,3,2,11,10,34,053,50,14,20,307,38,17,03,316,,22,12,326,,1*6D
$GPGSV,3,3,11,24,01,021,,27,28,154,48,32,41,096,49,1*55
$GLGSV,3,1,09,66,34,037,46,67,64,121,46,68,27,179,43,73,15,280,35,1*7E
$GLGSV,3,2,09,74,17,325,31,75,00,011,,81,23,107,47,82,67,069,46,1*7A
$GLGSV,3,3,09,83,53,321,31,1*4E
$GAGSV,3,1,10,03,10,166,,05,36,119,48,06,15,036,36,09,29,056,43,7*72
$GAGSV,3,2,10,15,41,283,34,21,07,335,,27,31,288,31,30,26,230,39,7*76
$GAGSV,3,3,10,34,77,036,38,36,28,086,45,7*7B
$GBGSV,4,1,13,02,04,099,36,05,19,121,43,06,0,080,,08,04,050,,1*7E
$GNRMC,200021.00,A,4843.26077,N,00920.55346,E,0.014,,080225,,,A,V*18
$GNGGA,200021.00,4843.26077,N,00920.55346,E,1,12,0.49,249.5,M,47.6,M,,*47
$GPGSV,3,1,11,01,50,284,38,02,57,294,39,03,21,226,36,08,59,182,42,1*68
$GPGSV,3,2,11,10,34,053,50,14,20,307,38,17,03,316,,22,12,326,,1*6D
$GPGSV,3,3,11,24,01,021,,27,28,154,48,32,41,096,49,1*55
$GLGSV,3,1,09,66,34,037,47,67,64,121,45,68,27,179,43,73,15,280,35,1*7C
$GLGSV,3,2,09,74,17,325,31,75,00,011,,81,23,107,46,82,67,069,47,1*7A
$GLGSV,3,3,09,83,53,321,30,1*4F
$GAGSV,3,1,10,03,10,166,,05,36,119,48,06,15,036,36,09,29,056,43,7*72
$GAGSV,3,2,10,15,41,283,34,21,07,335,,27,31,288,31,30,26,230,38,7*77
$GAGSV,3,3,10,34,77,036,38,36,28,086,45,7*7B
$GNRMC,200022.00,A,4843.26075,N,00920.55344,E,0.019,,080225,,,A,V*16
$GNGGA,200022.00,4843.26075,N,00920.55344,E,1,12,0.49,249.6,M,47.6,M,,*47
$GPGSV,3,1,11,01,50,284,38,02,57,294,38,03,21,226,37,08,59,182,42,1*68
$GPGSV,3,2,11,10,34,053,50,14,20,307,38,17,03,316,,22,12,326,,1*6D
$GPGSV,3,3,11,24,01,021,,27,28,154,48,32,41,096,49,1*55
$GLGSV,3,1,09,66,34,037,47,67,64,121,45,68,27,179,44,73,15,280,35,1*7B
$GLGSV,3,2,09,74,17,325,31,75,00,011,,81,23,107,46,82,67,069,47,1*7A
$GLGSV,3,3,09,83,53,321,30,1*4F
$GAGSV,3,1,10,03,10,166,,05,36,119,48,06,15,036,36,09,29,056,43,7*72
$GAGSV,3,2,10,15,41,283,34,21,07,335,,27,31,288,31,30,26,230,39,7*76
$GAGSV,3,3,10,34,77,036,38,36,28,086,45,7*7B
$GNRMC,200023.00,A,4843.26073,N,00920.55342,E,0.011,,080225,,,A,V*1F
$GNGGA,200023.00,4843.26073,N,00920.55342,E,1,12,0.49,249.7,M,47.6,M,,*47
$GPGSV,3,1,11,01,50,284,37,02,57,294,38,03,21,226,37,08,59,182,42,1*67
$GPGSV,3,2,11,10,34,053,50,14,20,307,38,17,03,316,,22,12,326,,1*6D
$GPGSV,3,3,11,24,01,021,,27,28,154,48,32,41,096,49,1*55
$GLGSV,3,1,09,66,34,037,48,67,64,121,45,68,27,179,44,73,15,280,35,1*74
$GLGSV,3,2,09,74,17,325,31,75,00,011,,81,23,107,46,82,67,069,47,1*7A
$GLGSV,3,3,09,83,53,32,29,1*47
$GAGSV,3,1,10,03,10,166,,05,36,119,48,06,15,036,36,09,29,056,43,7*72
$GAGSV,3,2,10,15,41,283,35,21,07,335,,27,31,288,31,30,26,230,39,7*77
$GAGSV,3,3,10,34,77,036,37,36,28,086,45,7*74
$GNRMC,200024.00,A,4843.26071,N,00920.55340,E,0.026,,080225,,,A,V*1C
$GNGGA,200024.00,4843.26071,N,00920.55340,E,1,12,0.50,249.7,M,47.6,M,,*48
$GPGSV,3,1,11,01,50,284,37,02,57,294,38,03,21,226,36,08,59,182,42,1*66
$GPGSV,3,2,11,10,34,053,50,14,20,307,38,17,03,316,,22,12,326,,1*6D
$GPGSV,3,3,11,24,01,021,,27,28,154,48,32,41,096,48,1*54
$GLGSV,3,1,09,66,34,037,47,67,64,121,44,68,27,179,44,73,15,280,36,1*79
$GLGSV,3,2,09,74,17,325,30,75,00,011,,81,23,107,46,82,67,069,47,1*7B
$GLGSV,3,3,09,83,53,321,29,1*47
$GAGSV,3,1,10,03,10,166,,05,36,119,48,06,15,036,36,09,29,056,43,7*72
$GAGSV,3,2,10,15,41,283,34,21,07,335,,27,31,288,31,30,26,230,39,7*76
$GNRMC,200025.00,A,4843.26069,N,00920.55339,E,0.005,,080225,,,A,V*1B
$GNGGA,200025.00,4843.26069,N,00920.55339,E,1,12,0.49,249.8,M,47.6,M,,*49
$GPGSV,3,1,11,01,50,284,37,02,57,294,37,03,21,226,36,08,59,182,42,1*69
$GPGSV,3,2,11,10,34,053,50,14,20,307,39,17,03,316,,22,12,326,,1*6C
$GPGSV,3,3,11,24,01,021,,27,28,154,49,32,41,096,48,1*55
$GLGSV,3,1,09,66,34,037,47,67,64,121,45,68,27,179,44,73,15,280,35,1*7B
$GLGSV,3,2,09,74,17,325,30,75,00,011,,81,23,107,46,82,67,069,46,1*7A
$GLGSV,3,3,09,83,53,321,28,1*46
$GAGSV,3,1,10,03,10,166,,05,36,119,48,06,15,036,36,09,29,056,43,7*72
$GAGSV,3,2,10,15,41,283,35,21,07,335,,27,31,288,31,30,26,230,38,7*76
$GAGSV,3,3,10,34,77,036,38,36,28,086,45,7*7B
$GBGSV,4,1,13,02,04,099,36,05,19,121,43,06,03,080,,08,04,050,,1*7E
$GNRMC,200026.00,A,4843.26069,N,00920.55338,E,0.003,,080225,,,A,V*1F
$GNGGA,200026.00,4843.26069,N,00920.55338,E,1,12,0.49,249.8,M,47.6,M,,*4B
$GPGSV,3,1,11,01,50,284,37,02,57,294,37,03,21,226,36,08,59,182,42,1*69
$GPGSV,3,2,11,10,34,053,50,14,20,307,39,17,03,316,,22,12,326,,1*6C
$GPGSV,3,3,11,24,01,021,,27,28,154,48,32,41,096,48,1*54
$GLGSV,3,1,09,66,34,037,47,67,64,121,45,68,27,179,44,73,15,280,35,1*7B
$GLGSV,3,2,09,74,17,325,30,75,00,011,,81,23,107,46,82,67,069,46,1*7A
$GLGSV,3,3,09,83,53,321,27,1*49
$GAGSV,3,1,10,03,10,166,,05,36,119,48,06,15,036,35,09,29,056,43,7*71
$GAGSV,3,2,10,15,41,283,35,21,07,335,,27,31,288,31,30,26,230,38,7*76
$GNRMC,200027.00,A,4843.26071,N,00920.55339,E,0.012,,080225,,,A,V*16
$GNGGA,200027.00,4843.26071,N,00920.55339,E,1,12,0.50,249.8,M,47.6,M,,*4A
$GPGSV,3,1,11,01,50,284,37,02,57,294,37,03,21,226,36,08,59,182,41,1*6A
$GPGSV,3,2,11,10,34,053,50,14,20,307,39,17,03,316,,22,12,326,,1*6C
$GPGSV,3,3,11,24,01,021,,27,28,154,48,32,41,096,48,1*54
$GLGSV,3,1,09,66,34,037,47,67,64,121,45,68,27,179,44,73,15,280,35,1*7B
$GLGSV,3,2,09,74,17,325,30,75,00,011,,81,23,107,46,82,67,06,46,1*7A
$GLGSV,3,3,09,83,53,321,26,1*48
$GAGSV,3,1,10,03,10,166,,05,36,119,48,06,15,036,35,09,29,056,43,7*71
$GAGSV,3,2,10,15,41,283,35,21,07,335,,27,31,288,30,30,26,230,39,7*76
$GNRMC,200028.00,A,4843.26073,N,00920.55339,E,0.007,,080225,,,A,V*1F
$GNGGA,200028.00,4843.26073,N,00920.55339,E,1,12,0.50,249.9,M,47.6,M,,*46
$GPGSV,3,1,11,01,50,284,37,02,57,294,37,03,21,226,36,08,59,182,42,1*69
$GPGSV,3,2,11,10,34,053,50,14,20,307,39,17,03,316,,22,12,326,,1*6C
$GPGSV,3,3,11,24,01,021,,27,28,154,48,32,41,096,48,1*54
$GLGSV,3,1,09,66,34,037,47,67,64,121,45,68,27,179,45,73,15,280,36,1*79
$GLGSV,3,2,09,74,17,325,30,75,00,011,,81,23,107,46,82,67,069,45,1*79
$GLGSV,3,3,09,83,53,321,25,1*4B
$GAGSV,3,1,10,03,10,166,,05,36,119,48,06,15,036,35,09,29,056,43,7*71
$GAGSV,3,2,10,15,41,283,35,21,07,335,,27,31,288,30,30,26,230,39,7*76
$GAGSV,3,3,10,34,77,036,37,36,28,086,45,7*74
$GBGSV,4,1,13,02,04,099,36,05,19,121,43,06,03,080,,08,04,050,,1*7E
$GNRMC,200029.00,A,4843.26075,N,00920.55339,E,0.008,,080225,,,A,V*17
$GNGGA,200029.00,4843.26075,N,00920.55339,E,1,12,0.50,249.9,M,47.6,M,,*41
$GPGSV,3,1,11,01,50,284,37,02,57,294,37,03,21,226,36,08,59,182,42,1*69
$GPGSV,3,2,11,10,34,053,49,14,20,307,39,17,03,316,,22,12,326,,1*64
$GPGSV,3,3,11,24,01,021,,27,28,154,48,32,41,096,48,1*54
$GLGSV,3,1,09,66,34,037,47,67,64,121,46,68,27,179,45,73,15,280,36,1*7A
$GLGSV,3,2,09,74,17,325,29,75,00,011,,81,23,107,46,82,67,069,45,1*71
$GLGSV,3,3,09,83,53,321,24,1*4A
$GAGSV,3,1,10,03,10,166,,05,36,119,48,06,15,036,35,09,29,056,43,7*71
$GAGSV,3,2,10,15,41,283,35,21,07,335,,27,31,288,31,30,26,230,39,7*77
$GAGSV,3,3,10,34,77,036,37,36,28,086,45,7*74
$GNRMC,200030.00,A,4843.26076,N,00920.55338,E,0.011,,080225,,,A,V*15
$GNGGA,200030.00,4843.26076,N,00920.55338,E,1,12,0.50,250.0,M,47.6,M,,*4A
$GPGSV,3,1,11,01,50,284,38,02,57,294,37,03,21,226,35,08,59,182,42,1*65
$GPGSV,3,2,11,10,34,053,49,14,20,307,39,17,03,316,,22,12,326,,1*64
$GPGSV,3,3,11,24,01,021,,27,28,154,49,32,41,096,48,1*55
$GLGSV,3,1,09,66,34,037,47,67,64,121,46,68,27,179,45,73,15,280,36,1*7A
$GLGSV,3,2,09,74,17,325,29,75,00,011,,81,23,107,46,82,67,069,45,1*71
$GLGSV,3,3,09,83,53,321,24,1*4A
$GAGSV,3,1,10,03,10,166,,05,36,119,48,06,15,036,35,09,29,056,43,7*71
$GAGSV,3,2,10,15,41,283,35,21,07,335,,27,31,288,31,30,26,230,39,7*77
$GNRMC,200031.00,A,4843.26077,N,00920.55338,E,0.006,,080225,,,A,V*13
$GNGGA,200031.00,4843.26077,N,00920.55338,E,1,12,0.50,250.1,M,47.6,M,,*4B
$GPGSV,3,1,11,01,50,284,38,02,57,294,37,03,21,226,35,08,59,182,42,1*65
$GPGSV,3,2,11,10,34,053,49,14,20,307,39,17,03,316,,22,12,326,,1*64
$GPGSV,3,3,11,24,01,021,,27,28,154,48,32,41,096,49,1*55
$GLGSV,3,1,09,66,34,037,47,67,64,121,46,68,27,179,45,73,15,280,36,1*7A
$GLGSV,3,2,09,74,17,325,29,75,00,011,,81,23,107,47,82,67,069,45,1*70
$GLGSV,3,3,09,83,53,321,23,1*4D
$GAGSV,3,1,10,03,10,166,,05,36,119,48,06,15,036,35,09,29,056,43,7*71
$GNRMC,200032.00,A,4843.26078,N,00920.55337,E,0.010,,080225,,,A,V*17
$GNGGA,200032.00,4843.26078,N,00920.55337,E,1,12,0.50,250.2,M,47.6,M,,*4B
$GPGSV,3,1,11,01,50,284,38,02,57,294,37,03,21,226,34,08,59,182,42,1*64
$GPGSV,3,2,11,10,34,053,49,14,20,307,39,17,03,316,,22,12,326,,1*64
$GPGSV,3,3,11,24,01,021,,27,28,154,49,32,41,096,49,1*54
$GLGSV,3,1,09,66,34,037,47,67,64,121,47,68,27,179,44,73,15,280,36,1*7A
$GLGSV,3,2,09,74,17,325,28,75,00,011,,81,23,107,47,82,67,069,45,1*71
$GLGSV,3,3,09,83,53,321,21,1*4F
$GAGSV,3,1,10,03,10,166,,05,36,119,48,06,15,036,35,09,29,056,43,7*71
$GAGSV,3,2,10,15,41,283,34,21,07,335,,27,31,288,31,30,26,230,39,7*76
$GAGSV,3,3,10,34,77,036,37,36,28,086,45,7*74
$GNRMC,200033.00,A,4843.26080,N,00920.55337,E,0.006,,080225,,,A,V*16
$GNGGA,200033.00,484326080,N,00920.55337,E,1,12,0.50,250.2,M,47.6,M,,*4D
$GPGSV,3,1,11,01,50,284,38,02,57,294,37,03,21,226,34,08,59,182,42,1*64
$GPGSV,3,2,11,10,34,053,49,14,20,307,38,17,03,316,,22,12,326,,1*65
$GPGSV,3,3,11,24,01,021,,27,28,154,49,32,41,096,49,1*54
$GLGSV,3,1,09,66,34,037,48,67,64,121,47,68,27,179,45,73,15,280,36,1*74
$GLGSV,3,2,09,74,17,325,28,75,00,011,,81,23,107,47,82,67,069,45,1*71
$GLGSV,3,3,09,83,53,321,19,1*44
$GAGSV,3,1,10,03,10,166,,05,36,119,48,06,15,036,35,09,29,056,43,7*71
$GAGSV,3,2,10,15,41,283,35,21,07,335,,27,31,288,31,30,26,230,39,7*77
$GAGSV,3,3,10,34,77,036,37,36,28,086,45,7*74
$GNRMC,200034.00,A,4843.26081,N,00920.55336,E,0.010,,080225,,,A,V*16
$GNGGA,200034.00,4843.26081,N,00920.55336,E,1,12,0.50,250.3,M,47.6,M,,*4B
$GPGSV,3,1,11,01,50,284,38,02,57,294,37,03,21,226,33,08,59,182,42,1*63
$GPGSV,3,2,11,10,34,053,49,14,20,307,38,17,03,316,,22,12,326,,1*65
$GPGSV,3,3,11,24,01,021,,27,28,154,49,32,41,096,49,1*54
$GLGSV,3,1,09,66,34,037,48,67,64,121,46,68,27,179,45,73,15,280,36,1*75
$GLGSV,3,2,09,74,17,325,27,75,00,011,,81,23,107,47,82,67,069,45,1*7E
$GLGSV,3,3,09,83,53,321,17,1*4A
$GAGSV,3,1,10,03,10,166,,05,36,119,48,06,15,036,35,09,29,056,43,7*71
$GAGSV,3,2,10,15,41,283,34,21,07,335,,27,31,288,32,30,26,230,39,7*75
$GAGSV,3,3,10,34,77,036,37,36,28,086,45,7*74
$GNRMC,200035.00,A,4843.26081,N,00920.55335,E,0.013,,080225,,,A,V*17
$GNGGA,200035.00,4843.26081,N,00920.55335,E,1,12,0.50,250.3,M,47.6,M,,*49
$GPGSV,3,1,1101,50,284,39,02,57,294,37,03,21,226,32,08,59,182,42,1*63
$GPGSV,3,2,11,10,34,053,49,14,20,307,38,17,03,316,,22,12,326,,1*65
$GPGSV,3,3,11,24,01,021,,27,28,154,49,32,41,096,49,1*54
$GLGSV,3,1,09,66,34,037,48,67,64,121,46,68,27,179,45,73,15,280,36,1*75
$GLGSV,3,2,09,74,17,325,26,75,00,011,,81,23,107,47,82,67,069,45,1*7F
$GLGSV,3,3,09,83,53,321,17,*4A
$GAGSV,3,1,10,03,10,166,,05,36,119,48,06,15,036,34,09,29,056,43,7*70
$GAGSV,3,2,10,15,41,283,34,21,07,335,,27,31,288,32,30,26,230,39,7*75
$GAGSV,3,3,10,34,77,036,37,36,28,086,45,7*74
$GNRMC,200036.00,A,4843.26083,N,00920.55334,E,0.024,,080225,,,A,V*13
$GNGGA,200036.00,4843.26083,N,00920.55334,E,1,12,0.48,250.4,M,47.6,M,,*47
$GPGSV,3,1,11,01,50,284,39,02,57,294,37,03,21,226,32,08,59,182,42,1*63
$GPGSV,3,2,11,10,34,053,49,14,20,307,38,17,03,316,,22,12,326,,1*65
$GPGSV,3,3,11,24,01,021,,27,28,154,48,32,41,096,49,1*55
$GLGSV,3,1,09,66,34,037,48,67,64,121,45,68,27,179,45,73,15,280,34,1*74
$GLGSV,3,2,09,74,17,325,26,75,00,010,,81,23,107,47,82,67,069,45,1*7E
$GLGSV,3,3,09,83,53,321,21,1*4F
$GAGSV,3,2,10,15,41,283,34,21,07,335,,27,31,288,31,30,26,230,39,7*76
$GAGSV,3,3,10,34,77,036,37,36,28,086,45,7*74
$GNRMC,200037.00,A,4843.26082,N,00920.55333,E,0.008,,080225,,,A,V*1A
$GNGGA,200037.00,4843.26082,N,00920.55333,E,1,12,0.50,250.4,M,47.6,M,,*49
$GPGSV,3,1,11,01,50,284,39,02,57,294,37,03,21,226,32,08,59,182,42,1*63
$GPGSV,3,2,11,10,34,053,49,14,20,307,37,17,03,316,,22,12,326,,1*6A
$GPGSV,3,3,11,24,01,021,,27,28,154,49,32,41,096,49,1*54
$GLGSV,3,1,09,66,34,037,48,67,64,121,46,68,27,179,45,73,15,280,37,1*74
$GLGSV,3,2,09,74,17,325,26,75,00,010,,81,23,107,47,82,67,069,45,1*7E
$GLGSV,3,3,09,83,53,321,21,1*4F
$GAGSV,3,1,10,03,10,166,,05,36,119,48,06,15,036,35,09,29,056,43,7*71
$GAGSV,3,2,10,15,41,283,34,21,07,335,,27,31,288,31,30,26,230,39,7*76
$GNRMC,200038.00,A,4843.6081,N,00920.5532,E,0.008,,080225,,,A,V*17
$GNGGA,200038.00,4843.26081,N,00920.55332,E,1,12,0.50,250.5,M,47.6,M,,*45
$GPGSV,3,1,11,01,50,284,39,02,57,294,37,03,21,226,31,08,59,182,42,1*60
$GPGSV,3,2,11,10,34,053,49,14,20,307,37,17,03,316,,22,12,326,,1*6A
$GPGSV,3,3,11,24,01,021,,27,28,154,49,32,41,096,49,1*54
$GLGSV,3,1,09,66,34,037,49,67,64,121,46,68,27,179,45,73,15,280,37,1*75
$GLGSV,3,2,09,74,17,325,26,75,00,010,,81,23,107,47,82,67,069,45,1*7E
$GLGSV,3,3,09,83,53,321,24,1*4A
$GAGSV,3,1,10,03,10,166,,05,36,119,48,06,15,036,35,09,29,056,43,7*71
$GAGSV,3,2,10,15,41,283,34,21,07,335,,27,31,288,31,30,26,230,40,7*78
$GNRMC,200039.00,A,4843.26080,N,00920.55332,E,0.003,,080225,,,A,V*1C
$GNGGA,200039.00,4843.26080,N,00920.55332,E,1,12,0.48,250.6,M,47.6,M,,*4F
$GPGSV,3,1,11,01,50,284,39,02,57,294,37,03,21,226,30,08,59,182,43,1*60
$GPGSV,3,2,11,10,34,053,49,14,20,307,36,17,03,316,,22,12,326,,1*6B
$GPGSV,3,3,11,24,01,021,,27,28,154,49,32,41,096,49,1*54
$GLGSV,3,1,09,66,34,037,49,67,64,121,46,68,27,179,44,73,15,280,37,1*74
$GLGSV,3,2,09,74,17,325,26,75,00,010,,81,23,107,47,82,67,069,45,1*7E
$GLGSV,3,3,09,83,53,321,24,1*4A
$GAGSV,3,1,10,03,10,166,,05,36,119,48,06,15,036,34,09,29,056,43,7*70
$GAGSV,3,2,10,15,41,283,34,21,07,335,,27,31,288,32,30,26,230,40,7*7B
$GAGSV,3,3,10,34,77,036,37,36,28,086,45,7*74
$GBGSV,4,1,13,02,04,099,37,05,19,121,43,06,03,080,,08,04,050,,1*7F
$GNRMC,200040.00,A,4843.26079,N,00920.55331,E,0.018,,080225,,,A,V*1D
$GNGGA,200040.00,4843.26079,N,00920.55331,E,1,12,0.48,250.7,M,47.6,M,,*45
$GPGSV,3,1,11,01,50,284,39,02,57,294,36,03,21,226,29,08,59,182,43,1*69
$GPGSV,3,2,11,10,34,053,49,14,20,307,36,17,03,316,,22,12,326,,1*6B
$GPGSV,3,3,11,24,01,021,,27,28,154,49,32,41,096,49,1*54
$GLGSV,3,1,09,66,34,037,49,67,64,121,45,68,27,179,44,73,15,280,37,1*77
$GLGSV,3,2,09,74,17,325,26,75,00,010,,81,23,107,47,82,67,069,46,1*7D
$GLGSV,3,3,09,83,53,321,24,1*4A
$GAGSV,3,1,10,03,10,166,,05,36,119,48,06,15,036,34,09,29,056,43,7*70
$GAGSV,3,2,10,15,41,283,34,21,07,335,,27,31,288,32,30,26,230,40,7*7B
$GAGSV,3,3,10,34,77,036,37,36,28,086,45,7*74
$GNRMC,200041.00,A,484.26078,N,00920.55329,E,0.006,,080225,,,A,V*1B
$GNGGA,200041.00,4843.26078,N,00920.55329,E,1,12,0.51,250.7,M,47.6,M,,*44
$GPGSV,3,1,11,01,50,284,39,02,57,294,36,03,21,226,28,08,59,182,43,1*68
$GPGSV,3,2,11,10,34,053,49,14,20,307,36,17,03,316,,22,12,326,,1*6B
$GPGSV,3,3,11,24,01,021,,27,28,154,49,32,41,096,49,1*54
$GLGSV,3,1,09,66,34,037,49,67,64,121,45,68,27,179,43,73,15,280,37,1*70
$GLGSV,3,2,09,74,17,325,2,75,00,010,,81,3,107,47,82,67,069,46,1*7D
$GLGSV,3,3,09,83,53,321,24,1*4A
$GAGSV,3,1,10,03,10,166,,05,36,119,48,06,15,036,34,09,29,056,43,7*70
$GAGSV,3,2,10,15,41,283,34,21,07,335,,27,31,288,33,30,26,230,40,7*7A
$GNRMC,200042.00,A,4843.26077,N,00920.55327,E,0.005,,080225,,,A,V*1A
$GNGGA,200042.00,4843.26077,N,00920.55327,E,1,12,0.48,250.7,M,47.6,M,,*4E
$GPGSV,3,1,11,01,50,284,39,02,57,294,36,03,21,226,25,08,59,182,43,1*65
$GPGSV,3,2,11,10,34,053,49,14,20,307,36,17,03,316,,22,12,326,,1*6B
$GPGSV,3,3,11,24,01,021,,27,28,154,49,32,41,096,49,1*54
$GLGSV,3,1,09,66,34,037,49,67,64,121,45,68,27,179,43,73,15,280,37,1*70
$GLGSV,3,2,09,74,17,325,26,75,00,010,,81,23,107,47,82,67,069,46,1*7D
$GLGSV,3,3,09,83,53,321,24,1*4A
$GNRMC,200043.00,A,4843.26076,N,00920.55325,E,0.008,,080225,,,A,V*15
$GNGGA,200043.00,4843.26076,N,00920.55325,E,1,12,0.50,250.7,M,47.6,M,,*45
$GPGSV,3,1,11,01,50,284,39,02,57,294,36,03,21,226,24,08,59,182,43,1*64
$GPGSV,3,2,11,10,34,053,49,14,20,307,36,17,03,316,,22,12,326,,1*6B
$GPGSV,3,3,11,24,01,021,,27,28,154,49,32,41,096,49,1*54
$GLGSV,3,1,09,66,34,037,49,67,64,121,45,68,27,179,43,73,15,280,37,1*70
$GLGSV,3,2,09,74,17,325,26,75,00,010,,81,23,107,47,82,67,069,45,1*7E
$GLGSV,3,3,09,83,53,321,24,1*4A
$GAGSV,3,1,10,03,10,166,,05,36,119,48,06,15,036,34,09,29,056,43,7*70
$GAGSV,3,2,10,15,41,283,34,21,07,335,,27,31,288,33,30,26,230,40,7*7A
$GAGSV,3,3,10,34,77,036,37,36,28,086,45,7*74
$GNRMC,200044.00,A,4843.26076,N,00920.55323,E,0.005,,080225,,,A,V*19
$GNGGA,200044.00,4843.26076,N,00920.55323,E,1,12,0.48,250.7,M,47.6,M,,*4D
$GPGSV,3,1,11,01,50,284,39,02,57,294,36,03,21,226,23,08,59,182,43,1*63
$GPGSV,3,2,11,10,34,053,49,14,20,307,36,17,03,316,,22,12,326,,1*6B
$GPGSV,3,3,11,24,01,021,,27,28,154,49,32,41,096,49,1*54
$GLGSV,3,1,09,66,34,037,48,67,64,121,46,68,27,179,42,73,15,280,37,1*73
$GLGSV,3,2,09,74,17,325,26,75,00,010,,81,23,107,47,82,67,069,45,1*7E
$GLGSV,3,3,09,83,54,322,25,1*4F
$GAGSV,3,1,10,03,10,166,,05,36,119,48,06,15,036,34,09,29,056,43,7*70
$GAGSV,3,2,10,15,41,283,34,21,07,335,,27,31,288,33,30,26,230,40,7*7A
$GAGSV,3,3,10,34,77,036,37,36,28,06,45,7*74
$GNRMC,200045.00,A,4843.26076,N,00920.55322,E,0.004,,080225,,,A,V*18
$GNGGA,200045.00,4843.26076,N,00920.55322,E,1,12,0.50,250.6,M,47.6,M,,*45
$GPGSV,3,1,11,01,50,284,39,02,57,294,36,03,21,226,23,08,59,182,43,1*63
$GPGSV,3,2,11,10,34,053,49,14,20,307,36,17,03,316,,22,12,326,,1*6B
$GPGSV,3,3,11,24,01,021,,27,28,154,49,32,41,096,49,1*54
$GLGSV,3,1,09,66,34,037,48,67,64,121,45,68,27,179,41,73,15,280,37,1*73
$GLGSV,3,2,09,74,17,325,26,75,00,010,,81,23,107,48,82,67,069,45,1*71
$GLGSV,3,3,09,83,54,322,28,1*42
$GAGSV,3,1,10,03,10,166,,05,36,119,48,06,15,036,34,09,29,056,43,7*70
$GAGSV,3,2,10,15,41,283,34,21,07,335,,27,31,288,33,30,26,230,40,7*7A
$GAGSV,3,3,10,34,77,036,37,36,28,086,45,7*74
$GBGSV,4,1,13,02,04,099,36,05,19,121,43,06,03,080,,08,04,050,,1*7E
$GNRMC,200046.00,A,4843.26075,N,00920.55320,E,0.020,,080225,,,A,V*1C
$GNGGA,200046.00,4843.26075,N,00920.55320,E,1,12,0.49,250.6,M,47.6,M,,*4F
$GPGSV,3,1,11,01,50,284,39,02,57,294,37,03,21,226,22,08,59,182,43,1*63
$GPGSV,3,2,11,10,34,053,49,14,20,307,35,17,03,316,,22,12,326,,1*68
$GPGSV,3,3,11,24,01,021,,27,28,154,49,32,41,096,49,1*54
$GLGSV,3,1,09,66,34,037,48,67,64,121,45,68,27,179,42,73,15,280,29,1*7F
$GLGSV,3,2,09,74,17,325,26,75,00,010,,81,23,107,48,82,67,069,45,1*71
$GLGSV,3,3,09,83,54,322,29,1*43
$GAGSV,3,1,10,03,10,166,,05,36,119,48,06,15,036,35,09,29,056,43,7*71
$GAGSV,3,2,10,15,41,283,34,21,07,335,,27,31,288,34,30,26,230,40,7*7D
$GNRMC,200047.00,A,4843.26075,N,00920.55319,E,0.004,,080225,,,A,V*11
$GNGGA,200047.00,4843.26075,N,00920.55319,E,1,12,0.50,250.5,M,47.6,M,,*4F
$GPGSV,3,1,11,01,50,284,39,02,57,294,37,03,21,226,23,08,59,182,43,1*62
$GPGSV,3,2,11,10,34,053,49,14,20,307,35,17,03,316,,22,12,326,,1*68
$GPGSV,3,3,11,24,01,021,,27,28,154,49,32,41,096,49,1*54
$GLGSV,3,1,09,66,34,037,48,67,64,121,45,68,27,179,42,73,15,280,37,1*70
$GLGSV,3,2,09,74,17,325,27,75,00,010,,81,23,107,48,82,67,069,45,1*70
$GLGSV,3,3,09,83,54,322,30,1*4B
$GAGSV,3,1,10,03,10,166,,05,36,119,48,06,15,036,35,09,29,056,43,7*71
$GAGSV,3,2,10,15,41,283,34,21,07,335,,27,31,288,33,30,26,230,40,7*7A
$GAGSV,3,3,10,34,77,036,37,36,28,086,44,7*75
$GNRMC,200048.00,A,4843.26075,N,00920.55317,E,0.010,,080225,,,A,V*15
$GNGGA,200048.00,4843.26075,N,00920.55317,E,1,12,0.48,250.4,M,47.6,M,,*46
$GPGSV,3,1,11,01,50,284,39,02,57,294,37,03,21,226,22,08,59,182,43,1*63
$GPGSV,3,2,11,10,34,053,48,14,20,307,35,17,03,316,,22,12,326,,1*69
$GPGSV,3,3,11,24,01,021,,27,28,154,49,32,41,096,49,1*54
$GLGSV,3,1,09,66,34,037,48,67,64,121,45,68,27,179,41,73,15,280,38,1*7C
$GLGSV,3,2,09,74,17,325,27,75,00,010,,81,23,107,48,82,67,069,45,1*70
$GLGSV,3,3,09,83,54,322,30,1*4B
$GAGSV,3,1,10,03,10,166,,05,36,119,48,06,15,036,35,09,29,056,43,7*71
$GAGSV,3,2,10,15,41,283,34,21,07,335,,27,31,288,34,30,26,230,40,7*7D
$GAGSV,3,3,10,34,77,036,37,36,28,086,44,7*75
$GNRMC,200049.00,A,4843.26075,N,00920.55317,E,0.010,,080225,,,A,V*14
$GNGGA,200049.00,4843.26075,N,00920.55317,E,1,12,0.49,250.4,M,47.6,M,,*46
$GPGSV,3,1,11,01,50,284,39,02,57,294,37,03,21,226,21,08,59,182,43,1*60
$GPGSV,3,2,11,10,34,053,48,14,20,307,35,17,03,316,,22,12,326,,1*69
$GPGSV,3,3,11,24,01,021,,27,28,154,49,32,41,096,49,1*54
$GLGSV,3,1,09,66,34,037,48,67,64,121,45,68,27,179,41,73,15,280,38,1*7C
$GLGSV,3,2,09,74,17,325,27,75,00,010,,81,23,107,48,82,67,069,45,1*70
$GLGSV,3,3,09,83,54,322,30,1*4B
$GAGSV,3,1,10,03,10,166,,05,36,119,47,06,15,036,35,09,29,056,44,7*79
$GAGSV,3,2,10,15,41,283,34,21,07,335,,27,31,288,34,30,26,230,40,7*7D
$GNRMC,200050.00,A,4843.26076,N,00920.55316,E,0.005,,080225,,,A,V*1A
$GNGGA,200050.00,4843.26076,N,00920.55316,E,1,12,0.50,250.3,M,47.6,M,,*43
$GPGSV,3,1,11,01,50,284,39,02,57,294,37,03,21,226,18,08,59,182,44,1*6D
$GPGSV,3,2,11,10,34,053,48,14,20,307,35,17,03,316,,22,12,326,,1*69
$GPGSV,3,3,11,24,01,021,,27,28,154,49,32,41,096,49,1*54
$GLGSV,3,1,09,66,34,037,48,67,64,121,44,68,27,179,41,73,15,280,38,1*7D
$GLGSV,3,2,09,74,17,325,27,75,00,010,,81,23,107,48,82,67,069,45,1*70
$GLGSV,3,3,09,83,54,322,30,1*4B
$GAGSV,3,1,10,03,10,166,,05,36,119,47,06,15,036,35,09,29,056,44,7*79
$GAGSV,3,2,10,15,41,283,34,21,07,335,,27,31,288,34,30,26,230,40,7*7D
$GAGSV,3,3,10,34,77,036,37,36,28,086,44,7*75
$GNRMC,200051.00,A,4843.26076,N,00920.55317,E,0.010,,080225,,,A,V*1E
$GNGGA,200051.00,4843.26076,N,00920.55317,E,1,12,0.50,250.3,M,47.6,M,,*43
$GPGSV,3,1,11,01,50,284,40,02,57,294,37,03,21,226,14,08,59,182,44,1*6F
$GPGSV,3,2,11,10,34,053,48,14,20,307,35,17,03,316,,22,12,326,,1*69
$GPGSV,3,3,11,24,01,021,,27,28,154,49,32,41,096,49,1*54
$GLGSV,3,1,09,66,34,037,48,67,64,121,44,68,27,179,41,73,15,280,38,1*7D
$GLGSV,3,2,09,74,17,325,27,75,00,010,,81,23,107,48,82,67,069,45,1*70
$GLGSV,3,3,09,83,54,322,29,1*43
$GAGSV,3,1,10,03,10,166,,05,36,119,47,06,15,036,36,09,29,056,44,7*7A
$GAGSV,3,2,10,15,41,283,34,21,07,335,,27,31,288,34,30,26,230,40,7*7D
$GAGSV,3,3,10,34,77,036,38,36,28,086,44,7*7A
$GBGSV,4,1,13,02,04,099,37,05,19,121,43,06,03,080,,08,04,050,,1*7F
$GNRMC,200052.00,A,4843.26076,N,00920.55320,E,0.008,,080225,,,A,V*10
$GNGGA,200052.00,4843.26076,N,00920.55320,E,1,12,0.52,250.3,M,47.6,M,,*46
$GPGSV,3,1,11,01,50,284,40,02,57,294,38,03,21,226,13,08,59,182,44,1*67
$GPGSV,3,2,11,10,34,053,48,14,20,307,35,17,03,316,,22,12,326,,1*69
$GPGSV,3,3,11,24,01,021,,27,28,154,49,32,41,096,49,1*54
$GLGSV,3,1,09,66,34,037,48,67,64,121,44,68,27,179,41,73,15,280,38,1*7D
$GLGSV,3,2,09,74,17,325,27,75,00,010,,81,23,107,48,82,67,069,45,1*70
$GLGSV,3,3,09,83,54,322,30,1*4B
$GAGSV,3,1,10,03,10,166,,05,36,119,47,06,15,036,36,09,29,056,44,7*7A
$GAGSV,3,2,10,15,41,283,34,21,07,335,,27,31,288,34,30,26,230,40,7*7D
$GNRMC,200053.00,A,4843.26077,N,00920.55320,E,0.009,,080225,,,A,V*11
$GNGGA,200053.00,4843.26077,N,00920.55320,E,1,12,0.51,250.2,M,47.6,M,,*44
$GPGSV,3,1,11,01,50,284,40,02,57,294,38,03,21,227,14,08,59,182,44,1*61
$GPGSV,3,2,11,10,34,053,48,14,20,307,35,17,03,316,,22,12,326,,1*69
$GPGSV,3,3,11,24,01,021,,27,28,154,49,32,41,096,48,1*55
$GLGSV,3,1,09,66,34,037,48,67,64,121,45,68,27,179,41,73,15,280,38,1*7C
$GLGSV,3,2,09,74,17,325,27,75,00,010,,81,23,107,48,82,67,069,45,1*70
$GLGSV,3,3,09,83,54,322,31,1*4A
$GAGSV,3,1,10,03,10,166,,05,36,119,47,06,15,036,36,09,29,056,44,7*7A
$GAGSV,3,2,0,15,41,283,34,21,07,335,,27,31,288,34,30,26,230,40,7*7D
$GAGSV,3,3,10,34,77,036,37,36,28,086,44,7*75
$GNRMC,200054.00,A,4843.26078,N,00920.55321,E,0.012,,080225,,,A,V*12
$GNGGA,200054.00,4843.26078,N,00920.55321,E,1,12,0.52,250.1,M,47.6,M,,*4D
$GPGSV,3,1,11,01,50,284,40,02,57,294,38,03,21,227,12,08,59,182,44,1*67
$GPGSV,3,2,11,10,34,053,48,14,20,307,36,17,03,316,,22,12,326,,1*6A
$GPGSV,3,3,11,24,01,021,,27,28,154,48,32,41,096,48,1*54
$GLGSV,3,1,09,66,34,037,48,67,64,121,45,68,27,179,41,73,15,280,37,1*73
$GLGSV,3,2,09,74,17,325,27,75,00,010,,81,23,107,49,82,67,069,45,1*71
$GLGSV,3,3,09,83,54,322,32,1*49
$GAGSV,3,1,10,03,10,166,,05,36,119,47,06,15,036,36,09,29,056,44,7*7A
$GAGSV,3,2,10,15,41,283,34,21,07,335,,27,31,288,34,30,26,230,40,7*7D
$GAGSV,3,3,10,34,77,036,37,36,28,086,43,7*72
$GNRMC,200055.00,A,4843.26078,N,00920.55321,E,0.005,,080225,,,A,V*15
$GNGGA,200055.00,4843.26078,N,00920.55321,E,1,12,0.48,250.1,M,47.6,M,,*47
$GPGSV,3,1,11,01,50,284,40,02,57,294,38,03,21,227,18,08,59,182,43,1*6A
$GPGSV,3,2,11,10,34,053,48,14,20,307,36,17,03,316,,22,12,326,,1*6A
$GPGSV,3,3,11,24,01,021,,27,28,154,49,32,41,096,48,1*55
$GLGSV,3,1,09,66,34,037,48,67,64,121,45,68,27,179,43,73,15,280,37,1*71
$GLGSV,3,2,09,74,17,325,27,75,00,010,,81,23,107,49,82,67,069,45,1*71
$GLGSV,3,3,09,83,54,322,33,1*48
$GAGSV,3,1,10,03,10,166,,05,36,119,47,06,15,036,36,09,29,056,44,7*7A
$GAGSV,3,2,10,15,41,283,34,21,07,335,,27,31,288,34,30,26,230,40,7*7D
$GAGSV,3,3,10,34,77,036,37,36,28,086,43,7*72
$GBGSV,4,1,13,02,04,099,37,05,19,121,43,06,03,080,,08,04,050,,1*7F
$GNRMC,200056.00,A,4843.26078,N,00920.55323,E,0.006,,080225,,,A,V*17
$GNGGA,200056.00,4843.26078,N,00920.55323,E,1,12,0.48,250.0,M,47.6,M,,*47
$GPGSV,3,1,11,01,50,284,40,02,57,294,38,03,21,227,20,08,59,182,43,1*61
$GPGSV,3,2,11,10,34,053,48,14,20,307,36,17,03,316,,22,12,326,,1*6A
$GPGSV,3,3,11,24,01,021,,27,28,154,48,32,41,096,48,1*54
$GLGSV,3,1,09,66,34,037,48,67,64,121,45,68,27,179,43,73,15,280,36,1*70
$GLGSV,3,2,09,74,17,325,28,75,00,010,,81,23,107,49,82,67,069,45,1*7E
$GLGSV,3,3,09,83,54,322,34,1*4F
$GAGSV,3,1,10,03,10,166,,05,36,119,47,06,15,036,36,09,29,056,44,7*7A
$GAGSV,3,2,10,15,41,283,34,21,07,335,,27,31,288,34,30,26,230,40,7*7D
$GAGSV,3,3,10,34,77,036,37,36,28,086,43,7*72
$GNRMC,200057.00,A,4843.26079,N,00920.55325,E,0.004,,080225,,,A,V*13
$GNGGA,200057.00,4843.26079,N,00920.55325,E,1,12,0.49,250.0,M,47.6,M,,*40
$GPGSV,3,1,11,01,50,284,40,02,57,294,39,03,21,227,14,08,59,182,43,1*67
$GPGSV,3,2,11,10,34,053,48,14,20,307,36,17,03,316,,22,12,326,,1*6A
$GPGSV,3,3,11,24,01,021,,27,28,154,48,32,41,096,48,1*54
$GLGSV,3,1,09,66,34,037,48,67,64,121,45,68,27,179,44,73,15,280,36,1*77
$GLGSV,3,2,09,74,17,325,28,75,00,010,,81,23,107,50,82,67,069,45,1*76
$GLGSV,3,3,09,83,54,322,34,1*4F
$GAGSV,3,1,10,03,10,166,,05,36,119,47,06,15,036,35,09,29,056,44,7*79
$GAGSV,3,2,10,15,41,283,34,21,07,335,,27,31,288,34,30,26,230,40,7*7D
$GNRMC,200058.00,A,4843.26079,N,00920.55328,E,0.016,,080225,,,A,V*12
$GNGGA,200058.00,4843.26079,N,00920.55328,E,1,12,0.48,250.0,M,47.6,M,,*43
$GPGSV,3,1,11,01,50,284,40,02,57,294,38,03,21,227,17,08,59,182,43,1*65
$GPGSV,3,2,11,10,34,053,48,14,20,307,36,17,03,316,,22,12,326,,1*6A
$GPGSV,3,3,11,24,01,021,,27,28,154,48,32,41,096,48,1*54
$GLGSV,3,1,09,66,34,037,48,67,64,121,45,68,27,179,44,73,15,280,35,1*74
$GLGSV,3,2,09,74,17,325,28,75,00,010,,81,23,107,50,82,67,069,45,1*76
$GLGSV,3,3,09,83,54,322,35,1*4E
$GAGSV,3,1,10,03,10,166,,05,36,119,47,06,15,036,35,09,29,056,44,7*79
$GAGSV,3,2,10,15,41,283,34,21,07,335,,27,31,288,33,30,26,230,40,7*7A
$GAGSV,3,3,10,4,77,036,38,36,28,086,43,7*7D
$GBGSV,4,1,13,02,04,099,36,05,19,121,43,06,03,080,,08,04,050,,1*7E
$GNRMC,200059.00,A,4843.26079,N,00920.55330,E,0.004,,080225,,,A,V*19
$GNGGA,200059.00,4843.26079,N,00920.55330,E,1,12,0.50,250.0,M,47.6,M,,*42
$GPGSV,3,1,11,01,50,284,40,02,57,294,38,03,21,227,19,08,59,182,43,1*6B
$GPGSV,3,2,11,10,34,053,48,14,20,307,36,17,03,316,,22,12,326,,1*6A
$GPGSV,3,3,11,24,01,021,,27,28,154,48,32,41,096,48,1*54
$GLGSV,3,1,09,66,34,037,48,67,64,121,45,68,27,179,44,73,15,280,34,1*75
$GLGSV,3,2,09,74,17,325,27,75,00,010,,81,23,107,50,82,67,069,45,1*79
$GLGSV,3,3,09,83,54,322,35,1*4E
$GAGSV,3,1,10,03,10,166,,05,36,119,47,06,15,036,35,09,29,056,44,7*79
$GAGSV,3,2,10,15,41,283,35,21,07,335,,27,31,288,33,30,26,230,40,7*7B
$GNRMC,200100.00,A,4843.26080,N,00920.55332,,0.008,,080225,,,A,V*1C
$GNGGA,200100.00,4843.26080,N,00920.55332,E,1,12,0.52,250.0,M,47.6,M,,*49
$GPGSV,3,1,11,01,50,284,40,02,57,294,39,03,21,227,20,08,59,182,43,1*60
$GPGSV,3,2,11,10,34,053,48,14,20,307,36,17,03,316,,22,12,326,,1*6A
$GPGSV,3,3,11,24,01,021,,27,28,154,48,32,41,096,48,1*54
$GLGSV,3,1,09,66,34,037,48,67,64,121,45,68,27,179,45,73,15,280,33,1*73
$GLGSV,3,2,09,74,17,325,26,75,00,010,,81,23,107,50,82,67,069,45,1*78
$GLGSV,3,3,09,83,54,322,35,1*4E
$GAGSV,3,1,10,03,10,166,,05,36,119,47,06,15,036,34,09,29,056,44,7*78
$GAGSV,3,2,10,15,41,283,35,21,07,335,,27,31,288,33,30,26,230,40,7*7B
$GAGSV,3,3,10,34,77,036,38,3,28,086,43,7*7D
$GNRMC,200101.0,A,4843.26080,N,00920.55333,E,0.022,,080225,,,A,V*14
$GNGGA,200101.00,4843.26080,N,00920.55333,E,1,12,0.50,250.0,M,47.6,M,,*4B
$GPGSV,3,1,11,01,50,284,39,02,57,294,38,03,21,227,21,08,59,182,43,1*6E
$GPGSV,3,2,11,10,34,053,48,14,20,307,36,17,03,316,,22,12,326,,1*6A
$GPGSV,3,3,11,24,01,021,,27,28,154,47,32,41,096,48,1*5B
$GLGSV,3,1,09,66,34,037,48,67,64,121,45,68,27,179,45,73,15,280,33,1*73
$GLGSV,3,2,09,74,17,325,25,75,00,010,,81,23,107,51,82,67,069,45,1*7A
$GLGSV,3,3,09,83,54,322,34,1*4F
$GAGSV,3,1,10,03,10,166,,05,36,119,47,06,15,036,34,09,29,056,44,7*78
$GAGSV,3,2,10,15,41,283,34,21,07,335,,27,31,288,33,30,26,230,41,7*7B
$GAGSV,3,3,10,34,77,036,37,36,28,086,43,7*72
$GNRMC,200102.00,A,4843.26080,N,00920.55334,E,0.010,,080225,,,A,V*11
$GNGGA,200102.00,4843.26080,N,00920.55334,E,1,12,0.50,250.0,M,47.6,M,,*4F
$GPGSV,3,1,11,01,50,284,39,02,57,294,38,03,21,227,23,08,59,182,43,1*6C
$GPGSV,3,2,11,10,34,053,48,14,20,307,37,17,03,316,,22,12,326,,1*6B
$GPGSV,3,3,11,24,01,021,,27,28,154,47,32,41,096,48,1*5B
$GLGSV,3,1,09,66,34,037,48,67,64,121,45,68,27,179,45,73,15,280,33,1*73
$GLGSV,3,2,09,74,17,325,24,75,00,010,,81,23,107,51,82,67,069,45,1*7B
$GLGSV,3,3,09,83,54,322,35,1*4E
$GAGSV,3,1,10,03,10,166,,05,36,119,47,06,15,036,34,09,29,056,44,7*78
$GAGSV,3,2,10,15,41,283,35,21,07,335,,27,31,288,34,30,26,230,41,7*7D
$GAGSV,3,3,10,34,77,036,37,36,28,086,43,7*72
$GNRMC,200103.00,A,4843.26080,N,00920.55334,E,0.013,,080225,,,A,V*13
$GNGGA,200103.00,4843.26080,N,00920.55334,E,1,12,0.52,250.0,M,47.6,M,,*4C
$GPGSV,3,1,11,01,50,284,39,02,57,294,39,03,21,227,24,08,59,182,43,1*6A
$GPGSV,3,2,11,10,34,053,48,14,20,307,37,17,03,316,,22,12,326,,1*6B
$GPGSV,3,3,11,24,01,021,,27,28,154,47,32,41,096,48,1*5B
$GLGSV,3,1,09,66,34,037,47,67,64,121,45,68,27,179,46,73,15,280,32,1*7E
$GLGSV,3,2,09,74,17,325,23,75,00,010,,81,23,107,51,82,67,069,46,1*7F
$GLGSV,3,3,09,83,54,322,35,1*4E
$GAGSV,3,1,10,03,10,166,,05,36,119,47,06,15,036,34,09,29,056,44,7*78
$GAGSV,3,2,10,15,41,283,35,21,07,335,,27,31,288,3430,26,230,41,7*7D
$GAGSV,3,3,10,34,77,036,37,36,28,086,43,7*72
$GNRMC,200104.00,A,4843.26081,N,00920.55333,E,0.002,,080225,,,A,V*12
$GNGGA,200104.00,4843.26081,N,00920.55333,E,1,12,0.50,250.1,M,47.6,M,,*4E
$GPGSV,3,1,11,01,50,284,38,02,57,294,39,03,21,227,25,08,59,182,43,1*6A
$GPGSV,3,3,11,24,01,021,,27,28,154,47,32,41,096,48,1*5B
$GLGSV,3,1,09,66,34,037,47,67,64,121,45,68,27,179,46,73,15,280,33,1*7F
$GLGSV,3,2,09,74,17,325,21,75,00,010,,81,23,107,51,82,67,069,46,1*7D
$GLGSV,3,3,09,83,54,322,35,1*4E
$GAGSV,3,1,10,03,10,166,,05,36,119,47,06,15,036,33,09,29,056,44,7*7F
$GAGSV,3,2,10,15,41,283,35,21,07,335,,27,31,288,34,30,26,230,40,7*7C
$GAGSV,3,3,10,34,77,036,37,36,28,086,43,7*72
$GNRMC,200105.00,A,4843.26081,N,00920.55333,E,0.006,,080225,,,A,V*17
$GNGGA,200105.00,4843.26081,N,00920.55333,E,1,12,0.50,250.1,M,47.6,M,,*4F
$GPGSV,3,1,11,01,50,284,38,02,57,294,39,03,21,227,25,08,59,182,43,1*6A
$GPGSV,3,2,11,10,34,053,48,14,20,307,37,17,03,316,,22,12,326,,1*6B
$GPGSV,3,3,11,24,01,021,,27,28,154,46,32,41,096,48,1*5A
$GLGSV,3,1,09,66,34,037,47,67,64,121,45,68,27,179,46,73,15,280,33,1*7F
$GLGSV,3,2,09,74,17,325,21,75,00,010,,81,23,107,51,82,67,069,46,1*7D
$GLGSV,3,3,09,83,54,322,35,1*4E
$GAGSV,3,1,10,03,10,166,,05,36,119,47,06,15,036,33,09,29,056,44,7*7F
$GAGSV,3,2,10,15,41,283,35,21,07,335,,27,31,288,33,30,26,230,40,7*7B
$GAGSV,3,3,10,34,77,036,37,36,28,086,43,7*72
$GBGSV,4,1,13,02,04,099,36,05,19,121,43,06,03,080,,08,04,050,,1*7E
$GNRMC,200106.00,A,4843.26082,N,00920.55332,E,0.010,,080225,,,A,V*11
$GNGGA,200106.00,4843.26082,N,00920.55332,E,1,12,0.52,250.1,M,47.6,M,,*4C
$GPGSV,3,1,11,01,50,284,38,02,57,294,39,03,21,227,25,08,59,182,43,1*6A
$GPGSV,3,2,11,10,34,053,48,14,20,307,37,17,03,316,,22,12,326,,1*6B
$GPGSV,3,3,11,24,01,021,,27,28,154,46,32,41,096,48,1*5A
$GLGSV,3,1,09,66,34,037,47,67,64,121,46,68,27,179,47,73,15,280,32,1*7C
$GLGSV,3,2,09,74,17,325,22,75,00,010,,81,23,107,51,82,67,069,46,1*7E
$GLGSV,3,3,09,83,54,322,34,1*4F
$GAGSV,3,1,10,03,10,166,,05,36,119,47,06,15,036,33,09,29,056,44,7*7F
$GAGSV,3,2,10,15,41,283,35,21,07,335,,27,31,288,33,30,26,230,40,7*7B
$GAGSV,3,3,10,34,77,036,37,36,28,086,43,7*72
$GNRMC,200107.00,A,4843.26082,N,00920.55330,E,0.006,,080225,,,A,V*15
$GNGGA,200107.00,4843.26082,N,00920.55330,E,1,12,0.50,250.1,M,47.6,M,,*4D
$GPGSV,3,1,11,01,50,284,38,02,57,294,39,03,21,227,25,08,59,182,43,1*6A
$GPGSV,3,2,11,10,34,053,49,14,20,307,37,17,03,316,,22,12,326,,1*6A
$GPGSV,3,3,11,24,01,021,,27,28,154,46,32,41,096,48,1*5A
$GLGSV,3,1,09,66,34,037,47,67,64,121,46,68,27,179,47,73,15,280,32,1*7C
$GLGSV,3,2,09,74,17,325,23,75,00,010,,81,23,107,52,82,67,069,46,1*7C
$GLGSV,3,3,09,83,54,322,34,1*4F
$GAGSV,3,1,10,03,10,166,,05,36,119,47,06,15,036,33,09,29,056,44,7*7F
$GAGSV,3,2,10,15,41,283,35,21,07,335,,27,31,288,33,30,26,230,40,7*7B
$GAGSV,3,3,10,34,77,036,36,36,28,086,43,7*73
$GNRMC,200108.00,A,4843.26083,N,00920.55329,E,0.007,,080225,,,A,V*12
$GNGGA,200108.00,4843.26083,N,00920.55329,E,1,12,0.50,250.0,M,47.6,M,,*4A
$GPGSV,3,1,11,01,50,284,38,02,57,294,39,03,21,227,25,08,59,182,43,1*6A
$GPGSV,3,2,11,10,34,053,49,14,20,307,37,17,03,316,,22,12,326,,1*6A
$GPGSV,3,3,11,24,01,021,,27,28,154,46,32,41,096,48,1*5A
$GLGSV,3,1,09,66,34,037,47,67,64,121,46,68,27,179,47,73,15,280,33,1*7D
$GLGSV,3,2,09,74,17,325,23,75,00,010,,81,23,107,51,82,67,069,46,1*7F
$GLGSV,3,3,09,83,54,322,34,1*4F
$GAGSV,3,1,10,03,10,166,,05,36,119,47,06,15,036,33,09,29,056,44,7*7F
$GAGSV,3,2,10,15,41,283,35,21,07,335,,27,31,288,33,30,26,230,40,7*7B
$GAGSV,3,3,10,34,77,036,36,36,28,086,43,7*73
$GNRMC,200109.00,A,4843.26084,N,00920.55327,E,0.010,,080225,,,A,V*1C
$GNGGA,200109.00,4843.26084,N,00920.55327,E,1,12,0.52,250.0,M,47.6,M,,*40
$GPGSV,3,1,11,01,50,284,38,02,57,294,39,03,21,227,26,08,59,182,43,1*69
$GPGSV,3,2,11,10,34,053,49,14,20,307,37,17,03,316,,22,12,326,,1*6A
$GPGSV,3,3,11,24,01,021,,27,28,154,46,32,41,096,48,1*5A
$GLGSV,3,1,09,66,34,037,47,67,64,121,46,68,27,179,48,73,15,280,34,1*75
$GLGSV,3,2,09,74,17,325,24,75,00,010,,81,23,107,51,82,67,069,46,1*78
$GLGSV,3,3,09,83,54,322,35,1*4E
$GAGSV,3,1,10,03,10,166,,05,36,119,47,06,15,036,33,09,29,056,44,7*7F
$GAGSV,3,2,10,15,41,283,35,21,07,335,,27,31,288,33,30,26,230,40,7*7B
$GAGSV,3,3,10,34,77,036,36,36,28,086,43,7*73
$GNRMC,200110.00,A,4843.26085,N,00920.55325,E,0.022,,080225,,,A,V*16
$GNGGA,200110.00,4843.26085,N,00920.55325,E,1,12,0.50,249.9,M,47.6,M,,*48
$GPGSV,3,1,11,01,50,284,38,02,57,294,39,03,21,227,27,08,59,182,43,1*68
$GPGSV,3,2,11,10,34,053,49,14,20,307,37,17,03,316,,22,12,326,,1*6A
$GPGSV,3,3,11,24,01,021,,27,28,154,45,32,41,096,48,1*59
$GLGSV,3,1,09,66,34,037,47,67,64,121,45,68,27,179,47,73,15,280,34,1*79
$GLGSV,3,2,09,74,17,325,25,75,00,010,,81,23,107,51,82,67,069,46,1*79
$GLGSV,3,3,09,83,54,322,35,1*4E
$GAGSV,3,1,10,03,10,166,,05,36,119,47,06,15,036,33,09,29,056,44,7*7F
$GAGSV,3,2,10,15,41,283,35,21,07,335,,27,31,288,33,30,26,23,40,7*7B
$GAGSV,3,3,10,34,77,036,36,36,28,086,43,7*73
$GNRMC,200111.00,A,4843.26086,N,00920.55324,E,0.019,,080225,,,A,V*1D
$GNGGA,200111.00,4843.26086,N,00920.55324,E,1,12,0.50,249.8,M,47.6,M,,*4A
$GPGSV,3,1,11,01,50,284,38,02,57,294,39,03,21,227,27,08,59,182,44,1*6F
$GPGSV,3,2,11,10,34,053,49,14,20,307,37,17,03,316,,22,12,326,,1*6A
$GPGSV,3,3,11,24,01,021,,27,28,154,45,32,41,096,48,1*59
$GLGSV,3,1,09,66,34,037,47,67,64,121,45,68,27,179,47,73,15,280,34,1*79
$GLGSV,3,2,09,74,17,325,25,75,00,010,,81,23,107,51,82,67,069,46,1*79
$GLGSV,3,3,09,83,54,322,35,1*4E
$GAGSV,3,1,10,03,10,166,,05,36,119,46,06,15,036,33,09,29,056,44,7*7E
$GAGSV,3,2,10,15,41,283,35,21,07,335,,27,31,288,33,30,26,230,40,7*7B
$GNRMC,200112.00,A,4843.26087,N,00920.55323,E,0.006,,080225,,,A,V*16
$GNGGA,200112.00,4843.26087,N,00920.55323,E,1,12,0.50,249.8,M,47.6,M,,*4F
$GPGSV,3,1,11,01,50,284,38,02,57,294,38,03,21,227,25,08,59,182,44,1*6C
$GPGSV,3,2,11,10,34,053,49,14,20,307,37,17,03,316,,22,12,326,,1*6A
$GPGSV,3,3,11,24,01,021,,27,28,154,45,32,41,096,47,1*56
$GLGSV,3,1,09,66,34,037,47,67,64,121,45,68,27,179,48,73,15,280,34,1*76
$GLGSV,3,2,09,74,17,325,24,75,00,010,,81,23,107,51,82,67,069,46,1*78
$GLGSV,3,3,09,83,54,322,35,1*4E
$GAGSV,3,1,10,03,10,166,,05,36,119,46,06,15,036,33,09,29,055,44,7*7D
$GAGSV,3,2,10,15,41,283,35,21,07,335,,27,31,288,33,30,26,230,40,7*7B
$GAGSV,3,3,10,34,77,038,36,36,28,086,43,7*7D
$GNRMC,200113.00,A,4843.26089,N,00920.55324,E,0.019,,080225,,,A,V*10
$GNGGA,200113.00,4843.26089,N,00920.55324,E,1,12,0.52,249.7,M,47.6,M,,*4A
$GPGSV,3,1,11,01,50,284,38,02,57,294,38,03,21,227,25,08,59,182,44,1*6C
$GPGSV,3,2,11,10,34,053,49,14,20,307,37,17,03,316,,22,12,326,,1*6A
$GPGSV,3,3,11,24,01,020,,27,28,154,45,32,41,096,47,1*57
$GLGSV,3,1,09,66,34,037,47,67,64,121,45,68,27,179,48,73,15,280,34,1*76
$GLGSV,3,2,09,74,17,325,23,75,00,010,,81,23,107,51,82,67,069,45,1*7C
$GLGSV,3,3,09,83,54,322,35,1*4E
$GAGSV,3,1,10,03,10,166,,05,36,119,46,06,15,036,33,09,29,055,44,7*7D
$GAGSV,3,2,10,15,41,283,35,21,07,335,,27,31,288,33,30,26,230,40,7*7B
$GAGSV,3,3,10,34,77,038,36,36,28,086,43,7*7D
$GNRMC,200114.00,A,4843.26090,N,00920.55325,E,0.016,,080225,,,A,V*11
$GNGGA,200114.00,4843.26090,N,00920.55325,E,1,12,0.50,249.7,M,47.6,M,,*46
$GPGSV,3,1,11,01,50,284,38,02,57,294,37,03,21,227,26,08,59,181,44,1*63
$GPGSV,3,2,11,10,34,053,49,14,20,307,37,17,03,316,,22,12,326,,1*6A
$GPGSV,3,3,11,24,01,020,,27,28,154,44,32,41,096,47,1*56
$GLGSV,3,1,09,66,34,037,47,67,64,121,45,68,27,179,48,73,15,280,35,1*77
$GLGSV,3,2,09,74,17,325,21,75,00,010,,81,23,107,51,82,67,069,45,1*7E
$GLGSV,3,3,09,83,54,322,34,1*4F
$GAGSV,3,1,10,03,10,166,,05,36,119,46,06,15,036,33,09,29,055,44,7*7D
$GAGSV,3,2,10,15,41,283,35,21,07,335,,27,31,288,33,30,26,230,40,7*7B
$GAGSV,3,3,10,34,77,038,36,36,28,086,43,7*7D
$GNRMC,200115.00,A,4843.26091,N,00920.55325,E,0.007,,080225,,,A,V*11
$GNGGA,200115.00,4843.26091,N,00920.55325,E,1,12,0.50,249.6,M,47.6,M,,*47
$GPGSV,3,1,11,01,50,284,38,02,57,294,37,03,21,227,26,08,59,181,44,1*63
$GPGSV,3,2,11,10,34,053,49,14,20,307,37,17,03,316,,22,12,326,,1*6A
$GPGSV,3,3,11,24,01,020,,27,28,154,44,32,41,096,48,1*59
$GLGSV,3,1,09,66,34,037,46,67,64,121,44,68,27,179,48,73,15,280,35,1*77
$GLGSV,3,2,09,74,17,325,21,75,00,010,,81,23,107,51,82,67,069,45,1*7E
$GLGSV,3,3,09,83,54,322,33,1*48
$GNRMC,200116.00,A,4843.26093,N,00920.55325,E,0.018,,080225,,,A,V*1E
$GNGGA,200116.00,4843.26093,N,00920.55325,E,1,12,0.50,249.6,M,47.6,M,,*46
$GPGSV,3,1,11,01,50,284,38,02,57,294,36,03,21,227,26,08,59,181,45,1*63
$GPGSV,3,2,11,10,34,053,49,14,20,307,37,17,03,316,,22,12,326,,1*6A
$GPGSV,3,3,11,24,01,020,,27,28,155,44,32,41,096,48,1*58
$GLGSV,3,1,09,66,34,037,46,67,64,121,44,68,27,179,49,73,15,280,35,1*76
$GLGSV,3,2,09,74,17,325,20,75,00,010,,81,23,107,51,82,67,069,44,1*7E
$GLGSV,3,3,09,83,54,322,32,1*49
$GAGSV,3,1,10,03,10,166,,05,36,119,46,06,15,036,32,09,29,055,45,7*7D
$GAGSV,3,2,10,15,41,283,35,21,07,335,,27,31,288,33,30,26,230,40,7*7B
$GAGSV,3,3,10,34,77,038,36,36,28,086,44,7*7A
$GNRMC,200117.00,A,4843.26095,N,00920.55325,E,0.021,,080225,,,A,V*13
$GNGGA,200117.00,4843.26095,N,00920.55325,E,1,12,0.52,249.6,M,47.6,M,,*43
$GPGSV,3,1,11,01,50,284,38,02,57,294,36,03,21,227,27,08,59,181,45,1*62
$GPGSV,3,2,11,10,34,053,49,14,20,307,37,17,03,316,,22,12,326,,1*6A
$GPGSV,3,3,11,24,01,020,,27,28,155,44,32,41,096,48,1*58
$GLGSV,3,1,09,66,34,037,46,67,64,121,44,68,27,179,48,73,15,280,35,1*77
$GLGSV,3,2,09,74,17,325,21,75,00,010,,81,23,107,51,82,67,069,43,1*78
$GLGSV,3,3,09,83,54,322,32,1*49
$GAGSV,3,1,10,03,10,166,,05,36,119,46,06,15,036,32,09,29,055,45,7*7D
$GAGSV,3,2,10,15,41,283,35,21,07,335,,27,31,288,34,30,26,230,40,7*7C
$GAGSV,3,3,10,34,77,038,36,36,28,086,44,7*7A
$GBGSV,4,1,13,02,04,099,36,05,19,121,43,06,03,080,,08,04,050,,1*7E
$GNRMC,200118.00,A,4843.26097,N,00920.55325,E,0.026,,080225,,,A,V*19
$GNGGA,200118.00,443.26097,N,00920.55325,E,1,12,0.50,249.6,M,47.6,M,,*4C
$GPGSV,3,1,11,01,50,284,38,02,57,294,35,03,21,227,28,08,59,181,45,1*6E
$GPGSV,3,2,11,10,34,053,49,14,20,307,37,17,04,316,,22,12,326,,1*6D
$GPGSV,3,3,11,24,01,020,,27,28,155,44,32,41,096,47,1*57
$GLGSV,3,1,09,66,34,037,46,67,64,121,44,68,27,179,48,73,15,280,35,1*77
$GLGSV,3,2,09,74,17,325,21,75,00,010,,81,23,107,51,82,67,069,44,1*7F
$GLGSV,3,3,09,83,54,32,31,1*4A
$GAGSV,3,1,10,03,10,166,,05,36,119,46,06,15,036,31,09,29,055,45,7*7E
$GAGSV,3,2,10,15,41,283,35,21,07,335,,27,31,288,34,30,26,230,40,7*7C
$GAGSV,3,,10,34,77,038,36,36,28,086,44,7*7A
$GNRMC,200119.00,A,4843.26098,N,00920.55325,E,0.023,,080225,,,A,V*12
$GNGGA,200119.00,4843.26098,N,00920.55325,E,1,12,0.48,249.6,M,47.6,M,,*4B
$GPGSV,3,1,11,01,50,284,38,02,57,294,35,03,21,227,28,08,59,181,45,1*6E
$GPGSV,3,2,11,10,34,053,49,14,20,307,37,17,04,316,,22,12,326,,1*6D
$GPGSV,3,3,11,24,01,020,,27,28,155,44,32,41,096,47,1*57
$GLGSV,3,1,09,66,34,037,46,67,64,121,44,68,27,179,48,73,15,280,35,1*77
$GLGSV,3,2,09,74,17,325,22,75,00,010,,81,23,107,50,82,67,069,44,1*7D
$GLGSV,3,3,09,83,54,322,31,1*4A
$GAGSV,3,1,10,03,10,166,,05,36,119,46,06,15,036,30,09,29,055,45,7*7F
$GAGSV,3,2,10,15,41,283,35,21,07,335,,27,31,288,34,30,26,230,40,7*7C
$GAGSV,3,3,10,34,77,038,37,36,28,086,44,7*7B
$GNRMC,200120.00,A,4843.26099N,00920.55324,E,0.002,,080225,,,A,V*1B
$GNGGA,200120.00,4843.26099,N,00920.55324,E,1,12,0.49,249.5,M,47.6,M,,*43
$GPGSV,3,1,11,01,50,284,39,02,57,294,35,03,21,227,28,08,59,181,45,1*6F
$GPGSV,3,2,11,10,34,053,49,14,20,307,37,17,04,316,,22,12,326,,1*6D
$GPGSV,3,3,11,24,01,020,,27,28,155,44,32,41,096,47,1*57
$GLGSV,3,1,09,66,34,037,46,67,64,121,44,68,27,179,48,73,15,280,35,1*77
$GLGSV,3,2,09,74,17,325,21,75,00,010,,81,23,107,50,82,67,069,44,1*7E
$GLGSV,3,3,09,83,54,322,31,1*4A
$GAGSV,3,1,10,03,10,166,,05,36,119,46,06,15,036,,09,29,055,45,7*7C
$GAGSV,3,2,10,15,41,283,35,21,07,335,,27,31,288,34,30,26,230,40,7*7C
$GAGSV,3,3,10,34,77,038,37,36,28,086,44,7*7B
$GNRMC,200121.00,A,4843.26101,N,00920.55324,E,0.021,,080225,,,A,V*1B
$GNGGA,200121.00,4843.26101,N,00920.55324,E,1,12,0.49,249.5,M,47.6,M,,*42
$GPGSV,3,1,11,01,50,284,39,02,57,294,35,03,21,227,29,08,59,181,44,1*6F
$GPGSV,3,2,11,10,34,053,49,14,20,307,37,17,04,316,,22,12,326,,1*6D
$GPGSV,3,3,11,24,01,020,,27,28,155,44,32,42,095,47,1*57
$GLGSV,3,1,09,66,34,037,47,67,64,121,44,68,27,179,48,73,15,280,34,1*77
$GLGSV,3,2,09,74,17,325,22,75,00,010,,81,23,107,51,82,67,069,45,1*7D
$GLGSV,3,3,09,83,54,322,31,1*4A
$GAGSV,3,1,10,03,10,166,,05,36,119,46,06,15,036,30,09,29,055,45,7*7F
$GAGSV,3,2,10,15,41,283,35,21,07,335,,27,31,288,34,30,26,230,40,7*7C
$GNRMC,200122.00,A,4843.26101,N,00920.55324,E,0.015,,080225,,,A,V*1F
$GNGGA,200122.00,4843.26101,N,00920.55324,E,1,12,0.49,249.5,M,47.6,M,,*41
$GPGSV,3,1,11,01,50,284,38,02,57,294,35,03,21,227,29,08,59,181,44,1*6E
$GPGSV,3,2,11,10,34,053,50,14,20,307,37,17,04,316,,22,12,326,,1*65
$GPGSV,3,3,11,24,01,020,,27,28,155,44,32,42,095,47,1*57
$GLGSV,3,1,09,66,34,037,47,67,64,121,44,68,27,179,48,73,15,280,34,1*77
$GLGSV,3,2,09,74,17,325,22,75,00,010,,81,23,107,50,82,67,069,45,1*7C
$GLGSV,3,3,09,83,54,322,32,1*49
$GAGSV,3,1,10,03,10,166,41,05,36,119,46,06,15,036,,09,29,055,45,7*79
$GAGSV,3,2,10,15,41,283,35,21,07,335,,27,31,288,35,30,26,230,40,7*7D
$GAGSV,3,3,10,34,77,038,37,36,28,086,44,7*7B
$GNRMC,200123.00,A,4843.26100,N,00920.55324,E,0.006,,080225,,,A,V*1D
$GNGGA,200123.00,4843.26100,N,00920.55324,E,1,12,0.47,249.6,M,47.6,M,,*4C
$GPGSV,3,1,11,01,50,284,38,02,57,294,35,03,21,227,30,08,59,181,44,1*66
$GPGSV,3,2,11,10,34,053,50,14,20,307,37,17,04,316,,22,12,326,,1*65
$GPGSV,3,3,11,24,01,020,,27,28,155,44,32,42,095,47,1*57
$GLGSV,3,1,0,66,34,037,47,67,64,121,44,68,27,179,48,73,15,280,35,1*76
$GLGSV,3,2,09,74,17,325,22,75,00,010,,81,23,107,50,82,67,069,45,1*7C
$GLGSV,3,3,09,83,54,322,33,1*48
$GAGSV,3,1,10,03,10,166,41,05,36,119,46,06,15,036,,09,29,055,45,7*79
$GAGSV,3,2,10,15,41,283,35,21,07,335,,27,31,288,34,30,26,230,40,7*7C
$GAGSV,3,3,10,34,77,038,37,36,28,086,44,7*7B
$GNRMC,200124.00,A,4843.26098,N,00920.55324,E,0.003,,080225,,,A,V*1F
$GNGGA,200124.00,4843.26098,N,00920.55324,E,1,12,0.47,249.6,M,47.6,M,,*4B
$GPGSV,3,1,11,01,50,284,38,02,57,294,35,03,21,227,29,08,59,181,43,1*69
$GPGSV,3,2,11,10,34,053,50,14,20,307,37,17,04,316,,22,12,326,,1*65
$GPGSV,3,3,11,24,01,020,,27,28,155,44,32,42,095,47,1*57
$GLGSV,3,1,09,66,34,037,47,67,64,121,43,68,27,179,47,73,15,280,35,1*7E
$GLGSV,3,2,09,74,17,325,23,75,00,010,,81,23,107,50,82,67,069,45,1*7D
$GLGSV,3,3,09,83,54,322,33,1*48
$GAGSV,3,1,10,03,10,166,41,05,36,119,46,06,15,036,,09,29,055,45,7*79
$GAGSV,3,2,10,15,41,283,35,21,07,335,,27,31,288,35,30,26,230,40,7*7D
$GAGSV,3,3,10,34,77,038,37,36,28,086,44,7*7B
$GNRMC,200125.00,A,4843.26095,N,00920.55325,E,0.004,,080225,,,A,V*15
$GNGGA,200125.00,4843.26095,N,00920.55325,E,1,12,0.50,249.7,M,47.6,M,,*41
$GPGSV,3,1,11,01,50,284,38,02,57,294,36,03,21,227,28,08,59,181,43,1*6B
$GPGSV,3,2,11,10,34,053,50,14,20,307,37,17,04,316,,22,12,326,,1*65
$GPGSV,3,3,11,24,01,020,,27,28,155,45,32,42,095,47,1*56
$GLGSV,3,1,09,66,34,037,47,67,64,121,43,68,27,179,47,73,15,280,36,1*7D
$GLGSV,3,2,09,74,17,325,23,75,00,010,,81,23,107,50,82,67,069,45,1*7D
$GLGSV,3,3,09,83,54,322,33,1*48
$GAGSV,3,1,10,03,10,166,41,05,36,119,46,06,15,036,,09,29,055,45,7*79
$GAGSV,3,2,10,15,41,283,35,21,07,335,,27,31,288,35,30,26,230,40,7*7D
$GAGSV,3,3,10,34,77,038,37,36,28,086,44,7*7B
$GNRMC,200126.00,A,4843.26093,N,00920.55325,E,0.005,,080225,,,A,V*11
$GNGGA,200126.00,4843.26093,N,00920.55325,E,1,12,0.47,249.7,M,47.6,M,,*42
$GPGSV,3,1,11,01,50,284,39,02,57,294,36,03,21,227,27,08,59,181,43,1*65
$GPGSV,3,2,11,10,34,053,50,14,20,307,37,17,04,316,,22,12,326,,1*65
$GPGSV,3,3,11,24,01,020,,27,28,155,45,32,42,095,47,1*56
$GLGSV,3,1,09,66,34,037,48,67,64,121,42,68,27179,47,73,15,280,35,1*70
$GLGSV,3,2,09,74,17,325,23,75,00,010,,81,23,107,50,82,67,069,45,1*7D
$GNRMC,200127.00,A,4843.26090,N,00920.55326,E,0.010,,080225,,,A,V*14
$GNGGA,200127.00,4843.26090,N,00920.55326,E,1,12,0.50,249.8,M,47.6,M,,*4A
$GPGSV,3,1,11,01,50,284,39,02,57,294,37,03,21,227,26,08,59,181,43,1*65
$GPGSV,3,2,11,10,34,053,50,14,20,307,37,17,04,316,,22,12,326,,1*65
$GPGSV,3,3,11,24,01,020,,27,28,155,45,32,42,095,46,1*57
$GLGSV,3,109,66,34,037,48,67,64,121,43,68,27,179,47,73,15,280,35,1*71
$GLGSV,3,2,09,74,17,325,24,75,00,010,,81,23,107,50,82,67,069,45,1*7A
$GLGSV,3,3,09,83,54,322,33,1*48
$GAGSV,3,1,10,03,10,166,41,05,36,119,46,06,15,036,,09,29,055,45,7*79
$GAGSV,3,2,10,15,41,283,35,21,07,335,,27,31,288,35,30,26,230,40,7*7D
$GAGSV,3,3,10,34,77,038,37,36,28,086,44,7*7B
$GNRMC,200128.00,A,4843.26087,N,00920.55327,E,0.007,,080225,,,A,V*1A
$GNGGA,200128.00,4843.26087,N,00920.55327,E,1,12,0.50,249.8,M,47.6,M,,*42
$GPGSV,3,1,11,01,50,284,39,02,57,294,37,03,21,227,27,08,59,181,43,1*64
$GPGSV,3,2,11,10,34,053,50,14,20,307,37,1,04,316,,22,12,326,,1*65
$GPGSV,3,3,11,24,01,020,,27,28,155,45,32,42,095,46,1*57
$GLGSV,3,1,09,66,34,037,48,67,64,121,42,68,27,179,47,73,15,280,35,1*70
$GLGSV,3,2,09,74,17,325,25,75,00,010,,81,23,107,49,82,67,069,45,1*73
$GLGSV,3,3,09,83,54,322,34,1*4F
