$GNRMC,220000.00,A,4843.26166,N,00920.55543,E,0.002,,070225,,,A,V*13
$GNGGA,220000.00,4843.26166,N,00920.55543,E,1,12,0.47,248.8,M,47.6,M,,*46
$GPGSV,4,1,13,01,78,109,43,02,73,131,44,03,70,272,,04,24,190,38,1*65
$GPGSV,4,2,13,08,07,175,43,09,00,205,,14,03,261,,17,42,295,35,1*6E
$GPGSV,4,3,13,19,19,318,33,22,10,281,,28,19,083,46,31,13,107,,1*6C
$GPGSV,4,4,13,32,21,045,45,1*54
$GLGSV,2,1,08,66,29,038,41,67,85,076,41,68,39,213,42,74,05,321,19,1*72
$GLGSV,2,2,08,75,09,009,38,81,23,140,49,82,73,135,44,83,59,324,38,1*79
$GAGSV,3,1,10,07,60,113,49,08,28,047,40,13,25,114,46,16,01,352,,7*7B
$GAGSV,3,2,10,23,01,235,,24,08,329,28,26,79,094,41,29,29,184,39,7*7E
$GAGSV,3,3,10,31,12,281,39,33,46,302,35,7*77
$GBGSV,3,1,09,02,04,100,34,05,19,121,42,06,23,069,39,09,22,084,38,1*78
$GBGSV,3,2,09,13,00,075,,16,24,064,42,21,13,051,31,27,12,315,35,1*7B
$GBGSV,3,3,09,28,53,295,34,1*4A
$GNRMC,220001.00,A,4843.26167,N,00920.55543,E,0.012,,070225,,,A,V*12
$GNGGA,220001.00,4843.26167,N,00920.55543,E,1,12,0.47,248.7,M,47.6,M,,*49
$GPGSV,4,1,13,01,78,109,43,02,73,131,44,03,70,272,,04,24,190,38,1*65
$GPGSV,4,2,13,08,07,175,43,09,00,205,,14,03,261,,17,42,295,35,1*6E
$GPGSV,4,3,13,19,19,318,33,22,10,281,,28,19,083,46,31,13,107,,1*6C
$GPGSV,4,4,13,32,21,045,45,1*54
$GLGSV,2,1,08,66,29,038,41,67,85,076,41,68,39,213,42,74,05,321,19,1*72
$GLGSV,2,2,08,75,09,009,38,81,23,140,48,82,73,135,44,83,59,324,38,1*78
$GAGSV,3,1,10,07,60,113,49,08,28,047,40,13,25,114,46,16,01,352,,7*7B
$GAGSV,3,2,10,23,01,235,,24,08,329,29,26,79,094,41,29,29,184,39,7*7F
$GAGSV,3,3,10,31,12,281,38,33,46,302,35,7*76
$GBGSV,3,1,09,02,04,100,35,05,19,121,42,06,23,069,39,09,22,084,38,1*79
$GBGSV,3,2,09,13,00,075,,16,24,064,42,21,13,051,30,27,12,315,36,1*79
$GBGSV,3,3,09,28,53,295,33,1*4D
$GNRMC,220002.00,A,4843.26168,N,00920.55543,E,0.009,,070225,,,A,V*14
$GNGGA,220002.00,4843.26168,N,00920.55543,E,1,12,0.47,248.6,M,47.6,M,,*44
$GPGSV,4,1,13,01,78,109,43,02,72,131,44,03,70,272,,04,25,190,38,1*65
$GPGSV,4,2,13,08,07,175,42,09,00,205,,14,03,261,,17,42,295,35,1*6F
$GPGSV,4,4,13,32,21,044,45,1*55
$GLGSV,2,1,08,66,29,038,41,67,85,076,42,68,39,213,42,74,05,321,20,1*7B
$GLGSV,2,2,08,75,09,009,37,81,23,140,48,82,73,135,44,83,59,324,38,1*77
$GAGSV,3,1,10,07,60,113,48,08,28,047,40,13,25,114,46,16,01,352,,7*7A
$GAGSV,3,2,10,23,01,235,,24,08,329,29,26,79,094,41,29,29,184,39,7*7F
$GAGSV,3,3,10,31,12,281,38,33,46,302,35,7*76
$GBGSV,3,1,09,02,04,100,34,05,19,121,42,06,23,069,39,09,22,084,38,1*78
$GBGSV,3,2,09,13,00,075,,16,24,064,42,21,13,051,30,27,12,315,35,1*7A
$GBGSV,3,3,09,28,53,295,33,1*4D
$GNRMC,220003.00,A,4843.26170,N,00920.55544,E,0.013,,070225,,,A,V*10
$GNGGA,220003.00,4843.26170,N,00920.55544,E,1,12,0.47,248.6,M,47.6,M,,*4B
$GPGSV,4,1,13,01,78,109,43,02,72,131,44,03,70,272,,04,25,190,38,1*65
$GPGSV,4,2,13,08,07,175,43,09,00,205,,14,03,261,,17,42,295,35,1*6E
$GPGSV,4,3,13,19,19,318,33,22,10,281,,28,19,083,46,31,13,107,,1*6C
$GPGSV,4,4,13,32,21,044,45,1*55
$GLGSV,2,1,08,66,29,038,41,67,85,076,42,68,39,213,42,74,05,321,21,1*7A
$GLGSV,2,2,08,75,09,009,36,81,23,140,48,82,73,135,44,83,59,324,37,1*79
$GAGSV,3,1,10,07,60,113,48,08,28,047,40,13,25,114,46,16,01,352,,7*7A
$GAGSV,3,2,10,23,01,235,,24,08,329,29,26,79,094,41,29,29,184,40,7*71
$GAGSV,3,3,10,31,12,281,39,33,46,302,35,7*77
$GBGSV,3,1,09,02,04,100,35,05,19,121,42,06,23,069,39,09,22,084,38,1*79
$GBGSV,3,2,09,13,00,075,,16,24,064,42,21,13,051,29,27,12,315,35,1*72
$GBGSV,3,3,09,28,53,295,33,1*4D
$GNRMC,220004.00,A,4843.26171,N,00920.55544,E,0.030,,070225,,,A,V*17
$GNGGA,220004.00,4843.26171,N,00920.55544,E,1,12,0.47,248.5,M,47.6,M,,*4E
$GPGSV,4,1,13,01,78,109,43,02,72,131,44,03,70,272,,04,25,190,38,1*65
$GPGSV,4,2,13,08,07,175,43,09,00,205,,14,03,261,,17,42,295,35,1*6E
$GPGSV,4,3,13,19,19,318,33,22,10,281,,28,19,083,46,31,13,107,,1*6C
$GPGSV,4,4,13,32,21,044,45,1*55
$GLGSV,2,1,08,66,29,038,41,67,85,076,42,68,39,213,42,74,05,321,20,1*7B
$GLGSV,2,2,08,75,09,009,36,81,23,140,48,82,73,135,44,83,59,324,37,1*79
$GAGSV,3,1,10,07,60,113,48,08,28,047,40,13,25,114,46,16,01,352,,7*7A
$GAGSV,3,2,10,23,01,235,,24,08,329,29,26,79,094,41,29,29,184,40,7*71
$GAGSV,3,3,10,31,12,281,39,33,46,302,35,7*77
$GBGSV,3,1,09,02,04,100,34,05,19,121,42,06,23,069,39,09,22,084,38,1*78
$GBGSV,3,2,09,13,00,075,,16,24,064,42,21,13,051,29,27,12,315,35,1*72
$GBGSV,3,3,09,28,53,295,33,1*4D
$GNRMC,220005.00,A,4843.26172,N,00920.55544,E,0.009,,070225,,,A,V*1F
$GNGGA,220005.00,4843.26172,N,00920.55544,E,1,12,0.47,248.5,M,47.6,M,,*4C
$GPGSV,4,1,13,01,78,109,43,02,72,131,44,03,70,272,,04,25,190,37,1*6A
$GPGSV,4,2,13,08,07,175,43,09,00,205,,14,03,261,,17,42,295,35,1*6E
$GPGSV,4,3,13,19,19,318,34,22,10,281,,28,19,083,46,31,13,107,,1*6B
$GPGSV,4,4,13,32,21,044,45,1*55
$GLGSV,2,1,08,66,29,038,41,67,85,076,42,68,39,213,41,74,05,321,21,1*79
$GLGSV,2,2,08,75,09,009,35,81,23,140,48,82,73,135,44,83,59,324,37,1*7A
$GAGSV,3,1,10,07,60,113,48,08,28,047,40,13,25,114,46,16,01,352,,7*7A
$GAGSV,3,2,10,23,01,235,,24,08,329,29,26,79,094,41,29,29,184,40,7*71
$GAGSV,3,3,10,31,12,281,39,33,46,302,35,7*77
$GBGSV,3,1,09,02,04,100,34,05,19,121,42,06,23,069,39,09,22,084,38,1*78
$GBGSV,3,2,09,13,00,075,,16,24,064,42,21,13,051,29,27,12,315,35,1*72
$GBGSV,3,3,09,28,53,295,33,1*4D
$GNRMC,220006.00,A,4843.26174,N,00920.55544,E,0.036,,070225,,,A,V*16
$GNGGA,220006.00,4843.26174,N,00920.55544,E,1,12,0.47,248.5,M,47.6,M,,*49
$GPGSV,4,1,13,01,78,109,43,02,72,131,44,03,70,272,,04,25,190,37,1*6A
$GPGSV,4,2,13,08,07,175,43,09,00,205,,14,03,261,,17,42,295,35,1*6E
$GPGSV,4,3,13,19,19,318,33,22,10,281,,28,19,083,46,31,13,107,,1*6C
$GPGSV,4,4,13,32,21,044,45,1*55
$GLGSV,2,1,08,66,29,038,41,67,85,076,42,68,39,213,41,74,05,321,22,1*7A
$GLGSV,2,2,08,75,09,009,33,81,23,140,48,82,73,135,44,83,59,324,36,1*7D
$GAGSV,3,1,10,07,60,112,48,08,28,047,40,13,25,114,46,16,01,352,,7*7B
$GAGSV,3,2,10,23,01,235,,24,08,329,29,26,79,094,41,29,29,184,40,7*71
$GAGSV,3,3,10,31,12,281,39,33,46,302,34,7*76
$GBGSV,3,1,09,02,04,10,35,05,19,121,42,06,23,069,39,09,22,084,38,1*79
$GBGSV,3,2,09,13,00,075,,16,24,064,42,21,13,051,29,27,12,315,36,1*71
$GBGSV,3,3,09,28,53,295,33,1*4D
$GNRMC,220007.00,A,4843.26175,N,00920.55544,E,0.034,,070225,,,A,V*14
$GNGGA,220007.00,4843.26175,N,00920.55544,E,1,12,0.47,248.5,M,47.6,M,,*49
$GPGSV,4,1,13,01,78,110,43,02,72,131,45,03,70,272,,04,25,190,36,1*62
$GPGSV,4,2,13,08,07,175,42,09,00,205,,14,03,261,,17,42,295,35,1*6F
$GPGSV,4,3,13,19,19,318,33,22,10,281,,28,19,083,46,31,13,107,,1*6C
$GLGSV,2,1,08,66,29,038,41,67,85,076,42,68,39,213,42,74,05,321,23,1*78
$GLGSV,2,2,08,75,09,009,34,81,23,140,49,82,73,135,44,83,59,324,36,1*7B
$GAGSV,3,1,10,07,60,112,48,08,28,047,40,13,25,114,46,16,01,352,,7*7B
$GAGSV,3,2,10,23,01,235,,24,08,329,29,26,79,094,40,29,29,184,41,7*71
$GAGSV,3,3,10,31,12,281,39,33,46,302,34,7*76
$GBGSV,3,1,09,02,04,100,34,05,19,121,42,06,23,069,39,09,2,084,38,1*78
$GBGSV,3,2,09,13,00,075,,16,24,064,42,21,13,051,29,27,12,315,36,1*71
$GBGSV,3,3,09,28,53,295,33,1*4D
$GNRMC,220008.00,A,4843.26177,N,00920.55545,E,0.005,,070225,,,A,V*1A
$GNGGA,220008.00,4843.26177,N,00920.55545,E,1,12,0.47,248.5,M,47.6,M,,*45
$GPGSV,4,1,13,01,78,110,44,02,72,131,45,03,70,272,,04,25,190,36,1*65
$GPGSV,4,2,13,08,07,175,42,09,00,205,,14,03,261,,17,42,295,35,1*6F
$GPGSV,4,3,13,19,19,318,34,22,10,281,,28,19,083,46,31,13,107,,1*6B
$GPGSV,4,4,13,32,21,044,45,1*55
$GLGSV,2,1,08,66,29,038,41,67,85,076,42,68,39,213,42,74,05,321,24,1*7F
$GLGSV,2,2,08,75,09,009,34,81,23,140,49,82,73,135,44,83,59,324,35,1*78
$GAGSV,3,1,10,07,60,112,48,08,28,047,40,13,25,114,46,16,01,352,,7*7B
$GAGSV,3,2,10,23,01,235,,24,08,329,29,26,79,094,40,29,29,184,41,7*71
$GAGSV,3,3,10,31,12,281,38,33,46,302,34,7*77
$GBGSV,3,1,09,02,04,100,34,05,19,121,42,06,23,069,39,09,22,084,38,1*78
$GBGSV,3,2,09,13,00,075,,16,24,064,42,21,13,051,29,27,12,315,36,1*71
$GBGSV,3,3,09,28,53,295,33,1*4D
$GNRMC,220009.00,A,4843.26177,N,00920.55545,E,0.066,,070225,,,A,V*1E
$GNGGA,220009.00,4843.26177,N,00920.55545,E,1,12,0.47,248.5,M,47.6,M,,*44
$GPGSV,4,1,13,01,78,110,44,02,72,131,45,03,70,272,,04,25,190,36,1*65
$GPGSV,4,2,13,08,07,175,42,09,00,205,,14,03,261,,17,42,295,34,1*6E
$GPGSV,4,3,13,19,19,318,34,22,10,281,,28,19,083,45,31,13,107,,1*68
$GPGSV,4,4,13,32,21,044,45,1*55
$GLGSV,2,1,08,66,29,038,41,67,85,076,42,68,39,213,42,74,05,321,24,1*7F
$GLGSV,2,2,08,75,09,009,35,81,23,140,49,82,73,135,44,83,59,324,35,1*79
$GAGSV,3,1,10,0760,112,48,08,28,047,40,13,25,114,46,16,01,352,,7*7B
$GAGSV,3,2,10,23,01,235,,24,08,329,30,26,79,094,40,29,29,184,41,7*79
$GAGSV,3,3,10,31,12,281,38,33,46,302,34,7*77
$GBGSV,3,1,09,02,04,100,35,05,19,121,42,06,23,069,39,09,22,084,38,1*79
$GBGSV,3,2,09,13,00,075,,16,24,064,41,21,13,051,29,27,12,315,36,1*72
$GBGSV,3,3,09,28,53,295,33,1*4D
$GNRMC,220010.00,A,4843.26178,N,00920.55545,E,0.005,,070225,,,A,V*1C
$GNGGA,220010.00,4843.26178,N,00920.55545,E,1,12,0.47,248.5,M,47.6,M,,*43
$GPGSV,4,1,13,01,78,110,44,02,72,131,45,03,70,22,,04,25,190,35,1*66
$GPGSV,4,2,13,08,07,175,42,09,00,205,,14,03,261,,17,42,295,34,1*6E
$GPGSV,4,3,13,19,19,318,34,22,10,281,,28,19,083,46,31,13,107,,1*6B
$GPGSV,4,4,13,32,21,044,45,1*55
$GLGSV,2,1,08,66,29,038,41,67,85,070,41,68,40,214,42,74,05,321,25,1*72
$GLGSV,2,2,08,75,09,009,36,81,23,140,49,82,73,136,44,83,60,324,35,1*73
$GAGSV,3,1,10,07,60,112,48,08,28,047,40,13,25,114,46,16,01,352,,7*7B
$GAGSV,3,2,10,23,01,235,,24,08,329,29,26,79,094,40,29,29,184,41,7*71
$GAGSV,3,3,10,31,12,281,38,33,46,302,34,7*77
$GBGSV,3,1,09,02,04,100,35,05,19,121,42,06,23,069,39,09,22,084,39,1*78
$GBGSV,3,2,09,13,00,075,,16,24,064,41,21,13,051,28,27,12,315,36,1*73
$GBGSV,3,3,09,28,53,295,33,1*4D
$GNRMC,220011.00,A,4843.26180,N,00920.55546,E,0.034,,070225,,,A,V*1B
$GNGGA,220011.00,4843.26180,N,00920.55546,E,1,12,0.47,248.5,M,47.6,M,,*46
$GPGSV,4,1,13,01,78,110,45,02,72,131,45,03,70,272,,04,25,190,35,1*67
$GPGSV,4,2,13,08,07,175,42,09,00,205,,14,03,261,,17,42,295,34,1*6E
$GPGSV,4,3,13,19,19,318,34,22,10,281,,28,19,083,45,31,13,107,,1*68
$GPGSV,4,4,13,32,21,044,45,1*55
$GLGSV,2,1,08,66,29,038,41,67,85,070,41,68,40,214,42,74,05,321,25,1*72
$GLGSV,2,2,08,75,09,009,36,81,23,140,49,82,73,136,44,83,60,324,35,1*73
$GAGSV,3,1,10,07,60,112,49,08,28,047,40,13,25,114,46,16,01,352,,7*7A
$GAGSV,3,2,10,23,01,235,,24,08,329,30,26,79,094,40,29,29,184,42,7*7A
$GAGSV,3,3,10,31,12,281,38,33,46,302,34,7*77
$GBGSV,3,1,09,02,04,100,35,05,19,121,42,06,23,069,39,09,22,084,39,1*78
$GBGSV,3,2,09,13,00,075,,16,24,064,41,21,13,051,28,27,12,315,35,1*70
$GBGSV,3,3,09,28,53,295,33,1*4D
$GNRMC,220012.00,A,4843.26182,N,00920.55547,E,0.009,,070225,,,A,V*15
$GNGGA,220012.00,4843.26182,N,00920.55547,E,1,12,0.47,248.5,M,47.6,M,,*46
$GPGSV,4,1,13,01,78,110,45,02,72,131,45,03,70,272,,04,25,190,34,1*66
$GPGSV,4,2,13,08,07,175,42,09,00,205,,14,03,261,,17,42,295,34,1*6E
$GPGSV,4,3,13,19,19,318,34,22,10,281,,28,19,083,45,31,13,107,,1*68
$GPGSV,4,4,13,32,21,044,45,1*55
$GLGSV,2,1,08,66,29,038,41,67,85,070,41,68,40,214,42,74,05,321,25,1*72
$GLGSV,2,2,08,75,09,009,37,81,23,140,49,82,73,136,44,83,60,324,35,1*72
$GAGSV,3,1,10,07,60,112,48,08,28,047,40,13,25,114,45,16,01,352,,7*78
$GAGSV,3,2,10,23,01,235,,24,08,329,29,26,79,094,40,29,29,184,42,7*72
$GAGSV,3,3,10,31,12,281,38,33,46,302,34,7*77
$GBGSV,3,1,09,02,04,100,34,05,19,121,42,06,23,069,39,09,22,084,39,1*79
$GBGSV,3,2,09,13,00,075,,16,24,064,41,21,13,051,27,27,12,315,35,1*7F
$GBGSV,3,3,09,28,53,295,34,1*4A
$GNRMC,220013.00,A,4843.26185,N,00920.55549,E,0.033,,070225,,,A,V*14
$GNGGA,220013.00,4843.26185,N,00920.55549,E,1,12,0.47,248.4,M,47.6,M,,*4F
$GPGSV,4,1,13,01,78,110,45,02,72,131,45,03,70,272,,04,25,190,34,1*66
$GPGSV,4,2,13,08,07,175,42,09,00,205,,14,03,261,,17,42,295,34,1*6E
$GPGSV,4,3,13,19,19,318,34,22,10,281,,28,19,083,45,31,13,107,,1*68
$GPGSV,4,4,13,32,21,044,45,1*55
$GLGSV,2,1,08,66,29,038,41,67,85,070,41,68,40,214,43,74,05,321,26,1*70
$GLGSV,2,2,08,75,09,009,37,81,23,140,49,82,73,136,44,83,60,324,36,1*71
$GAGSV,3,1,10,07,60,112,48,08,28,047,40,13,25,114,45,16,01,352,,7*78
$GAGSV,3,2,10,23,01,235,,24,08,329,30,26,79,094,40,29,29,184,42,7*7A
$GAGSV,3,3,10,31,12,281,38,33,46,302,35,7*76
$GBGSV,3,1,09,02,04,100,35,05,19,121,42,06,23,069,39,09,22,084,39,1*78
$GBGSV,3,2,09,13,00,075,,16,24,064,41,21,13,051,28,27,12,315,35,1*70
$GBGSV,3,3,09,28,53,295,34,1*4A
$GNRMC,220014.00,A,4843.26188,N,00920.55550,E,0.024,,070225,,,A,V*10
$GNGGA,220014.00,4843.26188,N,00920.55550,E,1,12,0.48,248.3,M,47.6,M,,*45
$GPGSV,4,1,13,01,78,110,46,02,72,131,45,03,70,272,,04,25,190,34,1*65
$GPGSV,4,2,13,08,07,175,42,09,00,205,,14,03,261,,17,42,295,34,1*6E
$GPGSV,4,3,13,19,19,318,34,22,10,281,,28,19,083,45,31,13,107,,1*68
$GPGSV,4,4,13,32,21,044,45,1*55
$GLGSV,2,1,08,66,29,038,41,67,85,070,41,68,40,214,43,74,05,321,25,1*73
$GLGSV,2,2,08,75,09,009,36,81,23,140,49,82,73,136,44,83,60,324,36,1*70
$GAGSV,3,1,10,07,60,112,48,08,28,047,40,13,25,114,45,16,01,352,,7*78
$GAGSV,3,2,10,23,01,235,,24,08,329,30,26,79,094,40,29,29,184,42,7*7A
$GAGSV,3,3,10,31,12,281,38,33,46,302,35,7*76
$GBGSV,3,1,09,02,04,100,34,05,19,121,42,06,23,069,39,09,22,084,39,1*79
$GBGSV,3,2,09,13,00,075,,16,24,064,41,21,13,051,29,27,12,315,36,1*72
$GBGSV,3,3,09,28,53,295,34,1*4A
$GNRMC,220015.00,A,4843.26191,N,00920.55551,E,0.027,,070225,,,A,V*1B
$GNGGA,220015.00,4843.26191,N,00920.55551,E,1,12,0.48,248.2,M,47.6,M,,*4C
$GPGSV,4,1,13,01,78,110,46,02,72,131,45,03,70,272,,04,25,190,34,1*65
$GPGSV,4,2,13,08,07,175,42,09,00,205,,14,03,261,,17,42,295,34,1*6E
$GPGSV,4,3,13,19,19,318,34,22,10,281,,28,19,083,45,31,13,107,,1*68
$GPGSV,4,4,13,32,21,044,45,1*55
$GLGSV,2,1,08,66,29,038,41,67,85,070,41,68,40,214,42,74,05,321,25,1*72
$GLGSV,2,2,08,75,09,009,37,81,23,140,49,82,73,136,43,83,60,324,36,1*76
$GAGSV,3,1,10,07,60,112,48,08,28,047,40,13,25,114,45,16,01,352,,7*78
$GAGSV,3,2,10,23,01,235,,24,08,329,30,26,79,094,40,29,29,184,43,7*7B
$GAGSV,3,3,10,31,12,281,38,33,46,302,34,7*77
$GBGSV,3,1,09,02,04,100,34,05,19,121,42,06,23,069,39,09,22,084,39,1*79
$GBGSV,3,2,09,13,00,075,,16,24,064,41,21,13,051,29,27,12,315,35,1*71
$GBGSV,3,3,09,28,53,295,34,1*4A
$GNRMC,220016.00,A,4843.26195,N,00920.55552,E,0.008,,070225,,,A,V*12
$GNGGA,220016.00,4843.26195,N,00920.55552,E,1,12,0.48,248.0,M,47.6,M,,*4A
$GPGSV,4,1,13,01,78,110,46,02,72,131,45,03,70,272,,04,25,190,33,1*62
$GPGSV,4,2,13,08,07,175,42,09,00,205,,14,03,261,,17,42,295,35,1*6F
$GPGSV,4,3,13,19,19,318,34,22,10,281,,28,19,083,45,31,13,107,,1*68
$GPGSV,4,4,13,32,21,044,45,1*55
$GLGSV,2,1,08,66,29,038,41,67,85,070,41,68,40,214,42,74,05,321,25,1*72
$GLGSV,2,2,08,75,09,009,38,81,23,140,49,82,73,136,43,83,60,324,36,1*79
$GAGSV,3,1,10,07,60,112,48,08,28,047,40,13,25,114,45,16,01,352,,7*78
$GAGSV,3,2,10,23,01,235,,24,08,329,30,26,79,094,40,29,29,184,43,7*7B
$GAGSV,3,3,10,31,12,281,38,33,46,302,35,7*76
$GBGSV,3,1,09,02,04,100,35,05,19,121,42,06,23,068,39,09,22,083,39,1*7E
$GBGSV,3,2,09,13,00,075,,16,24,064,41,21,13,051,29,27,13,315,36,1*73
$GBGSV,3,3,09,28,54,295,34,1*4D
$GNRMC,220017.00,A,4843.26198,N,00920.55553,E,0.005,,070225,,,A,V*12
$GNGGA,220017.00,4843.26198,N,00920.55553,E,1,12,0.48,247.9,M,47.6,M,,*41
$GPGSV,4,1,13,01,78,110,46,02,72,131,44,03,70,272,,04,25,190,33,1*63
$GPGSV,4,2,13,08,07,175,42,09,00,205,,14,03,261,,17,42,295,35,1*6F
$GPGSV,4,3,13,19,19,318,34,22,10,281,,28,19,083,45,31,13,107,,1*68
$GPGSV,4,4,13,32,21,044,45,1*55
$GLGSV,2,1,08,66,29,038,41,67,85,070,40,68,40,214,41,74,05,321,25,1*70
$GLGSV,2,2,08,75,09,009,38,81,23,140,49,82,73,136,43,83,60,324,36,1*79
$GAGSV,3,1,10,07,60,112,48,08,28,047,40,13,25,114,45,16,01,352,,7*78
$GAGSV,3,2,10,23,00,234,,24,08,329,30,26,79,094,41,29,29,184,43,7*7A
$GAGSV,3,3,10,31,12,281,38,33,46,302,35,7*76
$GBGSV,3,1,09,02,04,100,34,05,19,121,42,06,23,068,39,09,22,083,39,1*7F
$GBGSV,3,2,09,13,00,075,,16,24,064,41,21,13,051,29,27,13,315,36,1*73
$GBGSV,3,3,09,28,54,295,35,1*4C
$GNRMC,220018.00,A,4843.26201,N,00920.55554,E,0.025,,070225,,,A,V*1B
$GNGGA,220018.00,4843.26201,N,00920.55554,E,1,12,0.47,247.8,M,47.6,M,,*44
$GPGSV,4,1,13,01,78,110,45,02,72,131,45,03,70,272,,04,25,190,34,1*66
$GPGSV,4,2,13,08,07,175,42,09,00,205,,14,03,261,,17,42,295,35,1*6F
$GPGSV,4,3,13,19,19,318,35,22,10,281,,28,19,083,45,31,13,107,,1*69
$GPGSV,4,4,13,32,21,044,45,1*55
$GLGSV,2,1,08,66,29,038,41,67,85,070,40,68,40,214,41,74,05,321,26,1*73
$GLGSV,2,2,08,75,09,009,39,81,23,140,49,82,73,136,43,83,60,324,36,1*78
$GAGSV,3,1,10,07,60,112,48,08,28,047,40,13,25,114,45,16,01,352,,7*78
$GAGSV,3,210,23,00,234,,24,08,329,30,26,79,094,41,29,29,184,43,7*7A
$GAGSV,3,3,10,31,12,281,38,33,46,302,35,7*76
$GBGSV,3,1,09,02,04,100,34,05,19,121,42,06,23,068,39,09,22,083,39,1*7F
$GBGSV,3,2,09,13,00,075,,16,24,064,41,21,13,051,29,27,13,315,36,1*73
$GBGSV,3,3,09,28,54,295,35,1*4C
$GNRMC,220019.00,A,4843.26204,N,00920.55555,E,0.024,,070225,,,A,V*1F
$GNGGA,220019.00,4843.2204,N,00920.55555,E,1,12,0.47,247.7,M,47.6,M,,*4E
$GPGSV,4,1,13,01,78,110,45,02,72,131,45,03,70,272,,04,25,190,35,1*67
$GPGSV,4,2,13,08,07,175,42,09,00,205,,14,03,261,,17,42,295,35,1*6F
$GPGSV,4,3,13,19,19,318,34,22,10,281,,28,19,083,45,31,13,107,,1*68
$GPGSV,4,4,13,32,21,044,45,1*55
$GLGSV,2,1,08,66,29,038,41,67,85,070,40,68,40,214,42,74,05,321,26,1*70
$GLGSV,2,2,08,75,09,009,39,81,23,140,50,82,73,136,43,83,60,324,36,1*70
$GAGSV,3,1,10,07,60,112,48,08,28,047,40,13,25,114,45,16,01,352,,7*78
$GAGSV,3,2,10,23,00,234,,24,08,329,30,26,79,094,41,29,29,184,44,7*7D
$GAGSV,3,3,10,31,12,281,38,33,46,302,35,7*76
$GBGSV,3,1,09,02,04,100,34,05,19,121,42,06,23,068,39,09,23,083,39,1*7E
$GBGSV,3,2,09,13,00,075,,16,24,064,41,21,13,051,29,27,13,315,36,1*73
$GBGSV,3,3,09,28,54,295,35,1*4C
$GNRMC,220020.00,A,4843.26207,N,00920.55555,E,0.039,,070225,,,A,V*1A
$GNGGA,220020.00,4843.26207,N,00920.55555,E,1,12,0.47,247.7,M,47.6,M,,*47
$GPGSV,4,1,13,01,78,110,45,02,72,131,45,03,70,272,,04,25,190,36,1*64
$GPGSV,4,2,13,08,07,175,42,09,00,205,,14,03,261,,17,42,295,35,1*6F
$GPGSV,4,3,13,19,19,318,34,22,10,281,,28,19,083,45,31,13,107,,1*68
$GPGSV,4,4,13,32,21,044,45,1*55
$GLGSV,2,1,08,66,29,038,41,67,85,070,40,68,40,214,41,74,05,321,26,1*73
$GLGSV,2,2,08,75,09,009,39,81,23,140,50,82,73,136,42,83,60,324,36,1*71
$GAGSV,3,1,10,07,60,112,48,08,28,047,40,13,25,114,44,16,01,352,,7*79
$GAGSV,3,2,10,23,00,234,,24,08,329,30,26,79,096,40,29,29,184,44,7*7E
$GAGSV,3,3,10,31,12,281,38,33,46,302,35,7*76
$GBGSV,3,1,09,02,04,100,34,05,19,121,42,06,23,068,39,09,23,083,39,1*7E
$GBGSV,3,2,09,13,00,075,,16,24,064,41,21,13,051,29,27,13,315,35,1*70
$GBGSV,3,3,09,28,54,295,35,1*4C
$GNRMC,220021.00,A,4843.26209,N,00920.55554,E,0.005,,070225,,,A,V*1B
$GNGGA,220021.00,4843.26209,N,00920.55554,E,1,12,0.47,247.6,M,47.6,M,,*48
$GPGSV,4,1,3,01,78,110,45,02,72,131,45,03,70,272,,04,25,190,36,1*64
$GPGSV,4,2,13,08,07,175,42,09,00,205,,14,03,261,,17,42,295,36,1*6C
$GPGSV,4,3,13,19,19,318,34,22,10,281,,28,19,083,45,31,13,107,,1*68
$GPGSV,4,4,13,32,21,044,45,1*55
$GLGSV,2,1,08,66,29,038,41,67,85,070,40,68,40,214,41,74,05,321,25,1*70
$GLGSV,2,2,08,75,09,009,39,81,23,140,50,82,73,136,41,83,60,324,35,1*71
$GAGSV,3,1,10,07,60,112,48,08,28,047,40,13,25,114,44,16,01,352,,7*79
$GAGSV,3,2,10,23,00,234,,24,08,329,30,26,79,096,41,29,29,184,44,7*7F
$GAGSV,3,3,10,31,12,281,38,33,46,302,35,7*76
$GBGSV,3,1,09,02,04,100,34,05,19,121,42,06,23,068,40,09,23,083,39,1*70
$GBGSV,3,2,09,13,00,075,,16,24,064,41,21,13,051,30,27,13,315,35,1*78
$GBGSV,3,3,09,28,54,295,35,1*4C
$GNRMC,220022.00,A,4843.26211,N,00920.55556,E,0.023,,070225,,,A,V*17
$GNGGA,220022.00,4843.26211,N,00920.55556,E,1,12,0.47,247.6,M,47.6,M,,*40
$GPGSV,4,1,13,01,78,110,45,02,72,131,45,03,70,272,,04,25,190,35,1*67
$GPGSV,4,2,13,08,07,175,42,09,00,205,,14,03,261,,17,42,295,36,1*6C
$GPGSV,4,3,13,19,19,318,34,22,10,281,,28,19,083,45,31,13,107,,1*68
$GPGSV,4,4,13,32,21,044,45,1*55
$GLGSV,2,1,08,66,29,038,41,67,85,070,41,68,40,214,42,74,05,321,25,1*72
$GLGSV,2,2,08,75,09,009,39,81,23,140,50,82,73,136,40,83,60,324,35,1*70
$GAGSV,3,1,10,07,60,112,48,08,28,047,40,13,25,114,44,16,01,352,,7*79
$GAGSV,3,2,10,23,00,234,,24,08,329,31,26,79,096,41,29,30,184,44,7*76
$GAGSV,3,3,10,31,12,281,38,33,46,302,35,7*76
$GBGSV,3,1,09,02,04,100,34,05,19,121,42,06,23,068,40,09,23,083,39,1*70
$GBGSV,3,2,09,13,00,075,,16,24,064,41,21,13,051,30,27,13,315,35,1*78
$GBGSV,3,3,09,28,54,295,35,1*4C
$GNRMC,220023.00,A,4843.26212,N,00920.55557,E,0.006,,070225,,,A,V*13
$GNGGA,220023.00,4843.26212,N,00920.55557,E,1,12,0.47,247.6,M,47.6,M,,*43
$GPGSV,4,1,13,01,78,110,44,02,72,131,46,03,70,272,,04,25,190,36,1*66
$GPGSV,4,2,13,08,07,175,42,09,00,205,,14,03,261,,17,42,295,36,1*6C
$GPGSV,4,3,13,19,19,318,34,22,10,281,,28,19,083,45,31,13,107,,1*68
$GPGSV,4,4,13,32,21,044,45,1*55
$GLGSV,2,1,08,66,29,038,41,67,85,070,41,68,40,214,42,74,05,321,25,1*72
$GLGSV,2,2,08,75,09,009,39,81,23,140,50,82,73,136,40,83,60,324,35,1*70
$GAGSV,3,1,10,07,60,112,48,08,28,047,40,13,25,114,44,16,01,352,,7*79
$GAGSV,3,2,10,23,00,234,,24,08,329,31,26,79,096,41,29,30,184,44,7*76
$GAGSV,3,3,10,31,12,281,38,33,46,302,35,7*76
$GBGSV,3,1,09,02,04,100,34,05,19,121,42,06,23,068,40,09,23,083,39,1*70
$GBGSV,3,2,09,13,00,075,,16,24,064,41,21,13,051,31,27,13,315,35,1*79
$GBGSV,3,3,09,28,54,295,36,1*4F
$GNRMC,220024.00,A,4843.26213,N,00920.55557,E,0.012,,070225,,,A,V*10
$GNGGA,220024.00,4843.26213,N,00920.55557,E,1,12,0.47,247.7,M,47.6,M,,*44
$GPGSV,4,1,13,01,78,110,44,02,72,131,46,03,70,272,,04,25,190,36,1*66
$GPGSV,4,2,13,08,07,175,42,09,00,205,,14,03,261,,17,42,295,36,1*6C
$GPGSV,4,3,13,19,19,318,34,22,10,281,,28,19,083,45,31,13,107,,1*68
$GPGSV,4,4,13,32,21,044,45,1*55
$GLGSV,2,1,08,66,29,038,41,67,85,070,41,68,40,214,42,74,05,321,24,1*73
$GLGSV,2,2,08,75,09,009,39,81,23,140,50,82,73,136,39,83,60,324,35,1*7E
$GAGSV,3,1,10,07,60,112,48,08,28,047,40,13,25,114,44,16,01,352,,7*79
$GAGSV,3,2,10,23,00,234,,24,08,329,31,26,79,096,41,29,30,184,44,7*76
$GAGSV,3,3,10,31,12,280,38,33,46,302,35,7*77
$GBGSV,3,1,09,02,04,100,34,05,19,121,42,06,23,068,40,09,23,083,39,1*70
$GBGSV,3,2,09,13,00,075,,16,24,064,41,21,13,051,31,27,13,315,35,1*79
$GBGSV,3,3,09,28,54,295,35,1*4C
$GNRMC,220025.00,A,4843.26214,N,00920.55556,E,0.002,,070225,,,A,V*16
$GNGGA,220025.00,4843.26214,N,00920.55556,E,1,12,0.47,247.7,M,47.6,M,,*43
$GPGSV,4,1,13,01,78,110,44,02,72,131,47,03,70,272,,04,25,190,37,1*66
$GPGSV,4,2,13,08,07,175,42,09,00,205,,14,03,261,,17,42,295,36,1*6C
$GPGSV,4,3,13,19,19,318,34,22,10,281,,28,19,083,45,31,13,107,,1*68
$GPGSV,4,4,13,32,21,044,45,1*55
$GLGSV,2,1,08,66,29,038,42,67,85,070,41,68,40,214,43,74,05,321,23,1*76
$GLGSV,2,2,08,75,09,009,39,81,23,140,50,82,73,136,39,83,60,324,35,1*7E
$GAGSV,3,1,10,07,60,112,48,08,28,047,40,13,25,114,44,16,01,352,,7*79
$GAGSV,3,2,10,23,00,234,,24,08,329,31,26,79,096,41,29,30,184,45,7*77
$GAGSV,3,3,10,31,12,280,38,33,47,302,35,7*76
$GBGSV,3,3,09,28,54,295,35,1*4C
$GNRMC,220026.00,A,4843.26215,N,00920.55556,E,0.017,,070225,,,A,V*10
$GNGGA,220026.00,4843.26215,N,00920.55556,E,1,12,0.47,247.8,M,47.6,M,,*4E
$GPGSV,4,1,13,01,78,110,44,02,72,131,47,03,70,272,,04,25,190,36,1*67
$GPGSV,4,2,13,08,07,175,42,09,00,205,,14,03,261,,17,42,295,36,1*6C
$GPGSV,4,3,13,19,19,318,34,22,10,281,,28,19,083,46,31,13,107,,1*6B
$GPGSV,4,4,13,32,21,044,45,1*55
$GLGSV,2,1,08,66,29,038,42,67,85,070,41,68,40,214,42,74,05,321,22,1*76
$GLGSV,2,2,08,75,09,009,39,81,23,140,50,82,73,136,40,83,60,324,36,1*73
$GAGSV,3,1,10,07,60,112,48,08,28,047,40,13,25,114,43,16,01,352,,7*7E
$GAGSV,3,2,10,23,00,234,,24,08,329,31,26,79,096,41,29,30,184,45,7*77
$GAGSV,3,3,10,31,12,280,38,33,47,302,35,7*76
$GBGSV,3,1,09,02,04,100,34,05,19,121,42,06,23,068,40,09,23,083,39,1*70
$GBGSV,3,2,09,13,00,075,,16,24,064,41,21,13,051,32,27,13,315,35,1*7A
$GBGSV,3,3,09,28,54,295,35,1*4C
$GNRMC,220027.00,A,4843.26216,N,00920.55555,E,0.004,,070225,,,A,V*13
$GNGGA,220027.00,4843.26216,N,00920.55555,E,1,12,0.47,247.8,M,47.6,M,,*4F
$GPGSV,4,1,13,01,78,110,44,02,72,131,47,03,70,272,,04,25,190,37,1*66
$GPGSV,4,2,13,08,07,175,42,09,00,205,,14,03,261,,17,42,295,36,1*6C
$GPGSV,4,3,13,19,19,318,34,22,10,281,,28,19,083,46,31,13,107,,1*6B
$GPGSV,4,4,13,32,21,044,45,1*55
$GLGSV,2,1,08,66,29,038,42,67,85,070,41,68,40,214,42,74,05,321,21,1*75
$GLGSV,2,2,08,75,09,009,39,81,23,140,50,82,73,136,40,83,60,324,36,1*73
$GAGSV,3,1,10,07,60,112,48,08,28,047,41,13,25,114,43,16,01,352,,7*7F
$GAGSV,3,2,10,23,00,234,,24,08,329,32,26,79,096,41,29,30,184,45,7*74
$GAGSV,3,3,10,31,12,280,38,33,47,302,35,7*76
$GBGSV,3,1,09,02,04,100,34,05,19,121,42,06,23,068,40,09,23,083,39,1*70
$GBGSV,3,2,09,13,00,075,,16,24,064,41,21,13,051,32,27,13,315,35,1*7A
$GBGSV,3,3,09,28,54,295,35,1*4C
$GNRMC,220028.00,A,4843.26216,N,00920.55554,E,0.012,,070225,,,A,V*1A
$GNGGA,220028.00,4843.26216,N,00920.55554,E,1,12,0.47,247.9,M,47.6,M,,*40
$GPGSV,4,1,13,01,78,110,44,02,72,131,46,03,70,272,,04,25,190,37,1*67
$GPGSV,4,2,13,08,07,175,42,09,00,205,,14,03,261,,17,42,295,35,1*6F
$GPGSV,4,3,13,19,19,318,34,22,10,281,,28,19,083,45,31,13,107,,1*68
$GPGSV,4,4,13,32,21,044,45,1*55
$GLGSV,2,1,08,66,29,038,42,67,85,070,41,68,40,214,42,74,05,321,21,1*75
$GLGSV,2,2,08,75,09,009,39,81,23,140,50,82,73,136,41,83,60,324,36,1*72
$GAGSV,3,1,10,07,60,112,48,08,28,047,41,13,25,114,43,16,01,352,,7*7F
$GAGSV,3,2,10,23,00,234,,24,08,329,32,26,79,096,41,29,30,184,45,7*74
$GAGSV,3,3,10,31,12,280,38,33,47,302,35,7*76
$GBGSV,3,1,09,02,04,100,34,05,19,121,42,06,23,068,40,09,23,083,39,1*70
$GBGSV,3,2,09,13,00,075,,16,24,064,41,21,13,051,32,27,13,315,35,1*7A
$GBGSV,3,3,09,28,54,295,36,1*4F
$GNRMC,220029.00,A,4843.26216,N,00920.55553,E,0.004,,070225,,,A,V*1B
$GNGGA,220029.00,4843.26216,N,00920.55553,E,1,12,0.47,247.9,M,47.6,M,,*46
$GPGSV,4,1,13,01,78,110,43,02,72,131,46,03,70,272,,04,25,190,38,1*6F
$GPGSV,4,2,13,08,07,175,42,09,00,205,,14,03,261,,17,42,295,35,1*6F
$GPGSV,4,3,13,19,19,318,34,22,10,281,,28,19,083,45,31,13,107,,1*68
$GPGSV,4,4,13,32,21,044,45,1*55
$GLGSV,2,1,08,66,29,038,42,67,85,070,41,68,40,214,41,74,05,321,21,1*76
$GLGSV,2,2,08,75,09,009,40,81,23,140,50,82,73,136,41,83,60,324,36,1*7C
$GAGSV,3,1,10,07,60,112,48,08,28,047,41,13,25,114,43,16,01,352,,7*7F
$GAGSV,3,2,10,23,00,234,,24,08,329,32,26,79,096,41,29,30,184,45,7*74
$GBGSV,3,1,09,02,04,100,34,05,19,121,42,06,23,068,40,09,23,083,39,1*70
$GBGSV,3,2,09,13,00,075,,16,24,064,42,21,13,051,32,27,13,315,35,1*79
$GBGSV,3,3,09,28,54,295,35,1*4C
$GNRMC,220030.00,A,4843.26215,N,00920.55552,E,0.001,,070225,,,A,V*14
$GNGGA,220030.00,4843.26215,N,00920.55552,E,1,12,0.47,247.8,M,47.6,M,,*4D
$GPGSV,4,1,13,01,78,110,43,02,72,131,46,03,70,272,,04,25,190,39,1*6E
$GPGSV,4,2,13,08,07,175,42,09,00,205,,14,03,261,,17,42,295,35,1*6F
$GPGSV,4,3,13,19,19,318,34,22,10,281,,28,19,083,45,31,13,107,,1*68
$GPGSV,4,4,13,32,21,044,45,1*55
$GLGSV,2,1,08,66,29,038,42,67,85,070,42,68,40,214,41,74,05,321,21,1*75
$GLGSV,2,2,08,75,09,009,39,81,23,140,50,82,73,136,41,83,60,324,36,1*72
$GAGSV,3,1,10,07,60,112,48,08,28,047,41,13,25,114,43,16,01,352,,7*7F
$GAGSV,3,2,10,23,00,234,,24,08,329,32,26,79,096,41,29,30,184,45,7*74
$GAGSV,3,3,10,31,12,280,38,33,47,302,35,7*76
$GBGSV,3,1,09,02,04,100,35,05,19,121,42,06,23,068,40,0,23,083,39,1*71
$GBGSV,3,2,09,13,00,075,,16,24,064,42,21,13,051,32,27,13,315,35,1*79
$GBGSV,3,3,09,28,54,295,36,1*4F
$GNRMC,220031.00,A,4843.26214,N,00920.55552,E,0.010,,070225,,,A,V*14
$GNGGA,220031.00,4843.26214,N,00920.55552,E,1,12,0.47,247.8,M,47.6,M,,*4D
$GPGSV,4,1,13,01,78,110,43,02,72,131,46,03,70,272,,04,25,190,38,1*6F
$GPGSV,4,2,13,08,07,175,42,09,00,205,,14,03,261,,17,42,295,35,1*6F
$GPGSV,4,3,13,19,19,318,34,22,10,281,,28,19,083,45,31,13,107,,1*68
$GPGSV,4,4,13,32,21,044,45,1*55
$GLGSV,2,1,08,66,29,038,43,67,85,070,41,68,40,214,42,74,05,321,20,1*75
$GLGSV,2,2,08,75,09,009,40,81,23,140,50,82,73,136,42,83,60,324,36,1*7F
$GAGSV,3,1,10,07,60,112,48,08,28,047,41,13,25,114,43,16,01,352,,7*7F
$GAGSV,3,2,10,23,00,234,,24,08,329,32,26,79,096,41,29,30,184,45,7*74
$GAGSV,3,3,10,31,12,280,38,33,47,302,35,7*76
$GBGSV,3,1,09,02,04,100,34,05,19,121,42,06,23,068,40,09,23,083,39,1*70
$GBGSV,3,2,09,13,00,075,,16,24,064,42,21,13,051,32,27,13,315,34,1*78
$GBGSV,3,3,09,28,54,295,36,1*4F
$GNRMC,220032.00,A,4843.26213,N,00920.55552,E,0.008,,070225,,,A,V*19
$GNGGA,220032.00,4843.26213,N,00920.55552,E,1,12,0.47,247.7,M,47.6,M,,*46
$GPGSV,4,1,13,01,78,110,43,02,72,131,46,03,70,272,,04,25,190,38,1*6F
$GPGSV,4,2,13,08,07,175,42,09,00,205,,14,03,261,,17,42,295,35,1*6F
$GPGSV,4,3,13,19,19,318,34,22,10,281,,28,19,083,45,31,13,107,,1*68
$GPGSV,4,4,13,32,21,044,45,1*55
$GLGSV,2,1,08,66,29,038,43,67,85,070,41,68,40,214,41,74,05,321,20,1*76
$GLGSV,2,2,08,75,09,009,40,81,23,140,50,82,73,136,42,83,60,324,36,1*7F
$GAGSV,3,1,10,07,60,112,48,08,28,047,41,13,25,114,42,16,01,352,,7*7E
$GAGSV,3,2,10,23,00,234,,24,08,329,32,26,79,096,41,29,30,184,45,7*74
$GAGSV,3,3,10,31,12,280,38,33,47,302,35,7*76
$GBGSV,3,1,09,02,04,100,34,05,19,121,42,06,24,068,40,09,23,083,39,1*77
$GBGSV,3,2,09,13,00,075,,16,24,064,42,21,13,051,32,27,13,315,34,1*78
$GBGSV,3,3,09,28,54,295,36,1*4F
$GNGGA,220033.00,4843.26213,N,00920.55552,E,1,12,0.47,247.5,M,47.6,M,,*45
$GPGSV,4,1,13,01,78,110,43,02,72,131,46,03,70,272,,04,25,190,38,1*6F
$GPGSV,4,2,13,08,07,175,42,09,00,205,,14,03,261,,17,42,295,35,1*6F
$GPGSV,4,3,13,19,19,318,34,22,10,281,,28,19,083,44,31,13,107,,1*69
$GPGSV,4,4,13,32,21,044,45,1*55
$GLGSV,2,1,08,66,29,038,43,67,85,070,41,68,40,214,41,74,05,321,21,1*77
$GLGSV,2,2,08,75,09,009,40,81,23,140,50,82,73,136,42,83,60,324,36,1*7F
$GAGSV,3,1,10,07,60,112,48,08,28,047,41,13,25,114,42,16,01,352,,7*7E
$GAGSV,3,2,10,23,00,234,,24,08,329,32,26,79,096,41,29,30,184,45,7*74
$GAGSV,3,3,10,31,12,280,38,33,47,302,35,7*76
$GBGSV,3,1,09,02,04,100,34,05,19,121,42,06,24,068,40,09,23,083,39,1*77
$GBGSV,3,2,09,13,00,075,,16,24,064,42,21,13,051,32,27,13,315,34,1*78
$GBGSV,3,3,09,28,54,295,36,1*4F
$GNRMC,220034.00,A,4843.26212,N,00920.55551,E,0.012,,070225,,,A,V*16
$GNGGA,220034.00,4843.26212,N,00920.55551,E,1,12,0.47,247.4,M,47.6,M,,*41
$GPGSV,4,1,13,01,78,110,43,02,72,131,46,03,70,272,,04,25,190,39,1*6E
$GPGSV,4,2,13,08,07,175,42,09,00,205,,14,03,261,,17,42,295,34,1*6E
$GPGSV,4,3,13,19,19,318,33,22,10,281,,28,19,083,45,31,13,107,,1*6F
$GPGSV,4,4,13,32,21,044,45,1*55
$GLGSV,2,1,08,66,29,038,42,67,85,070,41,68,40,214,41,74,05,321,22,1*75
$GLGSV,2,2,08,75,09,009,40,81,23,140,50,82,73,136,41,83,60,324,36,1*7C
$GAGSV,3,1,10,07,60,112,48,08,28,047,41,13,25,114,42,16,01,352,,7*7E
$GAGSV,3,2,10,23,00,234,,24,08,329,32,26,79,096,41,29,30,184,45,7*74
$GAGSV,3,3,10,31,12,280,38,33,47,302,35,7*76
$GBGSV,3,1,09,02,04,100,34,05,19,121,42,06,24,068,40,09,23,083,39,1*77
$GBGSV,3,2,09,13,00,075,,16,24,064,42,21,13,051,33,27,13,315,34,1*79
$GBGSV,3,3,09,28,54,295,36,1*4F
$GNRMC,220035.00,A,4843.26211,N,00920.55550,E,0.004,,070225,,,A,V*12
$GNGGA,220035.00,4843.2621,N,00920.55550,E,1,12,0.47,247.4,M,47.6,M,,*42
$GPGSV,4,1,13,01,78,110,43,02,72,131,46,03,70,272,,04,25,190,39,1*6E
$GPGSV,4,2,13,08,07,175,42,09,00,205,,14,03,261,,17,42,295,34,1*6E
$GPGSV,4,3,13,19,19,318,33,22,10,281,,28,19,083,45,31,13,107,,1*6F
$GPGSV,4,4,13,32,21,044,45,1*55
$GLGSV,2,1,08,66,29,038,42,67,85,070,41,68,40,214,42,74,05,321,22,1*76
$GLGSV,2,2,08,75,09,009,40,81,23,140,50,82,73,136,41,83,60,324,36,1*7C
$GAGSV,3,1,10,07,60,112,48,08,28,047,41,13,25,114,42,16,01,352,,7*7E
$GAGSV,3,2,10,23,00,234,,24,08,329,32,26,79,096,41,29,30,184,46,7*77
$GAGSV,3,3,10,31,12,280,37,33,47,302,36,7*7A
$GBGSV,3,1,09,02,04,100,35,05,19,121,42,06,24,068,40,09,23,083,40,1*78
$GBGSV,3,2,09,13,00,075,,16,24,064,42,21,13,051,33,27,13,315,34,1*79
$GBGSV,3,3,09,28,54,295,36,1*4F
$GNRMC,220036.00,A,4843.26209,N,00920.55549,E,0.008,,070225,,,A,V*1C
$GNGGA,220036.00,4843.26209,N,00920.55549,E,1,12,0.47,247.3,M,47.6,M,,*47
$GPGSV,4,1,13,01,78,110,44,02,72,131,46,03,70,272,,04,25,190,39,1*69
$GPGSV,4,2,13,08,07,175,42,09,00,205,,14,03,261,,17,42,295,34,1*6E
$GPGSV,4,3,13,19,19,318,33,22,10,281,,28,19,083,45,31,13,107,,1*6F
$GPGSV,4,4,13,32,21,044,45,1*55
$GLGSV,2,1,08,66,29,038,42,67,85,070,41,68,40,214,42,74,05,321,23,1*77
$GLGSV,2,2,08,75,09,009,40,81,23,140,50,82,73,136,40,83,60,324,36,1*7D
$GAGSV,3,1,10,07,60,112,48,08,28,047,41,13,25,114,42,16,01,352,,7*7E
$GAGSV,3,2,10,23,00,234,,24,08,329,32,26,79,096,41,29,30,184,45,7*74
$GAGSV,3,3,10,31,12,280,37,33,47,302,36,7*7A
$GBGSV,3,1,09,02,04,100,34,05,19,121,42,06,24,068,40,09,23,083,39,1*77
$GBGSV,3,2,09,13,00,075,,16,24,064,42,21,13,051,33,27,13,315,34,1*79
$GBGSV,3,3,09,28,54,295,36,1*4F
$GNRMC,220037.00,A,4843.26208,N,00920.55547,E,0.010,,070225,,,A,V*1B
$GNGGA,220037.00,4843.26208,N,00920.55547,E,1,12,0.47,247.3,M,47.6,M,,*49
$GPGSV,4,1,13,01,78,110,44,02,72,131,46,03,70,272,,04,25,190,39,1*69
$GPGSV,4,2,13,08,07,175,42,09,00,205,,14,03,261,,17,42,295,33,1*69
$GPGSV,4,3,13,19,19,318,33,22,10,281,,28,19,083,45,31,13,107,,1*6F
$GPGSV,4,4,13,32,21,044,45,1*55
$GLGSV,2,1,08,66,29,038,42,67,85,070,41,68,40,214,42,74,05,321,24,1*70
$GLGSV,2,2,08,75,09,009,40,81,23,140,51,82,73,136,39,83,60,324,36,1*72
$GAGSV,3,1,10,07,60,112,48,08,28,047,41,13,25,114,41,16,01,352,,7*7D
$GAGSV,3,2,10,23,00,234,,24,08,329,32,26,79,096,41,29,30,184,45,7*74
$GAGSV,3,3,10,31,12,280,37,33,47,302,36,7*7A
$GBGSV,3,1,09,02,04,100,34,05,19,121,42,06,24,068,40,09,23,083,40,1*79
$GBGSV,3,2,09,13,00,075,,16,24,064,42,21,13,051,33,27,13,315,34,1*79
$GBGSV,3,3,09,28,54,295,36,1*4F
$GNRMC,220038.00,A,4843.26206,N,00920.55545,E,0.008,,070225,,,A,V*11
$GNGGA,220038.00,4843.26206,N,00920.55545,E,1,12,0.47,247.3,M,47.6,M,,*4A
$GPGSV,4,1,13,01,78,110,44,02,72,131,46,03,70,272,,04,25,190,40,1*67
$GPGSV,4,2,13,08,07,175,42,09,00,205,,14,03,261,,17,42,295,32,1*68
$GPGSV,4,3,13,19,19,318,33,22,10,281,,28,19,083,45,31,13,107,,1*6F
$GPGSV,4,4,13,32,21,044,45,1*55
$GLGSV,2,1,08,66,29,038,42,67,85,070,41,68,40,214,41,74,05,321,24,1*73
$GLGSV,2,2,08,75,09,009,40,81,23,140,51,82,73,136,39,83,60,324,35,1*71
$GAGSV,3,1,10,07,60,112,48,08,28,047,41,13,25,114,41,16,01,352,,7*7D
$GAGSV,3,2,10,23,00,234,,24,08,329,32,26,79,096,41,29,30,184,45,7*74
$GAGSV,3,3,10,31,12,280,37,33,47,302,36,7*7A
$GBGSV,3,1,09,02,04,100,34,05,19,121,42,06,24,068,40,09,23,083,40,1*79
$GBGSV,3,2,09,13,00,075,,16,24,064,42,21,13,051,33,27,13,315,34,1*79
$GBGSV,3,3,09,28,54,295,36,1*4F
$GNRMC,220039.00,A,4843.26204,N,00920.55543,E,0.014,,070225,,,A,V*19
$GNGGA,220039.00,4843.26204,N,00920.55543,E,1,12,0.47,247.3,M,47.6,M,,*4F
$GPGSV,4,1,13,01,78,110,44,02,72,131,46,03,70,272,,04,25,190,40,1*67
$GPGSV,4,2,13,08,07,175,42,09,00,205,,14,03,261,,17,42,295,32,1*68
$GPGSV,4,3,13,19,19,318,33,22,10,281,,28,19,083,45,31,13,107,,1*6F
$GPGSV,4,4,13,32,21,044,44,1*54
$GLGSV,2,1,08,66,29,038,41,67,85,070,41,68,40,214,41,74,05,321,24,1*70
$GLGSV,2,2,08,75,09,009,40,81,23,140,50,82,73,136,39,83,60,324,35,1*70
$GAGSV,3,1,10,07,60,112,48,08,28,047,41,13,25,114,41,16,01,352,,7*7D
$GAGSV,3,2,10,23,00,234,,24,08,329,32,26,79,096,41,29,30,184,45,7*74
$GAGSV,3,3,10,31,12,280,37,33,47,302,36,7*7A
$GBGSV,3,1,09,02,04,100,34,05,19,121,42,06,24,068,40,09,23,083,40,1*79
$GBGSV,3,2,09,13,00,075,,16,24,064,42,21,13,051,33,27,13,315,34,1*79
$GBGSV,3,3,09,28,54,295,36,1*4F
$GNRMC,220040.00,A,4843.26203,N,00920.55540,E,0.010,,070225,,,A,V*17
$GNGGA,220040.00,4843.26203,N,00920.55540,E,1,12,0.47,247.3,M,47.6,M,,*45
$GPGSV,4,1,13,01,78,110,43,02,72,131,46,03,70,272,,04,25,190,40,1*60
$GPGSV,4,2,13,08,07,175,42,09,00,205,,14,03,261,,17,42,295,31,1*6B
$GPGSV,4,3,13,19,19,318,33,22,10,281,,28,19,083,45,31,13,107,,1*6F
$GPGSV,4,4,13,32,21,044,44,1*54
$GLGSV,2,1,08,66,29,038,41,67,85,070,41,68,40,214,42,74,05,321,22,1*75
$GLGSV,2,2,08,75,09,009,40,81,23,140,51,82,73,136,40,83,60,324,35,1*7F
$GAGSV,3,1,10,07,60,112,48,08,28,047,41,13,25,114,41,16,01,352,,7*7D
$GAGSV,3,2,10,23,00,234,,24,08,329,32,26,79,096,41,29,30,184,45,7*74
$GAGSV,3,3,10,31,12,280,37,33,47,302,37,7*7B
$GBGSV,3,1,09,02,04,100,35,05,19,121,42,06,24,068,40,09,23,083,40,1*78
$GBGSV,3,2,09,13,00,075,,16,24,064,42,21,13,051,33,27,13,315,34,1*79
$GBGSV,3,3,09,28,54,295,36,1*4F
$GNRMC,220041.00,A,4843.26201,N,00920.55538,E,0.006,,070225,,,A,V*1C
$GNGGA,220041.00,4843.26201,N,00920.55538,E,1,12,0.47,247.4,M,47.6,M,,*4E
$GPGSV,4,1,13,01,78,110,43,02,72,131,47,03,70,272,,04,25,190,40,1*61
$GPGSV,4,2,13,08,07,175,42,09,00,205,,14,03,261,,17,42,295,31,1*6B
$GPGSV,4,3,13,19,19,318,33,22,10,281,,28,19,083,45,31,13,107,,1*6F
$GPGSV,4,4,13,32,21,044,44,1*54
$GLGSV,2,1,08,66,29,038,41,67,85,070,41,68,40,214,42,74,05,321,21,1*76
$GLGSV,2,2,08,75,09,009,40,81,23,140,51,82,73,136,40,83,60,324,35,1*7F
$GAGSV,3,1,10,07,60,112,48,08,28,047,41,13,25,114,41,16,01,352,,7*7D
$GAGSV,3,2,10,23,00,234,,24,08,329,32,26,79,096,41,29,30,184,46,7*77
$GAGSV,3,3,10,31,12,280,36,33,47,302,37,7*7A
$GBGSV,3,1,09,02,04,100,35,05,19,121,42,06,24,068,40,09,23,083,40,1*78
$GBGSV,3,2,09,13,00,075,,16,24,064,42,21,13,051,33,27,13,315,34,1*79
$GBGSV,3,3,09,28,54,295,36,1*4F
$GNRMC,220042.00,A,4843.26199,N,00920.55536,E,0.009,,070225,,,A,V*1C
$GNGGA,220042.00,4843.26199,N,00920.55536,E,1,12,0.47,247.4,M,47.6,M,,*41
$GPGSV,4,1,13,01,78,110,43,02,72,131,47,03,70,272,,04,25,190,40,1*61
$GPGSV,4,2,13,08,07,175,42,09,00,205,,14,03,261,,17,42,295,30,1*6A
$GPGSV,4,3,13,19,19,318,33,22,10,281,,28,19,083,45,31,13,107,,1*6F
$GPGSV,4,4,13,32,21,044,44,1*54
$GLGSV,2,1,08,66,29,038,41,67,85,070,41,68,40,214,42,74,05,321,20,1*77
$GLGSV,2,2,08,75,09,009,39,81,23,140,51,82,73,136,40,83,60,324,36,1*72
$GAGSV,3,1,10,07,60,112,48,08,28,047,41,13,25,114,40,16,01,352,,7*7C
$GAGSV,3,2,10,23,00,234,,24,08,329,32,26,79,096,41,29,30,184,46,7*77
$GAGSV,3,3,10,31,12,280,36,33,47,302,37,7*7A
$GBGSV,3,1,09,02,04,100,34,05,19,121,42,06,24,068,40,09,23,083,40,1*79
$GBGSV,3,2,09,13,00,075,,16,24,064,42,21,12,051,34,27,13,315,34,1*7F
$GBGSV,3,3,09,28,54,295,36,1*4F
$GNRMC,220043.00,A,4843.26197,N,00920.55534,E,0.005,,070225,,,A,V*1D
$GNGGA,220043.00,4843.26197,N,00920.55534,E,1,12,0.47,247.4,M,47.6,M,,*4C
$GPGSV,4,1,13,01,78,110,43,02,72,131,47,03,70,272,,04,25,190,40,1*61
$GPGSV,4,2,13,08,07,175,42,09,00,205,,14,03,261,,17,42,295,30,1*6A
$GPGSV,4,3,13,19,19,318,33,22,10,281,,28,19,083,46,31,13,107,,1*6C
$GPGSV,4,4,13,32,21,044,44,1*54
$GLGSV,2,1,08,66,29,038,41,67,85,070,41,68,40,214,42,74,05,321,20,1*77
$GLGSV,2,2,08,75,09,009,39,81,23,140,51,82,73,136,39,83,60,324,36,1*7C
$GAGSV,3,1,10,07,60,112,48,08,28,047,41,13,25,114,41,16,01,352,,7*7D
$GAGSV,3,2,10,23,00,234,,24,08,329,32,26,79,096,41,29,30,184,46,7*77
$GAGSV,3,3,10,31,12,280,36,33,47,302,37,7*7A
$GBGSV,3,1,09,02,04,100,35,05,19,121,42,06,24,068,40,09,23,083,40,1*78
$GBGSV,3,2,09,13,00,075,,16,24,064,42,21,12,051,34,27,13,315,34,1*7F
$GBGSV,3,3,09,28,54,295,36,1*4F
$GNRMC,220044.00,A,4843.26195,N,00920.55531,E,0.004,,070225,,,A,V*1C
$GNGGA,220044.00,4843.26195,N,00920.55531,E,1,12,0.47,247.5,M,47.6,M,,*4D
$GPGSV,4,1,13,0,78,110,43,02,72,131,47,03,70,272,,04,25,190,40,1*61
$GPGSV,4,2,13,08,07,175,42,09,00,205,,14,03,261,,17,42,295,29,1*62
$GPGSV,4,3,13,19,19,318,33,22,10,281,,28,19,083,46,31,13,107,,1*6C
$GPGSV,4,4,13,32,21,044,44,1*54
$GLGSV,2,1,08,66,29,038,42,67,85,070,41,68,40,214,43,74,05,321,20,1*75
$GLGSV,2,2,08,75,09,009,39,81,23,140,51,82,73,136,38,83,60,324,35,1*7E
$GAGSV,3,1,10,07,60,112,48,08,28,047,41,13,25,114,41,16,01,352,,7*7D
$GAGSV,3,2,10,23,00,234,,24,08,329,32,26,79,096,41,29,30,184,46,7*77
$GAGSV,3,3,10,31,12,280,36,33,47,302,37,7*7A
$GBGSV,3,1,09,02,04,100,34,05,19,121,42,06,24,068,40,09,23,083,40,1*79
$GBGSV,3,2,09,13,00,075,,16,24,064,42,21,12,051,34,27,13,315,34,1*7F
$GBGSV,3,3,09,28,54,295,35,1*4C
$GNRMC,220045.00,A,4843.26194,N,00920.55529,E,0.017,,070225,,,A,V*17
$GNGGA,220045.00,4843.26194,N,00920.55529,E,1,12,0.47,247.5,M,47.6,M,,*44
$GPGSV,4,1,13,01,78,110,43,02,72,131,47,03,70,272,,04,25,190,40,1*61
$GPGSV,4,2,13,08,07,175,42,09,00,205,,14,03,261,,17,42,295,29,1*62
$GPGSV,4,3,13,19,19,318,33,22,10,281,,28,19,083,46,31,13,107,,1*6C
$GPGSV,4,4,13,32,21,044,44,1*54
$GLGSV,2,1,08,66,29,038,42,67,85,070,41,68,40,214,43,74,05,321,20,1*75
$GLGSV,2,2,08,75,09,009,39,81,23,140,51,82,73,136,37,83,60,324,36,1*72
$GAGSV,3,1,10,07,60,112,48,08,28,047,41,13,25,114,41,16,01,352,,7*7D
$GAGSV,3,2,10,23,00,234,,24,08,329,32,26,79,096,41,29,30,184,46,7*77
$GAGSV,3,3,10,31,12,280,36,33,47,302,37,7*7A
$GBGSV,3,1,09,02,04,100,34,05,19,121,42,06,24,068,40,09,23,083,40,1*79
$GBGSV,3,2,09,13,00,075,,16,24,064,42,21,12,051,34,27,13,315,33,1*78
$GBGSV,3,3,09,28,54,295,36,1*4F
$GNRMC,220046.00,A,4843.26193,N,00920.55526,E,0.009,,070225,,,A,V*13
$GNGGA,220046.00,4843.26193,N,00920.55526,E,1,12,0.47,247.5,M,47.6,M,,*4F
$GPGSV,4,1,13,01,78,110,43,02,72,131,47,03,70,272,,04,25,190,39,1*6F
$GPGSV,4,2,13,08,07,175,42,09,00,205,,14,03,261,,17,42,295,29,1*62
$GPGSV,4,3,13,19,19,318,33,22,10,281,,28,19,083,46,31,13,107,,1*6C
$GPGSV,4,4,13,32,21,044,44,1*54
$GLGSV,2,1,08,66,29,038,42,67,85,070,41,68,40,214,43,74,05,321,19,1*7F
$GLGSV,2,2,08,75,09,009,40,81,23,140,51,82,73,136,36,83,60,324,36,1*7D
$GAGSV,3,1,10,07,60,112,48,08,28,047,41,13,25,114,40,16,01,352,,7*7C
$GAGSV,3,2,10,23,00,234,,24,08,329,32,26,79,096,41,29,30,184,46,7*77
$GAGSV,3,3,10,31,12,280,36,33,47,302,37,7*7A
$GBGSV,3,1,09,02,04,100,34,05,19,121,42,06,24,068,40,09,23,083,40,1*79
$GBGSV,3,2,09,13,00,075,,16,24,064,42,21,12,051,34,27,13,315,33,1*78
$GBGSV,3,3,09,28,54,295,36,1*4F
$GNRMC,220047.00,A,4843.26192,N,00920.55524,E,0.024,,070225,,,A,V*1E
$GNGGA,220047.00,4843.26192,N,00920.55524,E,1,12,0.47,247.5,M,47.6,M,,*4D
$GPGSV,4,1,13,01,78,110,44,02,72,131,47,03,70,272,,04,25,190,39,1*68
$GPGSV,4,2,13,08,07,175,41,09,00,205,,14,03,261,,17,42,295,29,1*61
$GPGSV,4,3,13,19,19,318,34,22,10,281,,28,19,083,46,31,13,107,,1*6B
$GPGSV,4,4,13,32,21,044,43,1*53
$GLGSV,2,1,08,66,29,038,42,67,85,070,41,68,40,214,43,74,05,321,18,1*7E
$GLGSV,2,2,08,75,09,009,40,81,23,140,51,82,73,136,35,83,60,324,36,1*7E
$GAGSV,3,1,10,07,60,112,48,08,28,047,41,13,25,114,41,16,01,352,,7*7D
$GAGSV,3,2,10,23,00,234,,24,08,329,32,26,79,096,41,29,30,184,45,7*74
$GAGSV,3,3,10,31,12,280,36,33,47,302,37,7*7A
$GBGSV,3,1,09,02,04,100,34,05,19,121,42,06,24,068,40,09,23,083,40,1*79
$GBGSV,3,2,09,13,00,075,,16,24,064,42,21,12,051,34,27,13,315,33,1*78
$GBGSV,3,3,09,28,54,295,35,1*4C
$GNRMC,220048.00,A,4843.26192,N,00920.55522,E,0.009,,070225,,,A,V*18
$GNGGA,220048.00,4843.26192,N,00920.55522,E,1,12,0.47,247.6,M,47.6,M,,*47
$GPGSV,4,1,13,01,78,110,44,02,72,131,47,03,70,272,,04,25,190,39,1*68
$GPGSV,4,2,13,08,07,175,41,09,00,205,,14,03,261,,17,42,295,29,1*61
$GPGSV,4,3,13,19,19,318,34,22,10,281,,28,19,083,46,31,13,107,,1*6B
$GPGSV,4,4,13,32,21,044,43,1*53
$GLGSV,2,1,08,66,29,038,43,67,85,070,41,68,40,214,43,74,05,321,17,1*70
$GLGSV,2,2,08,75,09,009,41,81,23,140,51,82,73,136,33,83,60,324,37,1*78
$GAGSV,3,1,10,07,60,112,48,08,28,047,41,13,25,114,40,16,01,352,,7*7C
$GAGSV,3,2,10,23,00,234,,24,08,329,32,26,79,096,41,29,30,184,45,7*74
$GAGSV,3,3,10,31,12,280,36,33,47,302,37,7*7A
$GBGSV,3,1,09,02,04,100,34,05,19,121,42,06,24,068,40,09,23,083,40,1*79
$GBGSV,3,2,09,13,00,075,,16,24,064,42,21,12,051,35,27,13,315,33,1*79
$GBGSV,3,3,09,28,54,295,35,1*4C
$GNRMC,220049.00,A,4843.26192,N,00920.55520,E,0.026,,070225,,,A,V*16
$GNGGA,220049.00,4843.26192,N,00920.55520,E,1,12,0.47,247.5,M,47.6,M,,*47
$GPGSV,4,1,13,01,78,110,44,02,72,131,47,03,70,272,,04,25,190,39,1*68
$GPGSV,4,2,13,08,07,175,41,09,00,205,,14,03,261,,17,42,295,28,1*60
$GPGSV,4,3,13,19,19,318,34,22,10,281,,28,19,083,46,31,13,107,,1*6B
$GPGSV,4,4,13,32,21,044,43,1*53
$GLGSV,2,1,08,66,29,038,43,67,85,070,41,68,40,214,43,74,05,321,16,1*71
$GLGSV,2,2,08,75,09,009,41,81,23,140,51,82,73,136,33,83,60,324,37,1*78
$GAGSV,3,1,10,07,60,112,48,08,28,047,41,13,25,114,40,16,01,352,,7*7C
$GAGSV,3,2,10,23,00,234,,24,08,329,32,26,79,096,41,29,30,184,45,7*74
$GAGSV,3,3,10,31,12,280,36,33,47,302,37,7*7A
$GBGSV,3,1,09,02,04,100,34,05,19,121,42,06,24,068,40,09,23,083,40,1*79
$GBGSV,3,2,09,13,00,075,,16,24,064,42,21,12,051,35,27,13,315,33,1*79
$GBGSV,3,3,09,28,54,295,35,1*4C
$GNRMC,220050.00,A,4843.26192,N,00920.55518,E,0.014,,070225,,,A,V*14
$GNGGA,220050.00,4843.26192,N,00920.55518,E,1,12,0.47,247.6,M,47.6,M,,*47
$GPGSV,4,1,13,01,78,110,44,02,72,131,47,03,70,272,,04,25,190,39,1*68
$GPGSV,4,2,13,08,07,175,41,09,00,205,,14,03,261,,17,42,295,29,1*61
$GPGSV,4,3,13,19,19,318,35,22,10,281,,28,19,083,46,31,13,107,,1*6A
$GPGSV,4,4,13,32,21,044,43,1*53
$GLGSV,2,1,08,66,29,038,43,67,85,070,41,68,40,214,43,74,05,321,13,1*74
$GLGSV,2,2,08,75,09,009,40,81,23,140,51,82,73,136,33,83,60,324,37,1*79
$GAGSV,3,1,10,07,60,112,48,08,28,047,41,13,25,114,40,16,01,352,,7*7C
$GAGSV,3,2,10,23,00,234,,24,08,329,33,26,79,096,41,29,30,184,45,7*75
$GAGSV,3,3,10,31,12,280,36,33,47,302,37,7*7A
$GBGSV,3,1,09,02,04,100,34,05,19,121,42,06,24,068,40,09,23,083,40,1*79
$GBGSV,3,2,09,13,00,075,,16,24,064,42,21,12,051,35,27,13,315,33,1*79
$GBGSV,3,3,09,28,54,295,35,1*4C
$GNRMC,220051.00,A,4843.26192,N,00920.55516,E,0.002,,070225,,,A,V*1C
$GNGGA,220051.00,4843.26192,N,00920.55516,E,1,12,0.47,247.6,M,47.6,M,,*48
$GPGSV,4,1,13,01,78,110,44,02,72,131,47,03,70,272,,04,25,190,39,1*68
$GPGSV,4,2,13,08,07,175,41,09,00,205,,14,03,261,,17,42,295,29,1*61
$GPGSV,4,3,13,19,19,318,35,22,10,281,,28,19,083,46,31,13,107,,1*6A
$GPGSV,4,4,13,32,21,044,43,1*53
$GLGSV,2,1,08,66,29,038,43,67,85,070,41,68,40,214,43,74,05,321,14,1*73
$GLGSV,2,2,08,75,09,009,40,81,23,140,51,82,73,136,33,83,60,324,37,1*79
$GAGSV,3,1,10,07,60,112,48,08,28,047,41,13,25,114,40,16,01,352,,7*7C
$GAGSV,3,2,10,23,00,234,,24,08,329,33,26,79,096,40,29,30,184,45,7*74
$GAGSV,3,3,10,31,12,280,35,33,47,302,37,7*79
$GBGSV,3,1,09,02,04,100,35,05,19,121,42,06,24,068,40,09,23,083,40,1*78
$GBGSV,3,2,09,13,00,075,,16,24,064,42,21,12,051,36,27,13,315,33,1*7A
$GBGSV,3,3,09,28,54,295,35,1*4C
$GNRMC,220052.00,A,4843.26192,N,00920.55514,E,0.005,,070225,,,A,V*1A
$GNGGA,220052.00,4843.26192,N,00920.55514,E,1,12,0.47,247.5,M,47.6,M,,*4A
$GPGSV,4,1,13,01,78,110,44,02,72,131,47,03,70,272,,04,25,190,39,1*68
$GPGSV,4,2,13,08,07,175,41,09,00,205,,14,03,261,,17,42,295,29,1*61
$GPGSV,4,3,13,19,19,318,35,22,10,281,,28,19,083,47,31,13,107,,1*6B
$GPGSV,4,4,13,32,21,044,43,1*53
$GLGSV,2,1,08,66,29,038,43,67,85,070,40,68,40,214,43,74,05,321,12,1*74
$GLGSV,2,2,08,75,09,009,39,81,23,140,51,82,73,136,33,83,60,324,36,1*76
$GAGSV,3,1,10,07,60,112,48,08,28,047,41,13,25,114,40,16,01,352,,7*7C
$GAGSV,3,2,10,23,00,234,,24,08,329,33,26,79,096,40,29,30,184,45,7*74
$GAGSV,3,3,10,31,12,280,35,33,47,302,37,7*79
$GBGSV,3,1,09,02,04,100,35,05,19,121,42,06,24,068,40,09,23,083,40,1*78
$GBGSV,3,2,09,13,00,075,,16,24,064,42,21,12,051,36,27,13,315,33,1*7A
$GBGSV,3,3,09,28,54,295,35,1*4C
$GNRMC,220053.00,A,4843.26192,N,00920.55513,E,0.006,,070225,,,A,V*1F
$GNGGA,220053.00,4843.26192,N,00920.55513,E,1,12,0.47,247.5,M,47.6,M,,*4C
$GPGSV,4,1,13,01,78,110,44,02,72,131,47,03,70,272,,04,25,190,38,1*69
$GPGSV,4,2,13,08,07,175,41,09,00,205,,14,03,261,,17,42,295,30,1*69
$GPGSV,4,3,13,19,19,318,35,22,10,281,,28,19,083,47,31,13,107,,1*6B
$GPGSV,4,4,13,32,21,044,43,1*53
$GLGSV,2,1,08,66,29,038,44,67,85,070,41,68,40,214,43,74,05,321,16,1*76
$GLGSV,2,2,08,75,09,009,39,81,23,140,51,82,73,136,33,83,60,324,36,1*76
$GAGSV,3,1,10,07,60,112,48,08,28,047,41,13,25,114,40,16,01,352,,7*7C
$GAGSV,3,2,10,23,00,234,,24,08,329,33,26,79,096,40,29,30,184,45,7*74
$GAGSV,3,3,10,31,12,280,35,33,47,302,37,7*79
$GBGSV,3,1,09,02,04,100,34,05,19,121,42,06,24,068,40,09,23,083,40,1*79
$GBGSV,3,2,09,13,00,075,,16,24,064,42,21,12,051,36,27,13,315,33,1*7A
$GBGSV,3,3,09,28,54,295,35,1*4C
$GNRMC,220054.00,A,4843.26191,N,00920.55512,E,0.020,,070225,,,A,V*1E
$GNGGA,220054.00,4843.26191,N,00920.55512,E,1,12,0.47,247.6,M,47.6,M,,*4A
$GPGSV,4,1,13,01,78,110,44,02,72,131,47,03,70,272,,04,25,190,38,1*69
$GPGSV,4,2,13,08,07,175,40,09,00,205,,14,03,261,,17,42,295,31,1*69
$GPGSV,4,3,13,19,19,318,35,22,10,281,,28,19,083,47,31,13,107,,1*6B
$GPGSV,4,4,13,32,21,044,42,1*52
$GLGSV,2,1,08,66,29,038,44,67,85,070,41,68,40,214,42,74,05,321,16,1*77
$GLGSV,2,2,08,75,09,009,39,81,23,140,51,82,73,136,33,83,60,324,36,1*76
$GAGSV,3,1,10,07,60,112,48,08,28,047,41,13,25,114,40,16,01,352,,7*7C
$GAGSV,3,2,10,23,00,234,,24,08,329,32,26,79,096,40,29,30,184,45,7*75
$GAGSV,3,3,10,31,12,280,29,33,47,302,37,7*74
$GBGSV,3,1,09,02,04,100,34,05,19,121,42,06,24,068,40,09,23,083,40,1*79
$GBGSV,3,2,09,13,00,075,,16,24,064,42,21,12,051,36,27,13,315,33,1*7A
$GBGSV,3,3,09,28,54,295,36,1*4F
$GNRMC,220055.00,A,4843.26190,N,00920.55512,E,0.008,,070225,,,A,V*14
$GNGGA,220055.00,4843.26190,N,00920.55512,E,1,12,0.47,247.6,M,47.6,M,,*4A
$GPGSV,4,1,13,01,78,110,44,02,72,131,47,03,70,272,,04,25,190,38,1*69
$GPGSV,4,2,13,08,07,175,40,09,00,205,,14,03,261,,17,42,295,31,1*69
$GPGSV,4,3,13,19,19,318,35,22,10,281,,28,19,083,47,31,13,107,,1*6B
$GPGSV,4,4,13,32,21,044,43,1*53
$GLGSV,2,1,08,66,29,038,44,67,85,066,41,68,40,214,42,74,05,321,17,1*71
$GLGSV,2,2,08,75,09,009,39,81,23,140,51,82,73,136,33,83,60,324,36,1*76
$GAGSV,3,1,10,07,60,112,48,08,28,047,41,13,25,114,40,16,01,352,,7*7C
$GAGSV,3,2,10,23,00,234,,24,08,329,33,26,79,096,40,29,30,184,45,7*74
$GAGSV,3,3,10,31,12,280,35,33,47,302,37,7*79
$GBGSV,3,1,09,02,04,100,34,05,19,121,42,06,24,068,40,09,23,083,40,1*79
$GBGSV,3,2,09,13,00,075,,16,24,064,42,21,12,051,36,27,13,315,32,1*7B
$GBGSV,3,3,09,28,54,295,36,1*4F
$GNRMC,220056.00,A,4843.26189,N,00920.55511,E,0.013,,070225,,,A,V*16
$GNGGA,220056.00,4843.26189,N,00920.55511,E,1,12,0.47,247.6,M,47.6,M,,*42
$GPGSV,4,1,13,01,78,110,44,02,72,131,47,03,70,272,,04,25,190,38,1*69
$GPGSV,4,2,13,08,07,175,40,09,00,205,,14,03,261,,17,42,295,30,1*68
$GPGSV,4,3,13,19,19,318,35,22,10,281,,28,19,083,47,31,13,107,,1*6B
$GPGSV,4,4,13,32,21,044,43,1*53
$GLGSV,2,1,08,66,29,038,44,67,85,066,41,68,40,214,42,74,05,321,13,1*75
$GLGSV,2,2,08,75,09,009,41,81,23,140,51,82,73,136,33,83,60,324,36,1*79
$GAGSV,3,1,10,07,60,112,48,08,28,047,41,13,25,114,40,16,01,352,,7*7C
$GAGSV,3,2,10,23,00,234,,24,08,329,33,26,79,096,40,29,30,184,45,7*74
$GAGSV,3,3,10,31,12,280,34,33,47,302,37,7*78
$GBGSV,3,1,09,02,04,100,34,05,19,121,42,06,24,068,40,09,23,083,40,1*79
$GBGSV,3,2,09,13,00,075,,16,24,064,42,21,12,051,36,27,13,315,32,1*7B
$GBGSV,3,3,09,28,54,295,35,1*4C
$GNRMC,220057.00,A,4843.26188,N,00920.55510,E,0.005,,070225,,,A,V*10
$GNGGA,220057.00,4843.26188,N,00920.55510,E,1,12,0.47,247.6,M,47.6,M,,*43
$GPGSV,4,1,13,01,78,110,44,02,72,131,47,03,70,272,,04,25,190,37,1*66
$GPGSV,4,2,13,08,07,175,40,09,00,205,,14,03,261,,17,42,295,30,1*68
$GPGSV,4,3,13,19,19,318,35,22,10,281,,28,19,083,47,31,13,107,,1*6B
$GPGSV,4,4,13,32,21,044,43,1*53
$GLGSV,2,1,08,66,29,038,44,67,85,066,41,68,40,214,42,74,05,321,19,1*7F
$GLGSV,2,2,08,75,09,009,40,81,23,140,51,82,73,136,33,83,60,324,36,1*78
$GAGSV,3,1,10,07,60,112,47,08,28,047,41,13,25,114,40,16,01,352,,7*73
$GAGSV,3,2,10,23,00,234,,24,08,329,33,26,79,096,40,29,30,184,45,7*74
$GAGSV,3,3,10,31,12,280,34,33,47,302,37,7*78
$GBGSV,3,1,09,02,04,100,34,05,19,121,42,06,24,068,40,09,23,083,40,1*79
$GBGSV,3,2,09,13,00,075,,16,24,064,42,21,12,051,37,27,13,315,32,1*7A
$GBGSV,3,3,09,28,54,295,36,1*4F
$GNRMC,220058.00,A,4843.26188,N,00920.55509,E,0.015,,070225,,,A,V*16
$GNGGA,220058.00,4843.26188,N,00920.55509,E,1,12,0.47,247.6,M,47.6,M,,*44
$GPGSV,4,1,13,01,78,110,44,02,72,131,47,03,70,272,,04,25,190,37,1*66
$GPGSV,4,2,13,08,07,175,40,09,00,205,,14,03,261,,17,42,295,30,1*68
$GPGSV,4,3,13,19,19,318,35,22,10,281,,28,19,083,47,31,13,107,,1*6B
$GPGSV,4,4,13,32,21,044,43,1*53
$GLGSV,2,1,08,66,29,038,45,67,85,066,41,68,40,214,42,74,05,321,19,1*7E
$GLGSV,2,2,08,75,09,009,41,81,23,140,51,82,73,136,33,83,60,324,36,1*79
$GAGSV,3,1,10,07,60,112,48,08,28,047,41,13,25,114,40,16,01,352,,7*7C
$GAGSV,3,2,10,23,00,234,,24,08,329,33,26,79,096,40,29,30,184,44,7*75
$GAGSV,3,3,10,31,12,280,34,33,47,302,37,7*78
$GBGSV,3,1,09,02,04,100,34,05,19,121,42,06,24,068,40,09,23,083,40,1*79
$GBGSV,3,2,09,13,00,075,,16,24,064,42,21,12,051,36,27,13,315,32,1*7B
$GBGSV,3,3,09,28,54,295,36,1*4F
$GNRMC,220059.00,A,4843.26187,N,00920.55507,E,0.017,,070225,,,A,V*14
$GNGGA,220059.00,4843.26187,N,00920.55507,E,1,12,0.47,247.6,M,47.6,M,,*44
$GPGSV,4,1,13,01,78,110,44,02,72,131,47,03,70,272,,04,25,190,36,1*67
$GPGSV,4,2,13,08,07,175,39,09,00,205,,14,03,261,,17,42,295,30,1*66
$GPGSV,4,3,13,19,19,318,35,22,10,281,,28,19,083,47,31,13,107,,1*6B
$GPGSV,4,4,13,32,21,044,43,1*53
$GLGSV,2,1,08,66,29,038,45,67,85,066,41,68,40,214,41,74,05,321,16,1*72
$GLGSV,2,2,08,75,09,009,41,81,23,140,50,82,73,136,33,83,60,324,37,1*79
$GAGSV,3,1,10,07,60,112,47,08,28,047,41,13,25,114,40,16,01,352,,7*73
$GAGSV,3,2,10,23,00,234,,24,08,329,33,26,79,096,40,29,30,184,44,7*75
$GAGSV,3,3,10,31,12,280,34,33,47,302,37,7*78
$GBGSV,3,1,09,02,04,100,34,05,19,121,42,06,24,068,40,09,23,083,40,1*79
$GBGSV,3,2,09,13,00,075,,16,24,064,42,21,12,051,37,27,13,315,32,1*7A
$GBGSV,3,3,09,28,54,295,36,1*4F
$GNRMC,220100.00,A,4843.26187,N,00920.55505,E,0.013,,070225,,,A,V*1F
$GNGGA,220100.00,4843.26187,N,00920.55505,E,1,12,0.47,247.6,M,47.6,M,,*4B
$GPGSV,4,1,13,01,78,110,44,02,72,131,47,03,70,272,,04,25,190,36,1*67
$GPGSV,4,2,13,08,07,175,39,09,00,205,,14,03,261,,17,42,295,30,1*66
$GPGSV,4,3,13,19,19,318,34,22,10,281,,28,19,083,47,31,13,107,,1*6A
$GPGSV,4,4,13,32,21,044,43,1*53
$GLGSV,2,1,08,66,29,038,45,67,85,066,41,68,40,214,41,74,05,321,21,1*76
$GLGSV,2,2,08,75,09,009,41,81,23,140,51,82,73,136,33,83,60,324,37,1*78
$GAGSV,3,1,10,07,60,112,47,08,28,047,41,13,25,114,40,16,01,352,,7*73
$GAGSV,3,2,10,23,00,234,,24,08,329,33,26,79,096,39,29,30,184,44,7*7B
$GAGSV,3,3,10,31,12,280,34,33,47,302,37,7*78
$GBGSV,3,1,09,02,04,100,34,05,19,121,42,06,24,068,40,09,23,083,40,1*79
$GBGSV,3,2,09,13,00,075,,16,24,064,42,21,12,051,37,27,13,315,32,1*7A
$GBGSV,3,3,09,28,54,295,36,1*4F
$GNRMC,220101.00,A,4843.26186,N,00920.55503,E,0.010,,070225,,,A,V*1A
$GNGGA,220101.00,4843.26186,N,00920.55503,E,1,12,0.47,247.6,M,47.6,M,,*4D
$GPGSV,4,1,13,01,78,110,45,02,72,131,47,03,70,272,,04,25,190,37,1*67
$GPGSV,4,2,13,08,07,175,39,09,00,205,,14,03,261,,17,42,295,30,1*66
$GPGSV,4,3,13,19,19,318,34,22,10,281,,28,19,083,47,31,13,107,,1*6A
$GPGSV,4,4,13,32,21,044,43,1*53
$GLGSV,2,1,08,66,29,038,45,67,85,066,40,68,40,214,40,74,05,321,23,1*74
$GLGSV,2,2,08,75,09,009,41,81,23,140,50,82,73,136,32,83,60,324,37,1*78
$GAGSV,3,1,10,07,60,112,47,08,28,047,41,13,25,114,40,16,01,352,,7*73
$GAGSV,3,2,10,23,00,234,,24,08,329,32,26,79,096,39,29,30,184,44,7*7A
$GAGSV,3,3,10,31,12,280,34,33,47,302,37,7*78
$GBGSV,3,1,09,02,04,100,34,05,19,121,42,06,24,068,40,09,23,083,40,1*79
$GBGSV,3,2,09,13,00,075,,16,24,064,42,21,12,051,37,27,13,315,32,1*7A
$GBGSV,3,3,09,28,54,295,36,1*4F
$GNRMC,220102.00,A,4843.26185,N,00920.55502,E,0.009,,070225,,,A,V*13
$GNGGA,220102.00,4843.26185,N,00920.55502,E,1,12,0.47,247.6,M,47.6,M,,*4C
$GPGSV,4,1,13,01,78,110,45,02,72,131,47,03,70,272,,04,25,190,36,1*66
$GPGSV,4,2,13,08,07,175,39,09,00,205,,14,03,261,,17,42,295,31,1*67
$GPGSV,4,3,13,19,19,318,35,22,10,281,,28,19,083,47,31,13,107,,1*6B
$GPGSV,4,4,13,32,21,044,43,1*53
$GLGSV,2,1,08,66,29,038,45,67,85,066,40,68,40,214,40,74,04,321,23,1*75
$GLGSV,2,2,08,75,09,009,41,81,23,140,50,82,73,136,32,83,60,324,37,1*78
$GAGSV,3,1,10,07,60,112,47,08,28,047,41,13,25,114,40,16,01,352,,7*73
$GAGSV,3,2,10,23,00,234,,24,08,329,33,26,79,096,39,29,30,184,44,7*7B
$GAGSV,3,3,10,31,12,280,34,33,47,302,37,7*78
$GBGSV,3,1,09,02,04,100,34,05,19,121,42,06,24,068,40,09,23,083,39,1*77
$GBGSV,3,2,09,13,00,075,,16,24,064,42,21,12,051,37,27,13,315,31,1*79
$GBGSV,3,3,09,28,54,295,36,1*4F
$GNRMC,220103.00,A,4843.26185,N,00920.55500,E,0.006,,070225,,,A,V*1F
$GNGGA,220103.00,4843.26185,N,00920.55500,E,1,12,0.47,247.5,M,47.6,M,,*4C
$GPGSV,4,1,13,01,78,110,45,02,72,131,47,03,70,272,,04,25,190,36,1*66
$GPGSV,4,2,13,08,07,175,39,09,00,205,,14,03,261,,17,42,295,31,1*67
$GPGSV,4,3,13,19,19,318,34,22,10,281,,28,19,083,47,31,13,107,,1*6A
$GPGSV,4,4,13,32,21,044,43,1*53
$GLGSV,2,1,08,66,29,038,45,67,85,066,40,68,40,214,40,74,04,321,24,1*72
$GLGSV,2,2,08,75,09,008,41,81,23,140,51,82,73,136,32,83,60,324,37,1*78
$GAGSV,3,1,10,07,60,112,47,08,28,047,42,13,25,114,40,16,01,352,,7*70
$GAGSV,3,2,10,23,00,234,,24,08,329,33,26,79,096,39,29,30,184,44,7*7B
$GAGSV,3,3,10,31,12,280,34,33,47,302,37,7*78
$GBGSV,3,1,09,02,04,100,34,05,19,121,42,06,24,068,40,09,23,083,40,1*79
$GBGSV,3,2,09,13,00,075,,16,24,064,42,21,12,051,37,27,13,315,31,1*79
$GBGSV,3,3,09,28,54,295,36,1*4F
$GNRMC,220104.00,A,4843.26184,N,00920.55498,E,0.003,,070225,,,A,V*1C
$GNGGA,220104.00,4843.26184,N,00920.55498,E,1,12,0.47,247.5,M,47.6,M,,*4A
$GPGSV,4,1,13,01,78,110,45,02,72,131,47,03,70,272,,04,25,190,36,1*66
$GPGSV,4,2,13,08,07,175,39,09,00,205,,14,03,261,,17,42,295,31,1*67
$GPGSV,4,3,13,19,19,318,34,22,10,281,,28,19,083,47,31,13,107,,1*6A
$GPGSV,4,4,13,32,21,044,43,1*53
$GLGSV,2,1,08,66,29,038,44,67,85,066,40,68,40,214,40,74,04,321,25,1*72
$GLGSV,2,2,08,75,09,008,41,81,23,140,51,82,73,136,32,83,60,324,37,1*78
$GAGSV,3,1,10,07,60,112,47,08,28,047,42,13,25,114,40,16,01,352,,7*70
$GAGSV,3,2,10,23,00,234,,24,08,329,33,26,79,096,39,29,30,184,44,7*7B
$GAGSV,3,3,10,31,12,280,34,33,47,302,37,7*78
$GBGSV,3,1,09,02,04,100,34,05,19,121,42,06,24,068,40,09,23,083,39,1*77
$GBGSV,3,2,09,13,00,075,,16,24,064,42,21,12,051,37,27,13,315,31,1*79
$GBGSV,3,3,09,28,54,295,37,1*4E
$GNRMC,220105.00,A,4843.26183,N,00920.55498,E,0.010,,070225,,,A,V*18
$GNGGA,220105.00,4843.26183,N,00920.55498,E,1,12,0.47,247.5,M,47.6,M,,*4C
$GPGSV,4,1,13,01,78,110,45,02,72,131,47,03,70,272,,04,25,190,35,1*65
$GPGSV,4,2,13,08,07,175,39,09,00,205,,14,03,261,,17,42,295,31,1*67
$GPGSV,4,3,13,19,19,318,34,22,10,281,,28,19,083,46,31,13,107,,1*6B
$GPGSV,4,4,13,32,21,044,43,1*53
$GLGSV,2,1,08,66,29,038,44,67,85,066,40,68,40,214,40,74,04,321,25,1*72
$GLGSV,2,2,08,75,09,008,41,81,23,140,50,82,73,136,31,83,60,324,38,1*75
$GAGSV,3,1,10,07,60,112,47,08,28,047,42,13,25,114,41,16,01,352,,7*71
$GAGSV,3,2,10,23,00,234,,24,08,329,33,26,79,096,39,29,30,184,44,7*7B
$GAGSV,3,3,10,31,12,280,33,33,47,302,37,7*7F
$GBGSV,3,1,09,02,04,100,34,05,19,121,42,06,24,068,40,09,23,083,40,1*79
$GBGSV,3,2,09,13,00,075,,16,24,064,42,21,12,051,37,27,13,315,30,1*78
$GBGSV,3,3,09,28,54,295,36,1*4F
$GNRMC,220106.00,A,4843.26182,N,00920.55497,E,0.012,,070225,,,A,V*17
$GNGGA,220106.00,4843.26182,N,00920.55497,E,1,12,0.47,247.5,M,47.6,M,,*41
$GPGSV,4,1,13,01,78,110,45,02,72,131,47,03,70,272,,04,25,190,34,1*64
$GPGSV,4,2,13,08,07,175,39,09,00,205,,14,03,261,,17,42,295,31,1*67
$GPGSV,4,3,13,19,19,318,34,22,10,281,,28,19,083,46,31,13,107,,1*6B
$GPGSV,4,4,13,32,21,044,43,1*53
$GLGSV,2,1,08,66,29,038,44,67,85,066,40,68,40,214,40,74,04,321,26,1*71
$GLGSV,2,2,08,75,09,008,41,81,23,140,50,82,73,136,31,83,60,324,38,1*75
$GAGSV,3,1,10,07,60,112,47,08,28,047,42,13,25,114,41,16,01,352,,7*71
$GAGSV,3,2,10,23,00,234,,24,08,329,33,26,79,096,39,29,30,184,44,7*7B
$GBGSV,3,1,09,02,04,100,34,05,19,121,42,06,24,068,40,09,23,083,40,1*79
$GBGSV,3,2,09,13,00,075,,16,24,064,42,21,12,051,38,27,13,315,30,1*77
$GBGSV,3,3,09,28,54,295,36,1*4F
$GNRMC,220107.00,A,4843.26181,N,00920.55496,E,0.018,,070225,,,A,V*1E
$GNGGA,220107.00,4843.26181,N,00920.55496,E,1,12,0.47,247.5,M,47.6,M,,*42
$GPGSV,4,1,13,01,78,110,45,02,72,131,47,03,70,272,,04,25,190,34,1*64
$GPGSV,4,2,13,08,07,175,39,09,00,205,,14,03,261,,17,42,295,31,1*67
$GPGSV,4,3,13,19,19,318,34,22,10,281,,28,19,083,46,31,13,107,,1*6B
$GPGSV,4,4,13,32,21,044,43,1*53
$GLGSV,2,1,08,66,29,038,44,67,85,066,40,68,40,214,41,74,04,321,26,1*70
$GLGSV,2,2,08,75,09,008,41,81,23,140,51,82,73,136,30,83,60,324,38,1*75
$GAGSV,3,1,10,07,60,112,47,08,28,047,42,13,25,114,41,16,01,352,,7*71
$GAGSV,3,2,10,23,00,234,,24,08,329,33,26,79,096,39,29,30,184,44,7*7B
$GAGSV,3,3,10,31,12,280,33,33,47,302,37,7*7F
$GBGSV,3,1,09,02,04,100,34,05,19,121,42,06,24,068,40,09,23,083,40,1*79
$GBGSV,3,2,09,13,00,075,,16,24,064,42,21,12,051,38,27,13,315,30,1*77
$GBGSV,3,3,09,28,54,295,36,1*4F
$GNRMC,220108.00,A,4843.26180,N,00920.55495,E,0.008,,070225,,,A,V*12
$GNGGA,220108.00,4843.26180,N,00920.55495,E,1,12,0.47,247.5,M,47.6,M,,*4F
$GPGSV,4,1,13,01,78,110,45,02,72,131,47,03,70,272,,04,25,190,34,1*64
$GPGSV,4,2,13,08,07,175,39,09,00,205,,14,03,261,,17,42,295,31,1*67
$GPGSV,4,3,13,19,19,318,34,22,10,281,,28,19,083,46,31,13,107,,1*6B
$GPGSV,4,4,13,32,21,044,43,1*53
$GLGSV,2,1,08,66,29,038,44,67,85,066,39,68,40,214,41,74,04,321,26,1*7E
$GLGSV,2,2,08,75,09,008,41,81,23,140,51,82,73,136,30,83,60,324,37,1*7A
$GAGSV,3,1,10,07,60,112,47,08,28,047,42,13,25,114,41,16,01,352,,7*71
$GAGSV,3,2,10,23,00,234,,24,08,329,33,26,79,096,39,29,30,184,44,7*7B
$GAGSV,3,3,10,31,12,280,33,33,47,302,37,7*7F
$GBGSV,3,1,09,02,04,100,34,05,19,121,42,06,24,068,40,09,23,083,40,1*79
$GBGSV,3,2,09,13,00,075,,16,24,064,42,21,12,051,38,27,13,315,29,1*7F
$GBGSV,3,3,09,28,54,295,36,1*4F
