$GNRMC,090000.00,A,4843.26133,N,00920.55338,E,0.005,,080225,,,A,V*18
$GNGGA,090000.00,4843.26133,N,00920.55338,E,1,12,0.44,253.3,M,47.6,M,,*47
$GPGSV,4,1,14,01,01,010,,06,00,107,,10,18,294,,12,53,236,,1*60
$GPGSV,4,2,14,13,13,155,40,14,00,060,,15,32,186,45,17,26,048,42,1*62
$GPGSV,4,3,14,19,44,081,47,22,20,058,43,23,12,252,41,24,88,345,39,1*60
$GPGSV,4,4,14,25,16,242,,32,10,322,41,1*63
$GLGSV,3,1,09,65,53,261,36,66,29,326,43,72,23,194,31,74,39,058,37,1*77
$GLGSV,3,2,09,75,69,320,38,76,18,264,43,83,14,017,37,84,26,082,40,1*72
$GLGSV,3,3,09,85,08,131,,1*47
$GAGSV,3,1,11,03,00,324,,04,19,159,38,05,45,301,33,06,42,172,44,7*7F
$GAGSV,3,2,11,09,61,199,39,13,06,014,36,16,18,236,32,23,27,058,44,7*72
$GAGSV,3,3,11,24,43,234,37,26,08,062,,31,80,068,,7*4F
$GBGSV,3,1,10,05,15,124,38,07,17,047,38,10,29,055,41,19,37,233,,1*70
$GBGSV,3,2,10,20,10,191,42,21,01,339,,22,32,300,31,27,25,122,48,1*7E
$GBGSV,3,3,10,28,28,073,49,30,03,165,,1*7C
$GNRMC,090001.00,A,4843.26131,N,00920.55338,E,0.008,,080225,,,A,V*16
$GNGGA,090001.00,4843.26131,N,00920.55338,E,1,12,0.44,253.3,M,47.6,M,,*44
$GPGSV,4,1,14,01,01,010,,06,00,107,,10,18,294,,12,53,236,,1*60
$GPGSV,4,2,14,13,13,155,40,14,00,060,,15,32,186,46,17,26,048,43,1*60
$GPGSV,4,3,14,19,44,081,47,22,20,058,43,23,12,252,41,24,88,345,39,1*60
$GPGSV,4,4,14,25,16,242,,32,10,322,40,1*62
$GLGSV,3,1,09,65,53,261,35,66,29,326,43,72,23,194,32,74,39,058,37,1*77
$GLGSV,3,2,09,75,69,320,38,76,18,264,43,83,14,017,38,84,26,082,40,1*7D
$GLGSV,3,3,09,85,08,131,,1*47
$GAGSV,3,1,11,03,00,324,,04,19,159,38,05,45,301,33,06,42,172,44,7*7F
$GAGSV,3,2,11,09,61,199,39,13,06,014,35,16,18,236,32,23,27,058,44,7*71
$GAGSV,3,3,11,24,43,234,37,26,08,062,,31,80,068,,7*4F
$GBGSV,3,1,10,05,15,124,38,07,17,047,38,10,29,055,41,19,37,233,,1*70
$GBGSV,3,2,10,20,10,191,43,21,01,339,,22,32,300,31,27,25,122,48,1*7F
$GBGSV,3,3,10,28,28,073,49,30,03,165,,1*7C
$GNRMC,090002.00,A,4843.26129,N,00920.55339,E,0.015,,080225,,,A,V*11
$GNGGA,090002.00,4843.26129,N,00920.55339,E,1,12,0.44,253.3,M,47.6,M,,*4F
$GPGSV,4,1,14,01,01,010,,06,00,107,,10,18,294,,12,53,236,,1*60
$GPGSV,4,2,14,13,13,155,40,14,00,060,,15,32,186,46,17,26,048,43,1*60
$GPGSV,4,3,14,19,44,081,47,22,20,058,43,23,12,252,41,24,88,345,40,1*6E
$GPGSV,4,4,14,25,16,242,,32,10,322,40,1*62
$GLGSV,3,1,09,65,53,261,35,66,29,326,43,72,23,194,32,74,39,058,37,1*77
$GLGSV,3,2,09,75,69,320,38,76,18,264,43,83,14,017,38,84,26,082,41,1*7C
$GLGSV,3,3,09,85,08,131,,1*47
$GAGSV,3,1,11,03,00,324,,04,19,159,38,05,45,301,33,06,42,172,43,7*78
$GAGSV,3,2,11,09,61,199,39,13,06,014,35,16,18,236,32,23,27,058,44,7*71
$GAGSV,3,3,11,24,43,234,37,26,08,062,,31,80,068,,7*4F
$GBGSV,3,1,10,05,15,124,38,07,17,047,38,10,29,055,41,19,37,233,,1*70
$GBGSV,3,2,10,20,10,191,43,21,01,339,,22,32,300,30,27,25,122,48,1*7E
$GBGSV,3,3,10,28,28,073,49,30,03,165,,1*7C
$GNRMC,090003.00,A,4843.26128,N,00920.55339,E,0.004,,080225,,,A,V*11
$GNGGA,090003.00,4843.26128,N,00920.55339,E,1,12,0.44,253.2,M,47.6,M,,*4E
$GPGSV,4,1,14,01,01,010,,06,00,107,,10,18,294,,12,53,236,,1*60
$GPGSV,4,2,14,13,13,155,40,14,00,060,,15,32,186,46,17,26,048,43,1*60
$GPGSV,4,3,14,19,44,081,46,22,20,058,43,23,12,252,41,24,88,345,40,1*6F
$GPGSV,4,4,14,25,16,242,,32,10,322,40,1*62
$GLGSV,3,1,09,65,53,261,35,66,29,326,43,72,23,194,31,74,39,058,37,1*74
$GLGSV,3,2,09,75,69,320,39,76,18,264,43,83,14,017,38,84,26,082,41,1*7D
$GLGSV,3,3,09,85,08,131,,1*47
$GAGSV,3,1,11,03,00,324,,04,19,159,38,05,45,301,33,06,42,172,43,7*78
$GAGSV,3,2,11,09,61,199,38,13,06,014,35,16,18,236,33,23,27,058,44,7*71
$GAGSV,3,3,11,24,43,234,37,26,08,062,,31,80,068,,7*4F
$GBGSV,3,1,10,05,15,124,38,07,17,047,38,10,29,055,41,19,37,233,,1*70
$GBGSV,3,2,10,20,10,191,43,21,01,339,,22,32,300,30,27,25,122,48,1*7E
$GBGSV,3,3,10,28,28,073,49,30,03,165,,1*7C
$GNRMC,090004.00,A,4843.26126,N,00920.55339,E,0.004,,080225,,,A,V*18
$GNGGA,090004.00,4843.26126,N,00920.55339,E,1,12,0.44,253.2,M,47.6,M,,*47
$GPGSV,4,1,14,01,01,010,,06,00,107,,10,18,294,,12,53,236,,1*60
$GPGSV,4,2,14,13,13,155,40,14,00,060,,15,32,186,46,17,26,048,43,1*60
$GPGSV,4,3,14,19,44,081,46,22,20,058,43,23,12,252,41,24,88,345,40,1*6F
$GPGSV,4,4,14,25,16,242,,32,10,322,41,1*63
$GLGSV,3,1,09,65,53,261,35,66,29,326,43,72,23,194,32,74,39,058,38,1*78
$GLGSV,3,2,09,75,69,320,39,76,18,264,43,83,14,017,38,84,26,082,41,1*7D
$GLGSV,3,3,09,85,08,131,,1*47
$GAGSV,3,1,11,03,00,324,,04,19,159,38,05,45,301,32,06,42,172,43,7*79
$GAGSV,3,2,11,09,61,199,38,13,06,014,35,16,18,236,33,23,27,058,44,7*71
$GAGSV,3,3,11,24,43,234,37,26,08,062,,31,80,068,,7*4F
$GBGSV,3,1,0,05,15,124,38,07,17,047,37,10,29,055,41,19,37,233,,1*7F
$GBGSV,3,2,10,20,10,191,43,21,01,339,,22,32,300,30,27,25,122,48,1*7E
$GBGSV,3,3,10,28,28,073,49,30,03,165,,1*7C
$GNRMC,090005.00,A,4843.26124,N,00920.55339,E,0.009,,080225,,,A,V*16
$GNGGA,090005.00,4843.26124,N,00920.55339,E,1,12,0.44,253.2,M,47.6,M,,*44
$GPGSV,4,1,14,01,01,010,,06,00,107,,10,18,294,,12,53,236,,1*60
$GPGSV,4,2,14,13,13,155,40,14,00,060,,15,32,186,46,17,26,048,43,1*60
$GPGSV,4,3,14,19,44,081,46,22,20,058,43,23,12,252,41,24,88,345,40,1*6F
$GPGSV,4,4,14,25,16,242,,32,10,322,41,1*63
$GLGSV,3,1,09,65,53,261,36,66,29,326,43,72,23,194,32,74,39,058,38,1*7B
$GLGSV,3,2,09,75,69,320,40,76,18,264,43,83,14,017,38,84,26,082,41,1*73
$GLGSV,3,3,09,85,08,131,,1*47
$GAGSV,3,1,11,03,00,324,,04,19,159,37,05,45,301,32,06,42,172,43,7*76
$GAGSV,3,2,11,09,61,199,38,13,06,014,35,16,18,236,33,23,27,058,44,7*71
$GAGSV,3,3,11,24,43,234,37,26,08,062,,31,80,068,,7*4F
$GBGSV,3,1,10,05,15,124,38,07,17,047,37,10,29,055,41,19,37,233,,1*7F
$GBGSV,3,2,10,20,10,191,43,21,01,339,,22,32,300,30,27,25,122,47,1*71
$GBGSV,3,3,10,28,28,073,49,30,03,165,,1*7C
$GNRMC,090006.00,A,4843.26122,N,00920.55338,E,0.006,,080225,,,A,V*1D
$GNGGA,090006.00,4843.26122,N,00920.55338,E,1,12,0.44,253.2,M,47.6,M,,*40
$GPGSV,4,1,14,01,01,010,,06,00,107,,10,18,294,,12,53,236,,1*60
$GPGSV,4,2,14,13,13,155,39,14,00,060,,15,32,186,46,17,26,048,43,1*6E
$GPGSV,4,3,14,19,44,081,46,22,20,058,43,23,12,252,41,24,88,345,41,1*6E
$GPGSV,4,4,14,25,16,242,,32,10,322,41,1*63
$GLGSV,3,1,09,65,53,261,36,66,29,326,43,72,23,194,33,74,39,058,38,1*7A
$GLGSV,3,2,09,75,69,320,40,76,18,264,43,83,14,017,38,84,26,082,41,1*73
$GLGSV,3,3,09,85,08,131,,1*47
$GAGSV,3,1,11,03,00,324,,04,19,159,37,05,45,301,32,06,42,172,43,7*76
$GAGSV,3,2,11,09,61,199,38,13,06,014,35,16,18,236,33,23,27,058,44,7*71
$GAGSV,3,3,11,24,43,234,37,26,08,062,,31,80,068,,7*4F
$GBGSV,3,1,10,05,15,124,38,07,17,047,37,10,29,055,41,19,37,233,,1*7F
$GBGSV,3,2,10,20,10,191,43,21,01,339,,22,32,300,30,27,25,122,47,1*71
$GBGSV,3,3,10,28,28,073,49,30,03,165,,1*7C
$GNRMC,090007.00,A,4843.26121,N,00920.55338,E,0.005,,080225,,,A,V*1C
$GNGGA,090007.00,4843.26121,N,00920.55338,E,1,12,0.44,253.2,M,47.6,M,,*42
$GPGSV,4,1,14,01,01,010,,06,00,107,,10,18,294,,12,53,236,,1*60
$GPGSV,4,2,14,13,13,155,39,14,00,060,,15,32,186,46,17,26,048,43,1*6E
$GPGSV,4,3,14,19,44,081,45,22,20,058,43,23,12,252,40,24,88,345,41,1*6C
$GPGSV,4,4,14,25,16,242,,32,10,322,41,1*63
$GLGSV,3,1,09,65,53,261,36,66,29,326,43,72,23,194,32,74,39,058,38,1*7B
$GLGSV,3,2,09,75,69,320,41,76,18,264,43,83,14,017,38,84,26,082,41,1*72
$GLGSV,3,3,09,85,08,131,,1*47
$GAGSV,3,1,11,03,00,324,,04,19,159,36,05,45,301,32,06,42,172,43,7*77
$GAGSV,3,2,11,09,61,199,38,13,06,014,36,16,18,236,33,23,27,058,43,7*75
$GAGSV,3,3,11,24,43,234,37,26,08,062,,31,80,068,,7*4F
$GBGSV,3,110,05,15,124,38,07,17,047,37,10,29,055,41,19,37,233,,1*7F
$GBGSV,3,2,10,20,10,191,43,21,01,339,,22,32,300,30,27,25,122,47,1*71
$GBGSV,3,3,10,28,28,073,50,30,03,165,,1*74
$GNRMC,090008.00,A,4843.26119,N,00920.55337,E,0.009,,080225,,,A,V*1B
$GNGGA,090008.00,4843.26119,N,00920.55337,E,1,12,0.44,253.2,M,47.6,M,,*49
$GPGSV,4,1,14,01,01,010,,06,00,107,,10,18,294,,12,53,236,,1*60
$GPGSV,4,2,14,13,13,155,39,14,00,060,,15,32,186,45,17,26,048,43,1*6D
$GPGSV,4,3,14,19,44,081,45,22,20,058,43,23,12,252,40,24,88,345,41,1*6C
$GPGSV,4,4,14,25,16,242,,32,10,322,41,1*63
$GLGSV,3,1,09,65,53,261,35,66,29,326,43,72,23,194,32,74,39,058,38,1*78
$GLGSV,3,2,09,75,69,320,41,76,18,264,43,83,14,017,37,84,26,082,41,1*7D
$GLGSV,3,3,09,85,08,131,,1*47
$GAGSV,3,1,11,03,00,324,,04,19,159,36,05,45,301,32,06,42,172,43,7*77
$GAGSV,3,2,11,09,61,199,38,13,06,014,36,16,18,236,33,23,27,058,43,7*75
$GAGSV,3,3,11,24,43,234,37,26,08,062,,31,80,068,,7*4F
$GBGSV,3,1,10,05,15,124,38,07,17,047,38,10,29,055,41,19,37,233,,1*70
$GBGSV,3,2,10,20,10,191,43,21,01,339,,22,32,300,29,27,25,122,47,1*79
$GBGSV,3,3,10,28,28,073,50,30,03,165,,1*74
$GNRMC,090009.00,A,4843.26118,N,00920.55335,E,0.071,,080225,,,A,V*16
$GNGGA,090009.00,4843.26118,N,00920.55335,E,1,12,0.44,253.2,M,47.6,M,,*4B
$GPGSV,4,1,14,01,01,010,,06,00,107,,10,18,294,,12,53,236,,1*60
$GPGSV,4,2,14,13,13,155,39,14,00,060,,15,32,186,46,17,26,048,43,1*6E
$GPGSV,4,3,14,19,44,081,45,22,20,058,43,23,12,252,40,24,88,345,40,1*6D
$GPGSV,4,4,14,25,16,242,,32,10,322,41,1*63
$GLGSV,3,1,09,65,53,261,34,66,29,326,43,72,23,194,32,74,39,058,38,1*79
$GLGSV,3,2,09,75,69,320,41,76,18,264,43,83,14,017,37,84,26,082,41,1*7D
$GLGSV,3,3,09,85,08,131,,1*47
$GAGSV,3,1,11,03,00,324,,04,19,159,35,05,45,301,32,06,42,172,42,7*75
$GAGSV,3,2,11,09,61,199,38,13,06,014,36,16,18,236,33,23,27,058,43,7*75
$GAGSV,3,3,11,24,43,234,37,26,08,062,,31,80,068,,7*4F
$GBGSV,3,1,10,05,15,124,38,07,17,047,37,10,29,055,41,19,37,233,,1*7F
$GBGSV,3,2,10,20,10,191,43,21,01,339,,22,32,300,29,27,25,122,47,1*79
$GBGSV,3,3,10,28,28,073,50,30,03,165,,1*74
$GNRMC,090010.00,A,4843.26117,N,00920.55334,E,0.003,,080225,,,A,V*15
$GNGGA,090010.00,4843.26117,N,00920.55334,E,1,12,0.44,253.2,M,47.6,M,,*4D
$GPGSV,4,1,14,01,01,010,,06,00,107,,10,18,294,,12,53,236,,1*60
$GPGSV,4,2,14,13,13,155,39,14,00,060,,15,32,186,46,17,26,048,43,1*6E
$GPGSV,4,3,14,19,44,081,45,22,20,058,43,23,12,252,41,24,88,345,40,1*6C
$GPGSV,4,4,14,25,16,242,,32,10,322,41,1*63
$GLGSV,3,1,09,65,53,260,34,66,29,325,43,72,22,194,32,74,38,058,39,1*7A
$GLGSV,3,2,09,75,69,322,41,76,19,264,42,83,14,016,37,84,26,082,41,1*7E
$GLGSV,3,3,09,85,08,131,,1*47
$GAGSV,3,1,11,03,00,324,,04,19,159,35,05,45,301,31,06,42,172,42,7*76
$GAGSV,3,2,11,09,61,199,39,1,06,014,36,16,18,236,32,23,27,058,43,7*75
$GAGSV,3,3,11,24,43,234,37,26,08,062,,31,80,068,,7*4F
$GBGSV,3,1,10,05,15,124,38,07,17,047,38,10,29,055,41,19,37,233,,1*70
$GBGSV,3,2,10,20,10,191,43,21,01,339,,22,32,300,29,27,25,122,47,1*79
$GBGSV,3,3,10,28,28,073,50,30,03,165,,1*74
$GNRMC,090011.00,A,4843.26114,N,00920.55335,E,0.020,,080225,,,A,V*17
$GNGGA,090011.00,4843.26114,N,00920.55335,E,1,12,0.44,253.3,M,47.6,M,,*4F
$GPGSV,4,1,14,01,01,010,,06,00,107,,10,18,294,,12,53,236,,1*60
$GPGSV,4,2,14,13,13,155,40,14,00,060,,15,32,186,45,17,26,048,43,1*63
$GPGSV,4,3,14,19,44,081,45,22,20,058,43,23,12,252,41,24,88,345,40,1*6C
$GPGSV,4,4,14,25,16,242,,32,10,322,41,1*63
$GLGSV,3,1,09,65,53,260,33,66,29,325,43,72,22,194,32,74,38,058,39,1*7D
$GLGSV,3,2,09,75,69,322,42,76,19,264,42,83,14,016,37,84,26,082,41,1*7D
$GLGSV,3,3,09,85,08,131,,1*47
$GAGSV,3,1,11,03,00,324,,04,19,159,34,05,45,301,31,06,42,172,42,7*77
$GAGSV,3,2,11,09,61,199,39,13,06,014,36,16,18,236,32,23,27,058,43,7*75
$GAGSV,3,3,11,24,43,234,37,26,08,062,,31,80,068,,7*4F
$GBGSV,3,1,10,05,15,124,38,07,17,047,37,10,29,055,41,19,37,233,,1*7F
$GBGSV,3,2,10,20,10,191,43,21,01,339,,22,32,300,29,27,25,122,47,1*79
$GBGSV,3,3,10,28,28,073,49,30,03,165,,1*7C
$GNRMC,090012.00,A,4843.26112,N,00920.55335,E,0.015,,080225,,,A,V*14
$GNGGA,090012.00,4843.26112,N,00920.55335,E,1,12,0.44,253.3,M,47.6,M,,*4A
$GPGSV,4,1,14,01,01,010,,06,00,107,,10,18,294,,12,53,236,,1*60
$GPGSV,4,2,14,13,13,155,40,14,00,060,,15,32,186,46,17,26,048,43,1*60
$GPGSV,4,3,14,19,44,081,45,22,20,058,43,23,12,252,41,24,88,345,40,1*6C
$GPGSV,4,4,14,25,16,242,,32,10,322,41,1*63
$GLGSV,3,1,09,65,53,260,33,66,29,325,43,72,22,194,32,74,38,058,39,1*7D
$GLGSV,3,2,09,75,69,322,42,76,19,264,41,83,14,016,36,84,26,082,41,1*7F
$GLGSV,3,3,09,85,08,131,,1*47
$GAGSV,3,1,11,03,00,324,,04,19,159,34,05,45,301,31,06,42,172,42,7*77
$GAGSV,3,2,11,09,61,199,39,13,06,014,36,16,18,236,33,23,27,058,43,7*74
$GAGSV,3,3,11,24,43,234,3,26,08,062,,31,80,068,,7*4F
$GBGSV,3,1,10,05,15,124,38,07,17,047,37,10,28,055,41,19,37,233,,1*7E
$GBGSV,3,2,10,20,10,191,42,21,01,339,,22,32,300,29,27,25,122,47,1*78
$GBGSV,3,3,10,28,28,073,49,30,03,165,,1*7C
$GNRMC,09003.00,A,4843.26110,N,00920.55337,E,0.012,,080225,,,A,V*12
$GNGGA,090013.00,4843.26110,N,00920.55337,E,1,12,0.44,253.4,M,47.6,M,,*4C
$GPGSV,4,1,14,01,01,010,,06,00,107,,10,18,294,,12,53,236,,1*60
$GPGSV,4,2,14,13,13,155,40,14,00,060,,15,32,186,46,17,26,048,43,1*60
$GPGSV,4,3,14,19,44,081,45,22,20,058,43,23,12,252,41,24,88,345,40,1*6C
$GPGSV,4,4,14,25,16,242,,32,10,322,41,1*63
$GLGSV,3,1,09,65,53,260,33,66,29,325,43,72,22,194,33,74,38,058,38,1*7D
$GLGSV,3,2,09,75,69,322,42,76,19,264,41,83,14,016,36,84,26,082,41,1*7F
$GLGSV,3,3,09,85,08,131,,1*47
$GAGSV,3,1,11,03,00,324,,04,19,159,33,05,45,301,32,06,42,172,42,7*73
$GAGSV,3,2,11,09,6,199,39,13,06,014,36,16,18,236,33,23,27,058,43,7*74
$GAGSV,3,3,11,24,43,234,37,26,08,062,,31,80,068,,7*4F
$GBGSV,3,1,10,05,15,124,38,07,17,047,37,10,28,055,41,19,37,233,,1*7E
$GBGSV,3,2,10,20,10,191,42,21,01,339,,22,32,300,28,27,25,122,46,1*78
$GBGSV,3,3,10,28,28,073,49,30,03,165,,1*7C
$GNRMC,090014.00,A,4843.26107,N,00920.55338,E,0.017,,080225,,,A,V*19
$GNGGA,090014.00,4843.26107,N,00920.55338,E,1,12,0.44,253.4,M,47.6,M,,*42
$GPGSV,4,1,14,01,01,010,,06,00,107,,10,18,294,,12,53,236,,1*60
$GPGSV,4,2,14,13,13,155,40,14,00,060,,15,32,186,47,17,26,048,43,1*61
$GPGSV,4,3,14,19,44,081,45,22,20,058,43,23,12,252,38,24,88,345,40,1*62
$GPGSV,4,4,14,25,16,242,,32,10,322,42,1*60
$GLGSV,3,1,09,65,53,260,32,66,29,325,43,72,22,194,33,74,38,058,38,1*7C
$GLGSV,3,2,09,75,69,322,41,76,19,264,38,83,14,016,36,84,26,082,41,1*72
$GLGSV,3,3,09,85,08,131,,1*47
$GAGSV,3,1,11,03,00,324,,04,19,159,34,05,45,301,31,06,42,172,42,7*77
$GAGSV,3,2,11,09,61,99,39,13,06,014,36,16,18,236,34,23,27,058,43,7*73
$GAGSV,3,3,11,24,43,234,36,26,08,062,,31,80,068,,7*4E
$GBGSV,3,1,10,05,15,124,38,07,17,047,38,10,28,055,41,19,37,233,,1*71
$GBGSV,3,2,10,20,10,191,43,21,01,339,,22,32,300,29,27,25,122,45,1*7B
$GBGSV,3,3,10,28,28,073,49,30,03,165,,1*7C
$GNRMC,090015.00,A,4843.26104,N,00920.55341,E,0.070,,080225,,,A,V*14
$GNGGA,090015.00,4843.26104,N,00920.55341,E,1,12,0.44,253.4,M,47.6,M,,*4E
$GPGSV,4,1,14,01,01,010,,06,00,107,,10,18,294,,12,53,236,,1*60
$GPGSV,4,2,14,13,13,155,40,14,00,060,,15,32,186,46,17,26,048,43,1*60
$GPGSV,4,3,14,19,44,081,45,22,20,058,44,23,12,252,41,24,88,345,40,1*6B
$GPGSV,4,4,14,25,16,242,,32,10,322,40,1*62
$GLGSV,3,1,09,65,53,260,32,66,29,325,42,72,22,194,34,74,38,058,38,1*7A
$GLGSV,3,2,09,75,69,322,42,76,19,264,40,83,14,016,37,84,26,082,41,1*7F
$GLGSV,3,3,09,85,08,131,,1*47
$GAGSV,3,1,11,03,00,324,,04,19,159,34,05,45,301,32,06,42,172,42,7*74
$GAGSV,3,2,11,09,61,199,39,13,06,014,36,16,18,236,34,23,27,058,43,7*73
$GAGSV,3,3,11,24,43,234,36,26,08,062,,31,80,068,,7*4E
$GBGSV,3,1,10,05,15,124,38,07,17,047,37,10,28,055,41,19,37,233,,1*7E
$GBGSV,3,2,10,20,10,191,42,21,01,339,,22,32,300,29,27,25,122,47,1*78
$GBGSV,3,3,10,28,28,073,49,30,03,165,,1*7C
$GNRMC,090016.00,A,4843.26102,N,00920.55342,E,0.025,,080225,,,A,V*12
$GNGGA,090016.00,4843.26102,N,00920.55342,E,1,12,0.44,253.4,M,47.6,M,,*48
$GPGSV,4,1,14,01,01,010,,06,00,107,,10,18,294,,12,53,236,,1*60
$GPGSV,4,2,14,13,13,155,37,14,00,060,,15,32,186,46,17,26,048,43,1*60
$GPGSV,4,3,14,19,44,081,45,22,20,058,43,23,12,252,41,24,88,345,41,1*6D
$GPGSV,4,4,14,25,16,242,,32,10,322,42,1*60
$GLGSV,3,1,09,65,53,260,32,66,29,325,42,72,22,194,34,74,38,058,38,1*7A
$GLGSV,3,2,09,75,69,322,42,76,19,264,34,83,14,016,37,84,26,082,41,1*7C
$GLGSV,3,3,09,85,08,131,,1*47
$GAGSV,3,1,11,03,00,324,,04,19,159,34,05,45,301,31,06,42,172,42,7*77
$GAGSV,3,2,11,09,61,199,37,13,06,014,36,16,18,236,34,23,27,058,43,7*7D
$GAGSV,3,3,11,24,43,234,36,26,08,062,,31,80,068,,7*4E
$GBGSV,3,1,10,05,15,124,37,07,17,047,37,10,28,055,41,19,37,233,,1*71
$GBGSV,3,2,10,20,09,191,42,21,01,339,,22,32,300,29,27,25,122,46,1*71
$GBGSV,3,3,10,28,28,072,49,30,03,165,,1*7D
$GNRMC,090017.00,A,4843.26100,N,00920.55344,E,0.004,,080225,,,A,V*14
$GNGGA,090017.00,4843.26100,N,00920.55344,E,1,12,0.44,253.4,M,47.6,M,,*4D
$GPGSV,4,1,14,01,01,010,,06,00,107,,10,18,294,,12,53,236,,1*60
$GPGSV,4,2,14,13,13,155,38,14,00,060,,15,32,186,46,17,26,048,43,1*6F
$GPGSV,4,3,14,19,44,081,46,22,20,058,43,23,12,252,41,24,88,345,41,1*6E
$GPGSV,4,4,14,25,16,242,,32,10,322,41,1*63
$GLGSV,3,1,09,65,53,260,33,66,29,325,42,72,22,194,34,74,38,058,38,1*7B
$GLGSV,3,2,09,75,69,322,42,76,19,264,40,83,14,016,36,84,26,082,41,1*7E
$GLGSV,3,3,09,85,08,131,,1*47
$GAGSV,3,1,11,03,00,324,,04,19,159,34,05,45,301,32,06,42,172,42,7*74
$GAGSV,3,2,11,09,61,199,39,13,06,014,37,16,18,236,33,23,27,058,43,7*75
$GAGSV,3,3,11,24,43,234,37,26,08,062,,31,80,068,,7*4F
$GBGSV,3,1,10,05,15,124,38,07,17,047,37,10,28,055,41,19,37,233,,1*7E
$GBGSV,3,2,10,20,09,191,42,21,01,339,,22,32,300,29,27,25,122,46,1*71
$GBGSV,3,3,10,28,28,072,49,30,03,165,,1*7D
$GNRMC,090018.00,A,4843.26098,N,00920.55345,E,0.012,,080225,,,A,V*1D
$GNGGA,090018.00,4843.26098,N,00920.55345,E,1,12,0.43,253.4,M,47.6,M,,*44
$GPGSV,4,1,14,01,01,010,,06,00,107,,10,18,294,,12,53,236,,1*60
$GPGSV,4,2,14,13,13,155,38,14,00,060,,15,32,186,46,17,26,048,43,1*6F
$GPGSV,4,3,14,19,44,081,46,22,20,058,43,23,12,252,40,24,88,345,41,1*6F
$GPGSV,4,4,14,25,16,242,,32,10,322,41,1*63
$GLGSV,3,1,09,65,53,260,32,66,29,325,42,72,22,194,34,74,38,058,38,1*7A
$GLGSV,3,2,09,75,69,322,43,76,19,264,39,83,14,016,36,84,26,082,41,1*71
$GLGSV,3,3,09,85,08,131,,1*47
$GAGSV,3,2,11,09,61,199,40,13,06,014,37,16,18,236,33,23,27,058,43,7*7B
$GAGSV,3,3,11,24,43,234,37,26,08,062,,31,80,068,,7*4F
$GBGSV,3,1,10,05,15,124,38,07,17,047,37,10,28,055,41,19,36,233,,1*7F
$GBGSV,3,2,10,20,09,191,42,21,01,339,,22,32,300,29,27,25,122,46,1*71
$GBGSV,3,3,10,28,28,072,49,30,03,165,,1*7D
$GNRMC,090019.00,A,4843.26096,N,00920.55346,E,0.004,,080225,,,A,V*16
$GNGGA,090019.00,4843.26096,N,00920.55346,E,1,12,0.43,253.3,M,47.6,M,,*4F
$GPGSV,4,1,14,01,01,010,,06,00,107,,10,18,294,,12,53,236,,1*60
$GPGSV,4,2,14,13,13,155,38,14,00,060,,15,32,186,45,17,26,048,43,1*6C
$GPGSV,4,3,14,19,44,081,46,22,20,058,43,23,12,252,40,24,88,345,41,1*6F
$GPGSV,4,4,14,25,16,242,,32,10,322,42,1*60
$GLGSV,3,1,09,65,53,260,32,66,29,325,42,72,22,194,35,74,38,058,38,1*7B
$GLGSV,3,2,09,75,69,322,43,76,19,264,39,83,14,016,36,84,26,082,41,1*71
$GLGSV,3,309,85,08,131,,1*47
$GAGSV,3,1,11,03,00,324,,04,19,159,33,05,45,301,32,06,42,172,43,7*72
$GAGSV,3,2,11,09,61,199,39,13,06,014,37,16,18,236,33,23,27,058,43,7*75
$GAGSV,3,3,11,24,43,234,37,26,08,062,,31,80,068,,7*4F
$GBGSV,3,1,10,05,15,124,38,07,17,047,37,10,28,055,41,19,36,233,,1*7F
$GBGSV,3,2,10,20,09,191,42,21,01,339,,22,32,300,30,27,25,122,46,1*79
$GBGSV,3,3,10,28,28,072,49,30,03,165,,1*7D
$GNRMC,090020.00,A,4843.26095,N,00920.55347,E,0.021,,080225,,,A,V*19
$GNGGA,090020.00,4843.26095,N,00920.55347,E,1,12,0.43,253.3,M,47.6,M,,*47
$GPGSV,4,1,14,01,01,010,,06,00,107,,10,18,294,,12,53,236,,1*60
$GPGSV,4,2,14,13,13,155,37,14,00,060,,15,32,186,45,17,26,048,43,1*63
$GPGSV,4,3,14,19,44,081,46,22,20,058,43,23,12,252,40,24,88,345,41,1*6F
$GPGSV,4,4,14,25,16,242,,32,10,322,42,1*60
$GLGSV,3,1,09,65,53,260,32,66,29,325,42,72,22,194,35,74,38,058,38,1*7B
$GLGSV,3,2,09,75,69,322,42,76,19,264,38,83,14,016,36,84,26,082,42,1*72
$GLGSV,3,3,09,85,08,131,,1*47
$GAGSV,3,1,11,03,00,324,,04,19,159,33,05,45,301,32,06,42,172,43,7*72
$GAGSV,3,2,11,09,61,199,40,13,06,014,36,16,18,236,33,23,27,058,43,7*7A
$GAGSV,3,3,11,24,43,234,37,26,08,062,,31,80,068,,7*4F
$GBGSV,3,1,10,05,15,124,38,07,17,047,37,10,28,055,41,19,36,233,,1*7F
$GBGSV,3,2,10,20,09,191,42,21,01,339,,22,32,300,30,27,25,122,46,1*79
$GBGSV,3,3,10,28,28,072,48,30,03,165,,1*7C
$GNRMC,090021.00,A,4843.26094,N,00920.55347,E,0.010,,080225,,,A,V*1B
$GNGGA,090021.00,4843.26094,N,00920.55347,E,1,12,0.43,253.2,M,47.6,M,,*46
$GPGSV,4,1,14,01,01,010,,06,00,107,,10,18,294,,12,53,236,,1*60
$GPGSV,4,2,14,13,13,155,37,14,00,060,,15,32,186,45,17,26,048,43,1*63
$GPGSV,4,3,14,19,44,081,47,22,20,058,43,23,12,252,40,24,88,345,40,1*6F
$GPGSV,4,4,14,25,16,242,,32,10,322,42,1*60
$GLGSV,3,1,09,65,53,260,31,66,29,325,43,72,22,194,35,74,38,058,38,1*79
$GLGSV,3,2,09,75,69,322,42,76,19,264,37,83,14,016,35,84,26,082,41,1*7D
$GLGSV,3,3,09,85,08,131,,1*47
$GAGSV,3,1,11,03,00,324,,04,19,159,33,05,45,301,32,06,42,172,43,7*72
$GAGSV,3,2,11,09,61,199,40,13,06,014,36,16,18,236,33,23,27,058,43,7*7A
$GAGSV,3,3,11,24,43,234,37,26,08,062,,31,80,068,,7*4F
$GBGSV,3,1,10,05,15,124,38,07,17,047,37,10,28,055,41,19,36,233,,1*7F
$GBGSV,3,2,10,20,09,191,41,21,01,339,,22,33,299,30,27,25,122,46,1*7A
$GBGSV,3,3,10,28,28,072,48,30,03,165,,1*7C
$GPGSV,4,1,14,01,01,010,,06,00,107,,10,18,294,,12,53,236,,1*60
$GPGSV,4,2,14,13,13,155,38,14,00,060,,15,32,186,45,17,26,048,44,1*6B
$GPGSV,4,3,14,19,44,081,47,22,20,058,43,23,12,252,40,24,88,345,40,1*6F
$GPGSV,4,4,14,25,16,242,,32,10,322,42,1*60
$GLGSV,3,1,09,65,53,260,31,66,29,325,43,72,22,194,35,74,38,058,38,1*79
$GLGSV,3,2,09,75,69,322,41,76,19,264,37,83,14,016,35,84,26,082,41,1*7E
$GLGSV,3,3,09,85,08,131,,1*47
$GAGSV,3,1,11,03,00,324,,04,19,159,33,05,45,301,33,06,42,172,43,7*73
$GAGSV,3,2,11,09,61,199,40,13,06,014,35,16,18,236,33,23,27,058,43,7*79
$GAGSV,3,3,11,24,43,234,36,26,08,062,,31,80,068,,7*4E
$GBGSV,3,1,10,05,15,124,38,07,17,047,37,10,28,055,41,19,36,233,,1*7F
$GBGSV,3,2,10,20,09,191,41,21,01,339,,22,33,299,30,27,25,122,46,1*7A
$GBGSV,3,3,10,28,28,072,48,30,03,165,,1*7C
$GNRMC,090023.0,A,4843.26091,N,00920.55346,E,0.010,,080225,,,A,V*1D
$GNGGA,090023.00,4843.26091,N,00920.55346,E,1,12,0.43,253.1,M,47.6,M,,*43
$GPGSV,4,1,14,01,01,010,,06,00,107,,10,18,294,,12,53,236,,1*60
$GPGSV,4,2,14,13,13,155,38,14,00,060,,15,32,186,45,17,26,048,44,1*6B
$GPGSV,4,3,14,19,44,081,4,22,20,058,43,23,12,252,40,24,88,345,41,1*6E
$GPGSV,4,4,14,25,16,242,,32,10,322,42,1*60
$GLGSV,3,1,09,65,53,260,32,66,29,325,43,72,22,194,35,74,38,058,38,1*7A
$GLGSV,3,2,09,75,69,322,41,76,19,264,37,83,14,016,35,84,26,082,41,1*7E
$GLGSV,3,3,09,85,08,131,,1*47
$GAGSV,3,1,11,03,00,324,04,19,159,34,05,45,301,33,06,42,172,43,7*74
$GAGSV,3,2,11,09,61,199,40,13,06,014,35,16,18,236,33,23,27,058,43,7*79
$GAGSV,3,3,11,24,43,234,36,26,08,062,,31,80,068,,7*4E
$GBGSV,3,1,10,05,15,124,38,07,17,047,37,10,28,055,41,19,36,233,,1*7F
$GBGSV,3,2,10,20,09,191,41,21,01,339,,22,33,299,30,27,25,122,46,1*7A
$GBGSV,3,3,10,28,28,072,48,30,03,165,,1*7C
$GNRMC,090024.00,A,4843.26089,N,00920.55345,E,0.006,,080225,,,A,V*17
$GNGGA,090024.00,4843.26089,N,00920.55345,E,1,12,0.43,253.0,M,47.6,M,,*4F
$GPGSV,4,1,14,01,01,010,,06,00,107,,10,18,294,,12,53,236,,1*60
$GPGSV,4,2,14,13,13,155,38,14,00,060,,15,32,186,45,17,26,048,44,1*6B
$GPGSV,4,3,14,1944,081,47,22,20,058,43,23,12,252,40,24,88,345,40,1*6F
$GPGSV,4,4,14,25,16,242,,32,10,322,42,1*60
$GLGSV,3,1,09,65,53,260,33,66,29,325,43,72,22,194,35,74,38,058,38,1*7B
$GLGSV,3,2,09,75,69,322,40,76,19,264,37,83,14,016,35,84,26,082,41,1*7F
$GLGSV,3,3,09,85,08,131,,1*47
$GAGSV,3,1,11,03,00,324,,04,19,159,33,05,45,301,34,06,42,172,44,7*73
$GAGSV,3,2,11,09,61,199,40,13,06,014,35,16,18,236,33,23,27,058,43,7*79
$GAGSV,3,3,11,24,43,234,36,26,08,062,,31,80,068,,7*4E
$GBGSV,3,1,10,05,15,124,38,07,17,047,37,10,28,055,41,19,36,233,,1*7F
$GBGSV,3,2,10,20,09,191,41,21,01,339,,22,33,299,30,27,25,122,46,1*7A
$GBGSV,3,3,10,28,28,072,48,30,03,165,,1*7C
$GNRMC,090025.00,A,4843.26088,N,00920.55344,E,0.007,,080225,,,A,V*17
$GNGGA,090025.00,4843.26088,N,00920.55344,E,1,12,0.43,253.0,M,47.6,M,,*4E
$GPGSV,4,1,14,01,01,010,,06,00,107,,10,18,294,,12,53,236,,1*60
$GPGSV,4,2,14,13,13,155,38,14,00,060,,15,32,186,45,17,26,048,44,1*6B
$GPGSV,4,3,14,19,44,081,47,22,20,058,42,23,12,252,40,24,88,345,40,1*6E
$GPGSV,4,4,14,25,16,242,,32,10,322,42,1*60
$GLGSV,3,1,09,65,53,260,34,66,29,325,43,72,22,194,36,74,38,058,38,1*7F
$GLGSV,3,2,09,75,69,322,40,76,19,264,37,83,14,016,35,84,26,082,42,1*7C
$GLGSV,3,3,09,85,08,131,,1*47
$GAGSV,3,1,11,03,00,324,,04,19,159,33,05,45,301,34,06,42,172,44,7*73
$GAGSV,3,2,11,09,61,199,40,13,06,014,35,16,18,236,33,23,27,058,43,7*79
$GAGSV,3,3,11,24,43,234,36,26,08,062,,31,80,068,,7*4E
$GBGSV,3,1,10,05,15,124,38,07,17,047,37,10,28,055,41,19,36,233,,1*7F
$GBGSV,3,2,10,20,09,191,41,21,01,339,,22,33,299,30,27,25,122,46,1*7A
$GBGSV,3,3,10,28,28,072,48,30,03,165,,1*7C
$GNRMC,090026.00,A,4843.26087,N,00920.55343,E,0.011,,080225,,,A,V*1B
$GNGGA,090026.00,4843.26087,N,00920.55343,E,1,12,0.43,252.9,M,47.6,M,,*4D
$GPGSV,4,1,14,01,01,010,,06,00,107,,10,18,294,,12,53,236,,1*60
$GPGSV,4,2,14,13,13,155,38,14,00,060,,15,32,186,45,17,26,048,44,1*6B
$GPGSV,4,3,14,19,44,081,47,22,20,058,42,23,12,252,40,24,88,345,40,1*6E
$GPGSV,4,4,14,25,16,242,,32,10,322,41,1*63
$GLGSV,3,1,09,65,53,260,34,66,29,325,43,72,22,194,36,74,38,058,38,1*7F
$GLGSV,3,2,09,75,69,322,40,76,19,264,36,83,14,016,35,84,26,082,42,1*7D
$GLGSV,3,3,09,85,08,131,,1*47
$GAGSV,3,1,11,03,00,324,,04,19,159,33,05,45,301,34,06,42,172,44,7*73
$GAGSV,3,2,11,09,61,199,40,13,06,014,35,16,18,236,33,23,27,058,43,7*79
$GAGSV,3,3,11,24,43,234,36,26,08,062,,31,80,068,,7*4E
$GBGSV,3,1,10,05,15,124,38,07,17,047,37,10,28,055,41,19,36,233,,1*7F
$GBGSV,3,2,10,20,09,191,40,21,01,339,,22,33,299,29,27,25,122,46,1*73
$GBGSV,3,3,10,28,28,072,48,30,03,165,,1*7C
$GNRMC,090027.00,A,4843.26085,N,00920.55341,E,0.008,,080225,,,A,V*12
$GNGGA,090027.00,4843.26085,N,00920.55341,E,1,12,0.43,252.9,M,47.6,M,,*4C
$GPGSV,4,1,14,01,01,010,,06,00,107,,10,18,294,,12,53,236,,1*60
$GPGSV,4,2,14,13,13,155,37,14,00,060,,15,32,186,45,17,26,048,44,1*64
$GPGSV,4,3,14,19,44,081,47,22,20,058,42,23,12,252,40,24,88,345,40,1*6E
$GPGSV,4,4,14,25,16,242,,32,10,322,41,1*63
$GLGSV,3,1,09,65,53,260,35,66,29,325,43,72,22,194,35,74,38,058,38,1*7D
$GLGSV,3,2,09,75,69,322,40,76,19,264,36,83,14,016,35,84,26,082,42,1*7D
$GLGSV,3,3,09,85,08,131,,1*47
$GAGSV,3,1,11,03,00,324,,04,19,159,32,05,45,301,34,06,42,172,44,7*72
$GAGSV,3,2,11,09,61,199,40,13,06,014,34,16,18,236,33,23,27,058,43,7*78
$GAGSV,3,3,11,24,43,234,36,26,08,062,,31,80,068,,7*4E
$GBGSV,3,1,10,05,15,124,38,07,17,047,37,10,28,055,41,19,36,233,,1*7F
$GBGSV,3,2,10,20,09,191,40,21,01,339,,22,33,299,29,27,25,122,46,1*73
$GBGSV,3,3,10,28,28,072,47,30,03,165,,1*73
$GNRMC,090028.00,A,4843.26084,N,00920.55339,E,0.012,,080225,,,A,V*18
$GNGGA,090028.00,4843.26084,N,00920.55339,E,1,12,0.43,252.8,M,47.6,M,,*4C
$GPGSV,4,1,14,01,01,010,,06,00,107,,10,18,294,,12,53,236,,1*60
$GPGSV,4,2,14,13,13,155,37,14,00,060,,15,32,186,45,17,26,048,44,1*64
$GPGSV,4,3,14,19,44,081,47,22,20,058,42,23,12,252,40,24,88,345,41,1*6F
$GPGSV,4,4,14,25,16,242,,32,10,322,42,1*60
$GLGSV,3,1,09,65,53,260,35,66,29,325,43,72,22,194,35,74,38,058,38,1*7D
$GLGSV,3,2,09,75,69,322,40,76,19,264,36,83,14,016,35,84,26,082,42,1*7D
$GLGSV,3,3,09,85,08,131,,1*47
$GAGSV,3,1,11,03,00,324,,04,19,159,32,05,45,301,34,06,42,172,44,7*72
$GAGSV,3,2,11,09,61,199,40,13,06,014,35,16,18,236,33,23,27,058,43,7*79
$GAGSV,3,3,11,24,43,234,36,26,08,062,,31,80,068,,7*4E
$GBGSV,3,1,10,05,15,124,38,07,17,047,37,10,28,055,41,19,36,233,,1*7F
$GBGSV,3,2,10,20,09,191,40,21,01,339,,22,33,299,29,27,25,122,46,1*73
$GBGSV,3,3,10,28,28,072,47,30,03,165,,1*73
$GNRMC,090029.00,A,4843.26083,N,00920.55337,E,0.008,,080225,,,A,V*1B
$GNGGA,090029.00,4843.26083,N,00920.55337,E,1,12,0.44,252.7,M,47.6,M,,*4C
$GPGSV,4,1,14,01,01,010,,06,00,107,,10,18,294,,12,53,236,,1*60
$GPGSV,4,2,14,13,13,155,37,14,00,060,,15,32,186,45,17,26,048,44,1*64
$GPGSV,4,3,14,19,44,081,47,22,20,058,42,23,12,252,40,24,88,345,40,1*6E
$GPGSV,4,4,14,25,16,242,,32,10,322,41,1*63
$GLGSV,3,1,09,65,53,260,35,66,29,325,43,72,22,194,35,74,38,058,39,1*7C
$GLGSV,3,2,09,75,69,322,41,76,19,264,38,83,14,016,34,84,26,082,42,1*73
$GLGSV,3,3,09,85,08,131,,1*47
$GAGSV,3,1,11,03,00,324,,04,19,159,32,05,45,301,34,06,42,172,44,7*72
$GAGSV,3,2,11,09,61,199,40,13,06,014,35,16,18,236,34,23,27,058,43,7*7E
$GAGSV,3,3,11,24,43,234,36,26,08,062,,31,80,068,,7*4E
$GBGSV,3,1,10,05,15,124,38,07,17,047,37,10,28,055,41,19,36,233,,1*7F
$GBGSV,3,2,10,20,09,191,40,21,01,339,,22,33,299,29,27,25,122,46,1*73
$GBGSV,3,3,10,28,28,072,47,30,03,165,,1*73
$GNRMC,090030.00,A,484.26082,N,00920.55335,E,0.021,,080225,,,A,V*1B
$GNGGA,090030.00,4843.26082,N,00920.55335,E,1,12,0.43,252.7,M,47.6,M,,*40
$GPGSV,4,1,14,01,01,010,,06,00,107,,10,18,294,,12,53,236,,1*60
$GPGSV,4,2,14,13,13,155,37,14,00,060,,15,32,186,45,17,26,048,44,1*64
$GPGSV,4,3,14,19,44,081,47,22,20,058,42,23,12,252,40,24,88,345,40,1*6E
$GPGSV,4,4,14,25,16,242,,32,10,322,41,1*63
$GLGSV,3,1,09,65,53,260,35,66,29,325,43,72,22,194,36,74,38,058,39,1*7F
$GLGSV,3,2,09,75,69,322,41,76,19,264,36,83,14,016,35,84,26,082,42,1*7C
$GLGSV,3,3,09,85,08,131,,1*47
$GAGSV,3,1,11,03,00,324,,04,19,159,32,05,45,301,34,06,42,172,44,7*72
$GAGSV,3,2,11,09,61,199,40,13,06,014,35,16,18,236,33,23,27,058,43,7*79
$GAGSV,3,3,11,24,43,234,36,26,08,062,,31,80,068,,7*4E
$GBGSV,3,1,10,05,15,124,38,07,17,047,37,10,28,055,41,19,36,233,,1*7F
$GBGSV,3,2,10,20,09,191,40,21,01,339,,22,33,299,29,27,25,122,46,1*73
$GBGSV,3,3,10,28,28,072,48,30,03,165,,1*7C
$GNRMC,090031.00,A,4843.26080,N,00920.55332,E,0.022,,080225,,,A,V*1C
$GNGGA,090031.00,4843.26080,N,00920.55332,E,1,12,0.43,252.7,M,47.6,M,,*44
$GPGSV,4,1,14,01,01,010,,06,00,107,,10,18,294,,12,53,236,,1*60
$GPGSV,4,2,14,13,13,155,37,14,00,060,,15,32,186,45,17,26,048,44,1*64
$GPGSV,4,3,14,19,44,081,47,22,20,058,42,23,12,252,40,24,88,345,40,1*6E
$GPGSV,4,4,14,25,16,242,,32,10,322,41,1*63
$GLGSV,3,1,09,65,53,259,35,66,29,325,43,72,22,194,35,74,38,058,39,1*76
$GLGSV,3,2,09,75,69,322,42,76,1,264,36,83,14,016,35,84,26,082,42,1*7F
$GLGSV,3,3,09,85,08,131,,1*47
$GAGSV,3,1,11,03,00,324,,04,19,159,33,05,45,301,34,06,42,172,44,7*73
$GAGSV,3,2,11,09,61,199,40,13,06,014,35,16,18,236,32,23,27,058,43,7*78
$GAGSV,3,3,11,24,43,234,36,26,08,062,,31,80,068,,7*4E
$GBGSV,3,1,10,05,15,124,38,07,17,047,37,10,28,055,41,19,36,233,,1*7F
$GBGSV,3,2,10,20,09,191,40,21,01,339,,22,33,299,29,27,25,122,46,1*73
$GBGSV,3,3,10,28,28,072,48,30,03,165,,1*7C
$GNRMC,090032.00,A,4843.26079,N,00920.55329,E,0.008,,080225,,,A,V*1B
$GNGGA,090032.00,4843.26079,N,00920.55329,E,1,12,0.43,252.7,M,47.6,M,,*4B
$GPGSV,4,1,14,01,01,010,,06,00,107,,10,18,294,,12,53,236,,1*60
$GPGSV,4,2,14,13,13,155,37,14,00,060,,15,32,186,45,17,26,048,44,1*64
$GPGSV,4,3,14,19,44,081,47,22,20,058,42,23,12,252,40,24,88,345,40,1*6E
$GPGSV,4,4,14,25,16,242,,32,10,322,41,1*63
$GLGSV,3,1,09,65,53,259,35,66,29,325,44,72,22,194,36,74,38,058,38,1*73
$GLGSV,3,2,09,75,69,322,43,76,19,264,35,83,14,016,35,84,26,082,42,1*7D
$GLGSV,3,3,09,85,08,131,,1*47
$GAGSV,3,1,11,03,00,324,,04,19,159,33,05,45,301,34,06,42,172,44,7*73
$GAGSV,3,2,11,09,61,199,40,13,06,014,35,16,18,236,33,23,27,058,43,7*79
$GAGSV,3,3,11,24,43,234,35,26,08,062,,31,80,068,,7*4D
$GBGSV,3,1,10,05,15,124,38,07,17,047,37,10,28,055,41,19,36,233,,1*7F
$GBGSV,3,2,10,20,09,191,39,21,01,339,,22,33,299,28,27,25,122,46,1*7C
$GBGSV,3,3,10,28,28,072,48,30,03,165,,1*7C
$GNRMC,090033.00,A,4843.26077,N,00920.55327,E,0.006,,080225,,,A,V*14
$GNGGA,090033.00,4843.26077,N,00920.55327,E,1,12,0.43,252.6,M,47.6,M,,*4B
$GPGSV,4,1,14,01,01,010,,06,00,107,,10,18,294,,12,53,236,,1*60
$GPGSV,4,2,14,13,13,155,38,14,00,060,,15,32,186,45,17,26,048,45,1*6A
$GPGSV,4,3,14,19,44,081,47,22,20,058,42,23,12,252,40,24,88,345,40,1*6E
$GPGSV,4,4,14,25,16,242,,32,10,322,41,1*63
$GLGSV,3,1,09,65,53,259,35,66,29,325,44,72,22,194,36,74,38,058,38,1*73
$GLGSV,3,2,09,75,69,322,43,76,19,264,34,83,14,016,35,84,26,082,42,1*7C
$GLGSV,3,3,09,85,08,131,,1*47
$GAGSV,3,1,11,03,00,324,,04,19,159,33,05,45,301,35,06,42,172,44,7*72
$GAGSV,3,2,11,09,61,199,40,13,06,014,34,16,18,236,33,23,27,058,43,7*78
$GAGSV,3,3,11,24,43,234,36,26,08,062,,31,80,068,,7*4E
$GBGSV,3,1,10,05,15,124,38,07,17,047,37,10,28,055,41,19,36,233,,1*7F
$GBGSV,3,2,10,20,09,191,39,21,01,339,,22,33,299,28,27,25,122,46,1*7C
$GBGSV,3,3,10,28,28,072,48,30,03,165,,1*7C
$GNRMC,090034.00,A,4843.26075,,00920.55325,E,0.005,,080225,,,A,V*10
$GNGGA,090034.00,4843.26075,N,00920.55325,E,1,12,0.43,252.5,M,47.6,M,,*4F
$GPGSV,4,1,14,01,01,010,,06,00,107,,10,18,294,,12,53,236,,1*60
$GPGSV,4,2,14,13,13,155,38,14,00,060,,15,32,186,45,17,26,048,45,1*6A
$GPGSV,4,3,14,19,44,081,47,22,20,058,42,23,12,252,40,24,88,345,41,1*6F
$GPGSV,4,4,14,25,16,242,,32,10,322,41,1*63
$GLGSV,3,1,09,65,53,259,36,66,29,325,44,72,22,194,37,74,38,058,38,1*71
$GLGSV,3,2,09,75,69,322,43,76,19,264,34,83,14,016,35,84,26,082,42,1*7C
$GLGSV,3,3,09,85,08,131,,1*47
$GAGSV,3,1,11,03,00,324,,04,19,159,33,05,45,301,35,06,42,172,44,7*72
$GAGSV,3,2,11,09,61,199,40,13,06,014,33,16,18,236,33,23,27,058,43,7*7F
$GAGSV,3,3,11,24,43,23436,26,08,062,,31,80,068,,7*4E
$GBGSV,3,1,10,05,15,124,38,07,17,047,37,10,28,055,41,19,36,233,,1*7F
$GBGSV,3,2,10,20,09,191,39,21,01,339,,22,33,299,28,27,25,122,46,1*7C
$GBGSV,3,3,10,28,28,072,48,30,03,165,,1*7C
$GNRMC,090035.00,A,4843.26074,N,00920.55324,E,0.011,,080225,,,A,V*14
$GNGGA,090035.00,4843.26074,N,00920.55324,E,1,12,0.43,252.4,M,47.6,M,,*4F
$GPGSV,4,1,14,01,01,010,,06,00,107,,10,18,294,,12,53,236,,1*60
$GPGSV,4,2,14,13,13,155,37,14,00,060,,15,32,186,45,17,26,048,45,1*65
$GPGSV,4,3,14,19,44,081,47,22,20,058,42,23,12,252,40,24,88,345,41,1*6F
$GPGSV,4,4,14,25,16,242,,32,10,322,41,1*63
$GLGSV,3,1,09,65,53,259,36,66,29,325,44,72,22,194,36,74,38,058,38,1*70
$GLGSV,3,2,09,75,69,322,43,76,19,264,34,83,14,016,35,84,26,082,42,1*7C
$GLGSV,3,3,09,85,08,131,,1*47
$GAGSV,3,1,11,03,00,324,,04,19,159,34,05,45,301,35,06,42,172,44,7*75
$GAGSV,3,2,11,09,61,199,40,13,06,014,33,16,18,236,33,23,27,058,43,7*7F
$GAGSV,3,3,11,24,43,234,36,26,08,062,,31,80,068,,7*4E
$GBGSV,3,1,10,05,15,124,38,07,17,047,37,10,28,055,41,19,36,233,,1*7F
$GBGSV,3,2,10,20,09,191,39,21,01,339,,22,33,299,28,27,25,122,46,1*7C
$GBGSV,3,3,10,28,28,072,48,30,03,165,,1*7C
$GNRMC,090036.00,A,4843.26072,N,00920.55322,E,0.009,,080225,,,A,V*1E
$GNGGA,090036.00,4843.26072,N,00920.55322,E,1,12,0.43,252.4,M,47.6,M,,*4C
$GPGSV,4,1,14,01,01,010,,06,00,107,,10,18,294,,12,53,236,,1*60
$GPGSV,4,2,14,13,13,155,37,14,00,060,,15,32,186,45,17,26,048,44,1*64
$GPGSV,4,3,14,19,44,081,47,22,20,058,42,23,12,252,40,24,88,345,40,1*6E
$GPGSV,4,4,14,25,16,242,,32,10,322,41,1*63
$GLGSV,3,1,09,65,53,259,36,66,29,325,44,72,22,194,36,74,38,058,39,1*71
$GLGSV,3,2,09,75,69,322,43,76,19,264,34,83,14,016,35,84,26,082,42,1*7C
$GLGSV,3,3,09,85,08,131,,1*47
$GAGSV,3,1,11,03,00,324,,04,19,159,34,05,45,301,35,06,42,172,44,7*75
$GAGSV,3,2,11,09,61,199,40,13,06,014,33,16,18,236,33,23,27,058,43,7*7F
$GAGSV,3,3,11,24,43,234,36,26,08,062,,31,80,068,,7*4E
$GBGSV,3,1,10,05,15,124,38,07,17,047,37,10,28,055,41,19,36,233,,1*7F
$GBGSV,3,2,10,20,09,191,38,21,01,339,,22,33,299,28,27,25,122,46,1*7D
$GBGSV,3,3,10,28,28,072,48,30,03,165,,1*7C
$GNRMC,090037.00,A,4843.26070,N,00920.55321,E,0.003,,080225,,,A,V*14
$GNGGA,090037.00,4843.26070,N,00920.55321,E,1,12,0.43,252.4,M,47.6,M,,*4C
$GPGSV,4,1,14,01,01,010,,06,00,107,,10,18,294,,12,53,236,,1*60
$GPGSV,4,2,14,13,13,155,38,14,00,060,,15,32,186,44,17,26,048,44,1*6A
$GPGSV,4,3,14,19,44,081,47,22,20,058,42,23,12,252,40,24,88,345,40,1*6E
$GPGSV,4,4,14,25,16,242,,32,10,322,41,1*63
$GLGSV,3,1,09,65,53,259,35,66,29,325,44,72,22,194,36,74,38,058,39,1*72
$GLGSV,3,2,09,75,69,322,43,76,19,264,34,83,14,016,35,84,26,082,42,1*7C
$GLGSV,3,3,09,85,08,131,,1*47
$GAGSV,3,1,11,03,00,324,,04,19,159,34,05,45,301,35,06,42,172,44,7*75
$GAGSV,3,2,11,09,61,199,40,13,06,014,33,16,18,236,33,23,27,058,43,7*7F
$GAGSV,3,3,11,24,43,234,36,26,08,062,,31,80,068,,7*4E
$GBGSV,3,1,10,05,15,124,38,07,17,047,37,10,28,055,41,19,36,233,,1*7F
$GBGSV,3,2,10,20,09,191,38,21,01,339,,22,33,299,28,27,25,122,46,1*7D
$GBGSV,3,3,10,28,28,072,48,30,03,165,,1*7C
$GNRMC,090038.00,A,4843.26068,N,00920.55320,E,0.008,,080225,,,A,V*18
$GNGGA,090038.00,4843.26068,N,00920.55320,E,1,12,0.43,252.3,M,47.6,M,,*4C
$GPGSV,4,1,14,01,01,010,,06,00,107,,10,18,294,,12,53,236,,1*60
$GPGSV,4,2,14,13,13,155,38,14,00,060,,15,32,186,45,17,26,048,44,1*6B
$GPGSV,4,3,14,19,44,081,47,22,20,058,43,23,12,252,40,24,88,45,40,1*6F
$GPGSV,4,4,14,25,16,242,,32,10,322,41,1*63
$GLGSV,3,1,09,65,53,259,35,66,29,325,44,72,22,194,36,74,38,058,38,1*73
$GLGSV,3,2,09,75,69,322,43,76,19,264,35,83,14,016,35,84,26,082,42,1*7D
$GLGSV,3,3,09,85,08,131,,1*47
$GAGSV,3,1,11,03,00,324,,04,19,159,34,05,45,301,35,06,42,172,44,7*75
$GAGSV,3,2,11,09,61,199,40,13,06,014,33,16,18,236,33,23,27,058,43,7*7F
$GAGSV,3,3,11,24,43,234,36,26,08,062,,31,80,068,,7*4E
$GBGSV,3,1,10,05,15,124,38,07,17,047,37,10,28,055,41,19,36,233,,1*7F
$GBGSV,3,2,10,20,09,191,38,21,01,339,,22,33,299,28,27,25,122,46,1*7D
$GBGSV,3,3,10,28,28,072,48,30,03,165,,1*7C
$GNRMC,090039.00,A,4843.26066,N,00920.55319,E,0.007,,080225,,,A,V*12
$GNGGA,090039.00,4843.26066,N,00920.55319,E,1,12,0.43,252.2,M,47.6,M,,*48
$GPGSV,4,1,14,01,01,010,,06,00,107,,10,18,294,,12,53,236,,1*60
$GPGSV,4,2,14,13,13,155,39,14,00,060,,15,32,186,45,17,26,048,44,1*6A
$GPGSV,4,3,14,19,44,081,47,22,20,058,43,23,12,252,40,24,88,345,40,1*6F
$GPGSV,4,4,14,25,16,242,,32,10,322,41,1*63
$GLGSV,3,1,09,65,53,259,35,66,29,325,44,72,22,194,36,74,38,058,38,1*73
$GLGSV,3,2,09,75,69,322,43,76,19,264,34,83,14,016,35,84,26,082,42,1*7C
$GLGSV,3,3,09,85,08,131,,1*47
$GAGSV,3,2,11,09,61,199,40,13,06,014,32,16,18,236,33,23,27,058,43,7*7E
$GAGSV,3,3,11,24,43,234,36,26,08,062,,31,80,068,,7*4E
$GBGSV,3,1,10,05,15,124,38,07,17,047,37,10,28,055,41,19,36,233,,1*7F
$GBGSV,3,2,10,20,09,191,38,21,01,339,,22,33,299,28,27,25,122,46,1*7D
$GBGSV,3,3,10,28,28,072,48,30,03,165,,1*7C
$GNRMC,090040.00,A,4843.26064,N,00920.55319,E,0.010,,080225,,,A,V*18
$GNGGA,090040.00,4843.26064,N,00920.55319,E,1,12,0.43,252.2,M,47.6,M,,*44
$GPGSV,4,1,14,01,01,010,,06,00,107,,10,18,294,,12,53,236,,1*60
$GPGSV,4,2,14,13,13,155,40,14,00,060,,15,32,186,44,1,26,048,44,1*65
$GPGSV,4,3,14,19,44,081,47,22,20,058,43,23,12,252,40,24,88,345,40,1*6F
$GPGSV,4,4,14,25,16,242,,32,10,322,41,1*63
$GLGSV,3,1,09,65,53,259,35,6,29,325,44,72,22,194,35,74,38,058,38,1*70
$GLGSV,3,2,09,75,69,322,42,76,19,264,34,83,14,016,35,84,26,082,41,1*7E
$GLGSV,3,3,09,85,08,131,,1*47
$GAGSV,3,1,11,03,00,324,,04,19,159,33,05,45,301,35,06,42,172,43,7*75
$GAGSV,3,2,11,09,61,199,40,13,06,014,32,16,18,236,33,23,27,058,43,7*7E
$GAGSV,3,3,11,24,43,234,36,26,08,062,,31,80,068,,7*4E
$GBGSV,3,1,10,05,15,124,38,07,17,047,37,10,28,055,41,19,36,233,,1*7F
$GBGSV,3,2,10,20,09,191,38,21,01,339,,22,33,299,29,27,25,122,46,1*7C
$GBGSV,3,3,10,28,28,072,48,30,03,165,,1*7C
$GNRMC,090041.00,A,4843.26062,N,00920.55319,E,0.007,,080225,,,A,V*19
$GNGGA,090041.00,4843.26062,N,00920.55319,E,1,12,0.43,252.1,M,47.6,M,,*40
$GPGSV,4,1,14,01,01,010,,06,00,107,,10,18,294,,12,53,236,,1*60
$GPGSV,4,2,14,13,13,155,40,14,00,060,,15,32,186,44,17,26,048,44,1*65
$GPGSV,4,3,14,19,44,081,47,22,20,058,43,23,12,252,40,24,88,345,40,1*6F
$GPGSV,4,4,14,25,16,242,,32,10,322,41,1*63
$GLGSV,3,1,09,65,53,259,35,66,29,325,44,72,22,194,35,74,38,058,38,1*70
$GLGSV,3,2,09,75,69,322,42,76,19,264,33,83,14,016,35,84,26,082,41,1*79
$GLGSV,3,3,09,85,08,131,,1*47
$GAGSV,3,1,11,03,00,324,,04,19,159,33,05,45,301,35,06,42,172,43,7*75
$GAGSV,3,2,11,09,61,199,40,13,06,014,32,16,18,236,33,23,27,058,43,7*7E
$GAGSV,3,3,11,24,43,234,36,26,08,062,,31,80,068,,7*4E
$GBGSV,3,1,10,05,15,124,38,07,17,047,37,10,28,055,41,19,36,233,,1*7F
$GBGSV,3,2,10,20,09,191,38,21,01,339,,22,33,299,28,27,25,122,46,1*7D
$GBGSV,3,3,10,28,28,072,48,30,03,165,,1*7C
$GNRMC,090042.00,A,4843.26060,N,00920.55320,E,0.007,,080225,,,A,V*12
$GNGGA,090042.0,4843.26060,N,00920.55320,E,1,12,0.43,252.1,M,47.6,M,,*4B
$GPGSV,4,1,14,01,01,010,,06,00,107,,10,18,294,,12,53,236,,1*60
$GPGSV,4,2,14,13,13,155,41,14,00,060,,15,32,186,44,17,26,048,44,1*64
$GPGSV,4,3,14,19,44,081,47,22,20,058,43,23,12,252,40,24,88,345,40,1*6F
$GPGSV,4,4,14,25,16,242,,32,10,322,43,1*61
$GLGSV,3,1,09,65,53,259,35,66,29,325,44,72,22,194,35,74,38,058,38,1*70
$GLGSV,3,2,09,75,69,322,42,76,19,265,33,83,14,016,35,84,26,082,42,1*7B
$GLGSV,3,3,09,85,08,131,,1*47
$GAGSV,3,1,11,03,00,324,,04,9,159,33,05,45,301,34,06,42,172,43,7*74
$GAGSV,3,2,11,09,61,199,40,13,06,014,32,16,18,236,33,23,27,058,43,7*7E
$GAGSV,3,3,11,24,43,234,36,26,08,062,,31,80,068,,7*4E
$GBGSV,3,1,10,05,15,124,38,07,17,047,37,10,28,055,41,19,36,233,,1*7F
$GBGSV,3,2,10,20,09,191,37,21,01,339,,22,33,299,29,27,25,122,46,1*73
$GBGSV,3,3,10,28,28,072,48,30,03,165,,1*7C
$GNRMC,090043.00,A,4843.26058,N,00920.55320,E,0.008,,080225,,,A,V*17
$GNGGA,090043.00,4843.26058,N,00920.55320,E,1,12,0.43,252.0,M,47.6,M,,*40
$GPGSV,4,1,14,01,01,010,,06,00,107,,10,18,294,,12,53,236,,1*60
$GPGSV,4,2,14,13,13,155,41,14,00,060,,15,32,186,44,17,26,048,44,1*64
$GPGSV,4,3,14,19,44,081,47,22,20,058,43,23,12,252,40,24,88,345,41,1*6E
$GPGSV,4,4,14,25,16,242,,32,10,322,39,1*6C
$GLGSV,3,1,09,65,53,259,36,66,29,325,44,72,22,194,34,74,38,058,38,1*72
$GLGSV,3,2,09,75,69,322,42,76,19,265,33,83,14,016,35,84,26,082,41,1*78
$GLGSV,3,3,09,85,08,131,,1*47
$GAGSV,3,1,11,03,00,324,,04,19,159,34,05,45,301,34,06,42,172,43,7*73
$GAGSV,3,2,11,09,61,199,40,13,06,014,31,16,18,236,34,23,27,058,43,7*7A
$GAGSV,3,3,11,24,43,234,36,26,08,062,,31,80,068,,7*4E
$GBGSV,3,1,10,05,15,124,38,07,17,047,37,10,28,055,41,19,36,233,,1*7F
$GBGSV,3,2,10,20,09,191,38,21,01,339,,22,33,299,30,27,25,122,45,1*77
$GBGSV,3,3,10,28,28,072,49,30,03,165,,1*7D
$GNRMC,090044.00,A,4843.26055,N,00920.55321,E,0.006,,080225,,,A,V*12
$GNGGA,090044.00,4843.26055,N,00920.55321,E,1,12,0.43,251.9,M,47.6,M,,*41
$GPGSV,4,1,14,01,01,010,,06,00,107,,10,18,294,,12,53,236,,1*60
$GPGSV,4,2,14,13,13,155,41,14,00,060,,15,32,186,44,17,26,048,43,1*63
$GPGSV,4,3,14,19,44,081,47,22,20,058,43,23,12,252,40,24,88,345,41,1*6E
$GPGSV,4,4,14,25,16,242,,32,10,322,41,1*63
$GLGSV,3,1,09,65,53,259,35,66,29,325,44,72,22,194,35,74,38,058,38,1*70
$GLGSV,3,2,09,75,69,322,41,76,19,265,36,83,14,016,35,84,26,082,41,1*7E
$GLGSV,3,3,09,85,08,131,,1*47
$GAGSV,3,1,11,03,00,324,,04,19,159,34,05,45,301,35,06,42,172,43,7*72
$GAGSV,3,2,11,09,61,199,41,13,06,014,32,16,18,236,34,23,27,058,43,7*78
$GAGSV,3,3,11,24,43,234,36,26,08,062,,31,80,068,,7*4E
$GBGSV,3,1,10,05,15,124,38,07,17,047,37,10,28,055,41,19,36,233,,1*7F
$GBGSV,3,2,10,20,09,191,37,21,01,339,,22,33,299,30,27,25,122,45,1*78
$GBGSV,3,3,10,28,28,072,48,30,03,165,,1*7C
$GNRMC,090045.00,A,4843.26053,N,00920.55322,E,0.008,,080225,,,A,V*18
$GNGGA,090045.00,4843.26053,N,00920.55322,E,1,12,0.43,251.9,M,47.6,M,,*45
$GPGSV,4,1,14,01,01,010,,06,00,107,,10,18,294,,12,53,236,,1*60
$GPGSV,4,2,14,13,13,155,41,14,00,060,,15,32,186,44,17,26,048,43,1*63
$GPGSV,4,3,14,19,44,081,47,22,20,058,44,23,12,252,40,24,88,345,41,1*69
$GPGSV,4,4,14,25,16,242,,32,10,322,41,1*63
$GLGSV,3,1,09,65,53,259,35,66,29,325,44,72,22,194,35,74,38,058,39,1*71
$GLGSV,3,2,09,75,69,322,41,76,19,265,36,83,14,016,34,84,26,082,41,1*7F
$GLGSV,3,3,09,85,08,131,,1*47
$GAGSV,3,1,11,03,00,324,,04,19,159,35,05,45,301,34,06,42,172,43,7*72
$GAGSV,3,2,11,09,61,199,41,13,06,014,33,16,18,236,34,23,27,058,43,7*79
$GBGSV,3,1,10,05,15,124,38,07,17,047,37,10,28,055,41,19,36,233,,1*7F
$GBGSV,3,2,10,20,09,191,37,21,01,339,,22,33,299,30,27,25,122,45,1*78
$GBGSV,3,3,10,28,28,072,48,30,03,165,,1*7C
$GNRMC,090046.00,A,4843.26051,N,00920.55323,E,0.009,,080225,,,A,V*19
$GNGGA,090046.00,4843.26051,N,00920.55323,E,1,12,0.43,251.8,M,47.6,M,,*44
$GPGSV,4,1,14,01,01,010,,06,00,107,,10,18,294,,12,53,236,,1*60
$GPGSV,4,2,14,13,13,155,41,14,00,060,,15,32,186,44,17,26,048,43,1*63
$GPGSV,4,3,14,19,44,081,47,22,20,058,44,23,12,252,40,24,88,345,41,1*69
$GPGSV,4,4,14,25,16,242,,32,10,322,41,1*63
$GLGSV,3,1,09,65,53,259,36,66,29,325,44,72,22,194,35,74,38,058,39,1*72
$GLGSV,3,2,09,75,69,322,39,76,19,265,36,83,14,016,33,84,26,082,42,1*74
$GLGSV,3,3,09,85,08,131,1*47
$GAGSV,3,1,11,03,00,324,,04,19,159,34,05,45,301,34,06,42,172,43,7*73
$GAGSV,3,2,11,09,61,199,41,13,06,014,33,16,18,236,34,23,27,058,43,7*79
$GAGSV,3,3,11,24,43,234,36,26,08,062,,31,80,068,,7*4E
$GBGSV,3,1,10,05,15,124,38,07,17,047,37,10,28,055,4119,36,233,,1*7F
$GBGSV,3,2,10,20,09,191,37,21,01,339,,22,33,299,30,27,25,122,45,1*78
$GBGSV,3,3,10,28,28,072,48,30,03,165,,1*7C
$GNRMC,090047.00,A,4843.26049,N,00920.55323,E,0.019,,080225,,,A,V*10
$GNGGA,090047.00,4843.26049,N,00920.55323,E,1,12,0.43,251.7,M,47.6,M,,*43
$GPGSV,4,1,14,01,01,010,,06,00,107,,10,18,294,,12,53,236,,1*60
$GPGSV,4,2,14,13,13,155,41,14,00,060,,15,32,186,44,17,26,048,43,1*63
$GPGSV,4,3,14,19,44,081,48,22,20,058,44,23,12,252,40,24,88,345,41,1*66
$GPGSV,4,4,14,25,16,242,,32,10,322,41,1*63
$GLGSV,3,1,09,65,53,259,36,66,29,325,45,72,22,194,34,74,38,058,39,1*72
$GLGSV,3,2,09,75,69,322,39,76,19,265,36,83,14,016,33,84,26,082,42,1*74
$GLGSV,3,3,09,85,08,131,,1*47
$GAGSV,3,1,11,03,00,324,,04,19,159,34,05,45,301,34,06,42,172,43,7*73
$GAGSV,3,2,11,09,61,199,41,13,06,014,33,16,18,236,34,23,27,058,43,7*79
$GAGSV,3,3,11,24,43,234,36,26,08,062,,31,80,068,,7*4E
$GBGSV,3,1,10,05,15,124,38,07,17,047,37,10,28,055,41,19,36,233,,1*7F
$GBGSV,3,2,10,20,09,191,38,21,01,339,,22,33,299,30,27,25,122,45,1*77
$GBGSV,3,3,10,28,28,072,48,30,03,165,,1*7C
$GNRMC,090048.00,A,4843.26047,N,00920.55324,E,0.024,,080225,,,A,V*18
$GNGGA,090048.00,4843.26047,N,00920.55324,E,1,12,0.43,251.6,M,47.6,M,,*44
$GPGSV,4,1,14,01,01,010,,06,00,107,,10,18,294,,12,53,236,,1*60
$GPGSV,4,2,14,13,13,155,41,14,00,060,,15,32,186,43,17,26,048,43,1*64
$GPGSV,4,3,14,19,44,081,48,22,20,058,44,23,12,252,39,24,88,345,41,1*68
$GPGSV,4,4,14,25,16,242,,32,10,322,41,1*63
$GLGSV,3,1,09,65,53,259,36,66,29,325,45,72,22,194,33,74,38,058,39,1*75
$GLGSV,3,2,09,75,69,322,39,76,19,265,36,83,14,016,33,84,26,082,42,1*74
$GLGSV,3,3,09,85,08,131,,1*47
$GAGSV,3,1,11,03,00,324,,04,19,159,34,05,45,301,34,06,42,172,43,7*73
$GAGSV,3,2,11,09,61,199,41,13,06,014,33,16,18,236,35,23,27,058,43,7*78
$GAGSV,3,3,11,24,43,234,36,26,08,062,,31,80,068,,7*4E
$GBGSV,3,1,10,05,15,124,38,07,17,047,37,10,28,055,41,19,36,233,,1*7F
$GBGSV,3,2,10,20,09,191,37,21,01,339,,22,33,299,30,27,25,122,45,1*78
$GBGSV,3,3,10,28,28,072,48,30,03,165,,1*7C
$GNRMC,090049.00,A,4843.26045,N,00920.55325,E,0.019,,080225,,,A,V*14
$GNGGA,090049.00,4843.26045,N,00920.55325,E,1,12,0.43,251.6,M,47.6,M,,*46
$GPGSV,4,1,14,01,01,010,,06,00,107,,10,18,294,,12,53,236,,1*60
$GPGSV,4,2,14,13,13,155,42,14,00,060,,15,32,186,43,17,26,048,42,1*66
$GPGSV,4,3,14,19,44,081,48,22,20,058,44,23,12,252,40,24,88,345,41,1*66
$GPGSV,4,4,14,25,16,242,,32,10,322,41,1*63
$GLGSV,3,1,09,65,53,259,37,66,29,325,45,72,22,194,32,74,38,058,38,1*74
$GLGSV,3,2,09,75,69,322,40,76,19,265,34,83,14,016,33,84,26,082,42,1*78
$GLGSV,3,3,09,85,08,131,,1*47
$GAGSV,3,1,11,03,00,324,,04,19,159,35,05,45,301,34,06,42,172,43,7*72
$GAGSV,3,2,11,09,61,199,41,13,06,014,32,16,18,236,35,23,27,058,43,7*79
$GAGSV,3,3,11,24,43,234,36,26,08,062,,31,80,068,,7*4E
$GBGSV,3,1,10,05,15,124,38,07,17,047,37,10,28,055,41,19,36,233,,1*7F
$GBGSV,3,2,10,20,09,191,37,21,01,339,,22,33,299,30,27,25,122,45,1*78
$GBGSV,3,3,10,28,28,072,48,30,03,165,,1*7C
$GNRMC,090050.00,A,4843.26043,N,00920.55326,E,0.005,,080225,,,A,V*14
$GNGGA,090050.00,4843.26043,N,00920.55326,E,1,12,0.43,251.5,M,47.6,M,,*48
$GPGSV,4,1,14,01,01,010,,06,00,107,,10,18,294,,12,53,236,,1*60
$GPGSV,4,2,14,13,13,155,41,14,00,060,,15,32,186,43,17,26,048,42,1*65
$GPGSV,4,3,14,19,44,081,48,22,20,058,44,23,12,252,40,24,88,345,41,1*66
$GPGSV,4,4,14,25,16,242,,32,10,322,42,1*60
$GLGSV,3,1,09,65,53,259,3766,29,325,44,72,22,194,33,74,38,058,38,1*74
$GLGSV,3,2,09,75,69,322,40,76,19,265,36,83,14,016,33,84,26,081,42,1*79
$GLGSV,3,3,09,85,08,131,,1*47
$GAGSV,3,1,11,03,00,324,,04,19,159,35,05,45,301,34,06,42,172,43,7*72
$GAGSV,3,2,11,09,61,199,41,13,06,014,32,16,18,236,35,23,27,058,43,7*79
$GAGSV,3,3,11,24,43,234,36,26,08,062,,31,80,068,,7*4E
$GBGSV,,1,10,05,15,124,38,07,17,047,37,10,28,055,42,19,36,233,,1*7C
$GBGSV,3,2,10,20,09,191,38,21,01,339,,22,33,299,30,27,25,122,46,1*74
$GBGSV,3,3,10,28,28,072,48,30,03,165,,1*7C
$GNRMC,090051.00,A,4843.26041,N,00920.55327,E,0.016,,080225,,,A,V*14
$GNGGA,090051.00,4843.26041,N,00920.55327,E,1,12,0.43,251.4,M,47.6,M,,*4B
$GPGSV,4,1,14,01,01,010,,06,00,107,,10,18,294,,12,53,236,,1*60
$GPGSV,4,2,14,13,13,155,41,14,00,060,,15,32,186,43,17,26,048,42,1*65
$GPGSV,4,3,14,19,44,081,48,22,20,058,44,23,12,252,40,24,88,345,41,1*66
$GPGSV,4,4,14,25,16,242,,32,10,322,42,1*60
$GLGSV,3,1,09,65,53,259,37,66,29,325,45,72,22,194,32,74,38,058,38,1*74
$GLGSV,3,2,09,75,69,322,41,76,19,265,37,83,14,016,34,84,26,081,42,1*7E
$GLGSV,3,3,09,85,09,131,,1*46
$GAGSV,3,1,11,03,00,324,,04,19,159,36,05,45,301,34,06,42,172,43,7*71
$GAGSV,3,2,11,09,61,199,41,13,06,014,32,16,18,236,35,23,27,058,43,7*79
$GAGSV,3,3,11,24,43,234,36,26,08,062,,31,80,068,,7*4E
$GBGSV,3,1,10,05,15,124,38,07,17,047,37,10,28,055,42,19,36,233,,1*7C
$GBGSV,3,2,10,20,09,191,38,21,01,339,,22,33,299,31,27,25,122,46,1*75
$GBGSV,3,3,10,28,28,072,48,30,03,165,,1*7C
$GNRMC,090052.00,A,4843.26039,N,00920.55328,E,0.010,,080225,,,A,V*11
$GNGGA,090052.00,4843.26039,N,00920.55328,E,1,12,0.43,251.3,M,47.6,M,,*4F
$GPGSV,4,1,14,01,01,010,,06,00,107,,10,18,294,,12,53,236,,1*60
$GPGSV,4,2,14,13,13,155,42,14,00,060,,15,32,186,43,17,26,048,42,1*66
$GPGSV,4,3,14,19,44,081,48,22,20,058,44,23,12,252,40,24,88,345,41,1*66
$GPGSV,4,4,14,25,16,242,,32,10,322,42,1*60
$GLGSV,3,1,09,65,53,259,38,66,29,325,44,72,22,194,32,74,38,058,38,1*7A
$GLGSV,3,2,09,75,69,322,41,76,19,265,38,83,14,016,34,84,26,081,42,1*71
$GLGSV,3,3,09,85,09,131,,1*46
$GAGSV,3,1,11,03,00,324,,04,19,159,36,05,45,301,34,06,42,172,43,7*71
$GAGSV,3,2,11,09,61,199,41,13,06,014,33,16,18,236,35,23,27,058,43,7*78
$GAGSV,3,3,11,24,43,234,35,26,08,062,,31,80,068,,7*4D
$GBGSV,3,1,10,05,15,124,38,07,17,047,37,10,28,055,42,19,36,233,,1*7C
$GBGSV,3,2,10,20,09,191,38,21,01,339,,22,33,299,31,27,25,122,46,1*75
$GBGSV,3,3,10,28,28,072,48,30,03,165,,1*7C
$GNRMC,090053.00,A,4843.26037,N,00920.55329,E,0.007,,080225,,,A,V*19
$GNGGA,090053.00,4843.26037,N,00920.55329,E,1,12,0.43,251.3,M,47.6,M,,*41
$GPGSV,4,1,14,01,01,010,,06,00,107,,10,18,294,,12,53,236,,1*60
$GPGSV,4,2,14,13,13,155,42,14,00,060,,15,32,186,43,17,26,048,42,1*66
$GPGSV,4,3,14,19,44,081,48,22,20,058,44,23,12,252,39,24,88,345,41,1*68
$GPGSV,4,4,14,25,16,242,,32,10,322,42,1*60
$GLGSV,3,1,09,65,53,259,38,66,29,325,45,72,22,194,31,74,38,058,39,1*79
$GLGSV,3,2,09,75,69,322,41,76,19,265,37,83,14,016,34,84,26,081,42,1*7E
$GLGSV,3,3,09,85,09,131,,1*46
$GAGSV,3,1,11,03,00,324,,04,19,159,36,05,45,301,35,06,42,172,43,7*70
$GAGSV,3,2,11,09,61,199,41,3,06,014,33,16,18,236,35,23,27,058,43,7*78
$GAGSV,3,3,11,24,43,234,35,26,08,062,,31,80,068,,7*4D
$GBGSV,3,1,10,05,15,124,38,07,17,047,37,10,28,055,41,19,36,233,,1*7F
$GBGSV,3,2,10,20,09,191,39,21,01,339,,22,33,299,31,27,25,122,46,1*74
$GBGSV,3,3,10,28,28,072,48,30,03,165,,1*7C
$GNGGA,090054.00,4843.26035,N,00920.55330,E,1,12,0.43,251.2,M,47.6,M,,*4D
$GPGSV,4,1,14,01,01,010,,06,00,107,,10,18,294,,12,53,236,,1*60
$GPGSV,4,2,14,13,13,155,42,14,00,060,,15,32,186,43,17,26,048,41,1*65
$GPGSV,4,3,14,19,44,081,49,22,20,058,44,23,12,252,39,24,88,345,41,1*69
$GPGSV,4,4,14,25,16,242,,32,10,322,42,1*60
$GLGSV,3,1,09,65,53,259,38,66,29,325,44,72,22,194,32,74,38,058,39,1*7B
$GLGSV,3,2,09,75,69,322,41,76,19,265,38,83,14,016,34,84,26,081,42,1*71
$GLGSV,3,3,09,85,09,131,,1*46
$GAGSV,3,1,11,03,00,324,,04,19,159,37,05,45,301,34,06,42,172,43,7*70
$GAGSV,3,2,11,09,61,199,41,13,06,014,34,16,18,236,35,23,27,058,43,7*7F
$GAGSV,3,3,11,24,43,234,36,26,08,062,,31,80,068,,7*4E
$GBGSV,3,1,10,05,15,124,38,07,17,047,37,10,28,055,42,19,36,233,,1*7C
$GBGSV,3,2,10,20,09,191,39,21,01,339,,22,33,299,32,27,25,122,46,1*77
$GBGSV,3,3,10,28,28,072,48,30,03,165,,1*7C
$GNRMC,090055.00,A,4843.26033,N,00920.55326,E,0.137,,080225,,,A,V*16
$GNGGA,090055.00,4843.26033,N,00920.55326,E,1,12,0.43,251.1,M,47.6,M,,*4E
$GPGSV,4,1,14,01,01,010,,06,00,107,,10,18,294,,12,53,236,,1*60
$GPGSV,4,2,14,13,13,155,42,14,00,060,,15,32,186,43,17,26,048,42,1*66
$GPGSV,4,3,14,19,44,081,49,22,20,058,45,23,12,252,39,24,88,345,42,1*6B
$GPGSV,4,4,14,25,16,242,,32,10,322,41,1*63
$GLGSV,3,1,09,65,53,259,38,66,29,325,44,72,22,194,32,74,38,058,39,1*7B
$GLGSV,3,2,09,75,69,322,42,76,19,265,39,83,14,016,33,84,26,081,42,1*74
$GLGSV,3,3,09,85,09,131,,1*46
$GAGSV,3,1,11,03,00,324,,04,19,159,37,05,45,301,34,06,42,172,43,7*70
$GAGSV,3,2,11,09,61,199,41,13,06,014,34,16,18,236,35,23,27,058,43,7*7F
$GAGSV,3,3,11,24,43,234,36,26,08,062,,31,80,068,,7*4E
$GBGSV,3,1,10,05,15,124,38,07,17,047,37,10,28,055,42,19,36,233,,1*7C
$GBGSV,3,2,10,20,09,191,39,21,01,339,,22,33,299,32,27,25,122,46,1*77
$GBGSV,3,3,10,28,28,072,48,30,03,165,,1*7C
$GNRMC,090056.00,A,4843.26031,N,00920.55325,E,0.011,,080225,,,A,V*11
$GNGGA,090056.00,4843.26031,N,00920.55325,E,1,12,0.43,251.1,M,47.6,M,,*4C
$GPGSV,4,1,14,01,01,009,,06,00,107,,10,18,294,,12,53,236,,1*68
$GPGSV,4,2,14,13,13,155,41,14,00,060,,15,32,186,42,17,26,048,41,1*67
$GPGSV,4,3,14,19,44,081,48,22,20,058,44,23,12,252,39,24,88,345,42,1*6B
$GPGSV,4,4,14,25,16,242,,32,10,322,42,1*60
$GLGSV,3,1,09,65,53,259,38,66,29,325,44,72,22,194,32,74,38,058,39,1*7B
$GLGSV,3,2,09,75,69,322,41,76,19,265,39,83,14,016,34,84,26,081,42,1*70
$GLGSV,3,3,09,85,09,131,,1*46
$GAGSV,3,1,11,03,00,324,,04,19,159,37,05,45,301,34,06,42,172,43,7*70
$GAGSV,3,2,11,09,61,199,41,13,06,014,33,16,18,236,35,23,27,058,43,7*78
$GAGSV,3,3,11,24,43,234,36,26,08,062,,31,80,068,,7*4E
$GBGSV,3,1,10,05,15,124,38,07,17,047,37,10,28,055,42,19,36,233,,1*7C
$GBGSV,3,2,10,20,09,191,39,21,01,339,,22,33,299,33,27,25,122,46,1*76
$GBGSV,3,3,10,28,28,072,48,30,03,165,,1*7C
$GNRMC,090057.00,A,4843.26028,N,00920.55326,E,0.005,,080225,,,A,V*1E
$GNGGA,090057.00,4843.26028,N,00920.55326,E,1,12,0.43,251.0,M,47.6,M,,*47
$GPGSV,4,1,14,01,01,009,,06,00,107,,10,18,294,,12,53,236,,1*68
$GPGSV,4,2,14,13,13,155,41,14,00,060,,15,32,186,42,17,26,048,41,1*67
$GPGSV,4,3,14,19,44,081,48,22,20,058,44,23,12,252,39,24,88,345,42,1*6B
$GPGSV,4,4,14,25,16,242,,32,10,322,42,1*60
$GLGSV,3,1,09,65,53,259,37,66,29,325,44,72,22,194,31,74,38,058,39,1*77
$GLGSV,3,2,09,75,69,322,41,76,19,265,39,83,14,016,34,84,26,081,42,1*70
$GLGSV,3,3,09,85,09,131,,1*46
$GAGSV,3,1,11,03,00,324,,04,19,159,38,05,45,301,34,06,42,172,44,7*78
$GAGSV,3,2,11,09,61,199,41,13,06,014,35,16,18,236,35,23,27,058,43,7*7E
$GAGSV,3,3,11,24,43,234,36,26,08,062,,31,80,068,,7*4E
$GBGSV,3,1,10,05,15,124,38,07,17,047,37,10,28,055,41,19,36,233,,1*7F
$GBGSV,3,2,10,20,09,191,39,21,01,339,,22,33,299,32,27,25,122,46,1*77
$GBGSV,3,3,10,28,28,072,48,30,03,165,,1*7C
$GNRMC,090058.00,A,4843.26027,N,00920.55326,E,0.003,,080225,,,A,V*18
$GNGGA,090058.00,4843.26027,N,00920.55326,E,1,12,0.43,250.9,M,47.6,M,,*4F
$GPGSV,4,1,14,01,01,009,,06,00,107,,10,18,294,,12,53,236,,1*68
$GPGSV,4,2,14,13,13,155,41,14,00,060,,15,32,186,42,17,26,048,41,1*67
$GPGSV,4,3,14,19,44,081,48,22,20,058,44,23,12,252,39,24,88,345,42,1*6B
$GPGSV,4,4,14,25,16,242,,32,10,322,42,1*60
$GLGSV,3,1,09,65,53,259,37,66,29,325,44,72,22,194,31,74,38,058,39,1*77
$GLGSV,3,2,09,75,69,322,41,76,19,265,39,83,14,016,34,8426,081,42,1*70
$GLGSV,3,3,09,85,09,131,,1*46
$GAGSV,3,1,11,03,00,324,,04,19,159,38,05,45,301,34,06,42,172,43,7*7F
$GAGSV,3,2,11,09,61,199,40,13,06,014,35,16,18,236,35,23,27,058,43,7*7F
$GAGSV,3,3,11,24,43,234,36,26,08,062,,31,80,068,,7*4E
$GBGSV,3,1,10,05,15,124,38,07,17,047,37,10,28,055,42,19,36,233,,1*7C
$GBGSV,3,2,10,20,09,191,40,21,01,339,,22,33,299,33,27,25,122,47,1*79
$GBGSV,3,3,10,28,28,072,47,30,03,165,,1*73
$GNRMC,090059.00,A,4843.26025,N,00920.55327,E,0.002,,080225,,,A,V*1B
$GNGGA,090059.00,4843.26025,N,00920.55327,E,1,12,0.43,250.8,M,47.6,M,,*4C
$GPGSV,4,1,14,01,01,009,,06,00,107,,10,18,294,,12,53,236,,1*68
$GPGSV,4,2,14,13,13,155,42,14,00,060,,15,32,186,42,17,26,048,42,1*67
$GPGSV,4,3,14,19,44,081,48,22,20,058,45,23,12,252,39,24,88,345,42,1*6A
$GPGSV,4,4,14,25,16,242,,32,10,322,42,1*60
$GLGSV,3,1,09,65,53,259,37,66,29,325,44,72,22,194,32,74,38,058,39,1*74
$GLGSV,3,2,09,75,69,322,41,76,19,265,39,83,14,016,34,84,26,081,42,1*70
$GLGSV,3,3,09,85,09,131,,1*46
$GAGSV,3,1,11,03,00,324,,04,19,159,38,05,45,301,34,06,42,172,43,7*7F
$GAGSV,3,2,11,09,61,199,40,13,06,014,35,16,18,236,35,23,27,058,43,7*7F
$GAGSV,3,3,11,24,43,234,36,26,08,062,,31,80,068,,7*4E
$GBGSV,3,1,10,05,15,124,38,07,17,047,36,10,28,055,42,19,36,233,,1*7D
$GBGSV,3,2,10,20,09,191,40,21,01,339,,22,33,299,33,27,25,122,47,1*79
$GBGSV,3,3,10,28,28,072,47,30,03,165,,1*73
$GNRMC,090100.00,A,4843.26023,N,00920.55327,E,0.019,,080225,,,A,V*1A
$GNGGA,090100.00,4843.26023,N,00920.55327,E,1,12,0.43,250.7,M,47.6,M,,*48
$GPGSV,4,1,14,01,01,009,,06,00,107,,10,18,294,,12,53,236,,1*68
$GPGSV,4,2,14,13,13,155,42,14,00,060,,15,32,186,42,17,26,048,42,1*67
$GPGSV,4,3,14,19,44,081,48,22,20,058,44,23,12,252,38,24,88,345,42,1*6A
$GPGSV,4,4,14,25,16,242,,32,10,322,42,1*60
$GLGSV,3,1,09,65,53,259,36,66,29,325,44,72,22,194,32,74,38,058,39,1*75
$GLGSV,3,2,09,75,69,322,41,7619,265,39,83,14,016,34,84,26,081,42,1*70
$GLGSV,3,3,09,85,09,131,,1*46
$GAGSV,3,1,11,03,00,324,,04,19,159,39,05,45,301,34,06,4,172,44,7*79
$GAGSV,3,2,11,09,61,199,40,13,06,014,35,16,18,236,34,23,27,058,43,7*7E
$GAGSV,3,3,11,24,43,234,36,26,08,062,,31,80,068,,7*4E
$GBGSV,3,1,10,05,15124,38,07,17,047,36,10,28,055,41,19,36,233,,1*7E
$GBGSV,3,2,10,20,09,191,40,21,01,339,,22,33,299,32,27,25,122,47,1*78
$GBGSV,3,3,10,28,28,072,47,30,03,165,,1*73
$GNRMC,090101.00,A,4843.26022,N,00920.55328,E,0.019,,080225,,,A,V*15
$GNGGA,090101.00,4843.26022,N,00920.55328,E,1,12,0.43,250.7,M,47.6,M,,*47
$GPGSV,4,1,14,01,01,009,,06,01,106,,10,18,294,,12,53,236,,1*68
$GPGSV,4,2,14,13,13,155,43,14,00,060,,15,32,186,42,17,26,048,42,1*66
$GPGSV,4,3,14,19,44,081,48,22,20,058,44,23,12,252,38,24,88,345,42,1*6A
$GPGSV,4,4,14,25,16,242,,32,10,322,42,1*60
$GLGSV,3,1,09,65,53,259,36,66,29,325,44,72,22,194,31,74,38,058,39,1*76
$GLGSV,3,2,09,75,69,322,42,76,19,265,39,83,14,016,34,84,26,081,42,1*73
$GLGSV,3,3,09,85,09,131,,1*46
$GAGSV,3,1,11,03,00,324,,04,19,159,39,05,45,301,34,06,42,172,44,7*79
$GAGSV,3,2,11,09,61,199,40,1,06,014,36,16,18,236,35,23,27,058,43,7*7C
$GAGSV,3,3,11,24,43,234,36,26,08,062,,31,80,068,,7*4E
$GBGSV,3,1,10,05,15,124,38,07,17,047,36,10,28,055,41,19,36,233,,1*7E
$GBGSV,3,2,10,20,09,191,40,21,01,339,,22,33,299,32,27,25,122,47,1*78
$GBGSV,3,3,10,28,28,072,47,30,03,165,,1*73
$GNRMC,090102.00,A,4843.26020,N,00920.55329,E,0.014,,080225,,,A,V*18
$GNGGA,090102.00,4843.26020,N,00920.55329E,1,12,0.43,250.6,M,47.6,M,,*46
$GPGSV,4,1,14,01,01,009,,06,01,106,,10,18,294,,12,53,236,,1*68
$GPGSV,4,2,14,13,13,155,43,14,00,060,,15,32,186,42,17,26,048,42,1*66
$GPGSV,4,3,14,19,44,081,48,22,20,058,44,23,12,252,38,24,88,345,42,1*6A
$GPGSV,4,4,14,25,16,242,,32,10,322,40,1*62
$GLGSV,3,2,09,75,69,322,41,76,19,265,25,83,14,016,35,84,26,081,42,1*7C
$GLGSV,3,3,09,85,09,131,,1*46
$GAGSV,3,1,11,03,00,324,,04,19,159,39,05,45,301,34,06,42,172,44,7*79
$GAGSV,3,2,11,09,61,199,40,13,06,014,35,16,18,236,35,23,27,058,43,7*7F
$GAGSV,3,3,11,24,43,234,36,26,08,062,,31,80,068,,7*4E
$GBGSV,3,1,10,05,15,124,38,0,17,047,36,10,28,055,41,19,36,233,,1*7E
$GBGSV,3,2,10,20,09,191,40,21,01,339,,22,33,299,33,27,25,122,47,1*79
$GBGSV,3,3,10,28,,072,47,30,03,165,,1*73
$GNRMC,090103.00,A,4843.26018,N,00920.55329,E,0.008,,080225,,,A,V*1F
$GNGGA,090103.00,4843.26018,N,00920.55329,E,1,12,0.43,250.5,M,47.6,M,,*4F
$GPGSV,4,1,14,01,01,009,,06,01,106,,10,18,294,,12,53,236,,1*68
$GPGSV,4,2,14,13,13,155,43,14,00,060,,15,32,186,42,17,26,048,42,1*66
$GPGSV,4,3,14,19,44,081,48,22,20,058,44,23,12,252,38,24,88,345,42,1*6A
$GPGSV,4,4,14,25,16,242,,32,10,322,42,1*60
$GLGSV,3,1,09,65,53,259,35,66,29,325,43,72,22,194,33,74,38,058,39,1*70
$GLGSV,3,3,09,85,09,131,,1*46
$GAGSV,3,1,11,03,00,324,,04,19,159,39,05,45,301,34,06,42,172,44,7*79
$GAGSV,3,2,11,09,61,199,40,13,06,014,36,16,18,236,34,23,27,058,43,7*7D
$GAGSV,3,3,11,24,43,234,36,26,08,062,,31,80,068,,7*4E
$GBGSV,3,1,10,05,15,124,38,07,17,047,36,10,28,055,41,19,36,233,,1*7E
$GBGSV,3,2,10,20,09,191,40,21,01,339,,22,33,299,32,27,25,122,47,1*78
$GBGSV,3,3,10,28,28,072,47,30,03,165,,1*73
$GNRMC,090104.00,A,4843.26016,N,00920.55329,E,0.010,,080225,,,A,V*1F
$GNGGA,090104.00,4843.26016,N,00920.55329,E,1,12,0.43,250.4,M,47.6,M,,*47
$GPGSV,4,1,14,01,01,009,,06,01,106,,10,18,294,,12,53,236,,1*68
$GPGSV,4,2,14,13,13,155,43,14,00,060,,15,32,186,42,17,26,048,42,1*66
$GPGSV,4,3,14,19,44,081,48,22,20,058,44,23,12,252,39,24,88,345,42,1*6B
$GPGSV,4,4,14,25,16,242,,32,10,322,42,1*60
$GLGSV,3,1,09,65,53,259,35,66,29,325,43,72,22,194,34,74,38,058,38,1*76
$GLGSV,3,2,09,75,69,322,41,76,19,265,40,83,14,016,34,84,26,081,42,1*7E
$GLGSV,3,3,09,85,09,131,,1*46
$GAGSV,3,1,11,03,00,324,,04,19,159,39,05,45,301,34,06,42,172,44,7*79
