$GNRMC,040000.00,A,4843.26163,N,00920.55406,E,0.017,,080225,,,A,V*19
$GNGGA,040000.00,4843.26163,N,00920.55406,E,1,12,0.48,248.5,M,47.6,M,,*45
$GPGSV,3,1,12,05,46,302,37,06,01,199,,07,56,062,48,09,21,094,41,1*6F
$GPGSV,3,2,12,11,20,224,41,13,31,276,37,14,20,158,46,18,03,341,,1*67
$GPGSV,3,3,12,20,65,239,35,22,04,171,,27,01,041,,30,80,174,42,1*65
$GLGSV,3,1,09,69,20,106,48,70,75,027,31,71,36,310,46,73,25,182,39,1*76
$GLGSV,3,2,09,79,32,037,47,80,64,115,52,85,00,233,,86,21,281,37,1*7D
$GLGSV,3,3,09,87,19,329,35,1*48
$GAGSV,3,1,12,04,52,284,41,06,27,277,38,09,05,275,,10,31,242,,7*7B
$GAGSV,3,2,12,11,35,276,38,12,21,218,,19,63,075,40,21,37,104,40,7*79
$GAGSV,3,3,12,23,17,157,40,27,22,045,45,29,17,089,43,36,16,327,,7*7A
$GBGSV,3,1,11,02,00,103,,05,17,123,45,06,04,053,,07,07,076,36,1*76
$GBGSV,3,2,11,09,19,053,44,10,06,088,,16,01,052,,20,27,302,39,1*7A
$GBGSV,3,3,11,23,62,138,49,25,37,056,48,29,06,293,27,1*48
$GNRMC,040001.00,A,4843.26160,N,00920.55402,E,0.044,,080225,,,A,V*19
$GNGGA,040001.00,4843.26160,N,00920.55402,E,1,12,0.48,248.4,M,47.6,M,,*42
$GPGSV,3,1,12,05,46,302,36,06,01,199,,07,56,062,48,09,21,094,41,1*6E
$GPGSV,3,2,12,11,20,224,41,13,31,276,37,14,20,158,46,18,03,341,,1*67
$GPGSV,3,3,12,20,65,239,36,22,04,171,,27,01,041,,30,80,174,42,1*66
$GLGSV,3,1,09,69,20,106,48,70,75,027,31,71,36,310,46,73,25,182,40,1*78
$GLGSV,3,2,09,79,32,037,47,80,64,115,52,85,00,233,,86,21,281,37,1*7D
$GLGSV,3,3,09,87,19,329,34,1*49
$GAGSV,3,1,12,04,52,284,41,06,27,277,39,09,05,275,,10,31,242,,7*7A
$GAGSV,3,2,12,11,35,276,38,12,21,218,,19,63,075,40,21,37,104,41,7*78
$GAGSV,3,3,12,23,17,157,41,27,22,045,45,29,17,089,44,36,16,327,,7*7C
$GBGSV,3,1,11,02,00,103,29,05,17,123,45,06,04,053,,07,07,076,36,1*7D
$GBGSV,3,2,11,09,19,053,44,10,06,088,,16,01,052,,20,27,302,39,1*7A
$GBGSV,3,3,11,23,62,138,49,25,37,056,48,29,06,293,32,1*4C
$GNRMC,040002.00,A,4843.26157,N,00920.55399,E,0.014,,080225,,,A,V*1E
$GNGGA,040002.00,4843.26157,N,00920.55399,E,1,12,0.48,248.4,M,47.6,M,,*40
$GPGSV,3,1,12,05,47,302,36,06,01,199,,07,56,062,48,09,21,094,41,1*6F
$GPGSV,3,2,12,11,20,224,41,13,31,277,36,14,20,158,46,18,03,341,,1*67
$GPGSV,3,3,12,20,65,238,35,22,04,171,,27,01,041,,30,80,173,42,1*63
$GLGSV,3,1,09,69,20,106,48,70,75,027,31,71,36,310,46,73,25,182,41,1*79
$GLGSV,3,2,09,79,32,037,47,80,64,115,52,85,00,233,,86,21,281,38,1*72
$GLGSV,3,3,09,87,19,329,34,1*49
$GAGSV,3,1,12,04,52,284,41,06,27,277,38,09,05,275,,10,31,242,,7*7B
$GAGSV,3,2,12,11,35,276,38,12,21,218,,19,63,075,40,21,37,104,41,7*78
$GAGSV,3,3,12,23,17,157,41,27,22,045,45,29,17,089,44,36,16,327,,7*7C
$GBGSV,3,1,11,02,00,103,,05,17,123,45,06,04,053,,07,07,076,36,1*76
$GBGSV,3,2,11,09,19,053,44,10,06,088,,16,01,052,,20,27,302,39,1*7A
$GBGSV,3,3,11,23,62,138,49,25,37,056,47,29,06293,32,1*43
$GNRMC,040003.00,A,4843.26155,N,00920.55397,E,0.003,,080225,,,A,V*15
$GNGGA,040003.00,4843.26155,N,00920.55397,E,1,12,0.48,248.3,M,47.6,M,,*4A
$GPGSV,3,1,12,05,47,302,36,06,01,199,,07,56,062,48,09,21,094,41,1*6F
$GPGSV,3,2,12,11,20,224,40,13,31,277,37,14,20,158,46,18,03,341,,1*67
$GPGSV,3,3,12,20,65,238,36,22,04,171,,27,01,041,,30,80,173,42,1*60
$GLGSV,3,1,09,69,20,106,48,70,75,027,31,71,36,310,46,73,25,182,41,1*79
$GLGSV,3,2,09,79,32,037,47,80,64,115,51,85,00,233,,86,21,281,37,1*7E
$GLGSV,3,3,09,87,19,329,34,1*49
$GAGSV,3,1,12,04,52,284,41,06,27,277,38,09,05,275,,10,31,242,,7*7B
$GAGSV,3,2,12,11,35,276,38,12,21,218,,19,63,075,40,21,37,104,41,7*78
$GAGSV,3,3,12,23,17,157,41,27,22,045,45,29,17,089,44,36,16,327,,7*7C
$GBGSV,3,1,11,02,00,103,,05,17,123,45,06,04,053,,07,07,076,36,1*76
$GBGSV,3,2,11,09,19,053,44,10,06,088,,16,01,052,,20,27,302,39,1*7A
$GBGSV,3,3,11,23,62,138,49,25,37,056,47,29,06,293,32,1*43
$GNRMC,040004.00,A,4843.26153,N,00920.55397,E,0.004,,080225,,,A,V*13
$GNGGA,040004.00,4843.26153,N,00920.55397,E,1,12,0.48,248.3,M,47.6,M,,*4B
$GPGSV,3,1,12,05,47,302,36,06,01,199,,07,56,062,48,09,21,094,42,1*6C
$GPGSV,3,2,12,11,20,224,40,13,31,277,37,14,20,158,46,18,03,341,,1*67
$GPGSV,3,3,12,20,65,238,37,22,04,171,,27,01,041,,30,80,173,42,1*61
$GLGSV,3,1,09,69,20,106,48,70,75,027,33,71,36,310,46,73,25,182,42,1*78
$GLGSV,3,2,09,79,32,037,47,80,64,115,51,85,00,233,,86,21,281,37,1*7E
$GLGSV,3,3,09,87,19,329,34,1*49
$GAGSV,3,1,12,04,52,284,41,06,27,277,38,09,05,275,,10,31,242,,7*7B
$GAGSV,3,2,12,11,35,276,38,12,21,218,,19,63,075,39,21,37,104,41,7*76
$GAGSV,3,3,12,23,17,157,41,27,22,045,45,29,17,089,44,36,16,327,,7*7C
$GBGSV,3,1,11,02,00,103,,05,17,123,45,06,04,053,,07,07,076,36,1*76
$GBGSV,3,2,11,09,19,053,44,10,06,088,,16,01,052,,20,27,302,39,1*7A
$GBGSV,3,3,11,23,62,138,49,25,37,056,47,29,06,293,32,1*43
$GNRMC,040005.00,A,4843.26152,N,00920.55396,E,0.004,,080225,,,A,V*12
$GNGGA,040005.00,4843.26152,N,00920.55396,E,1,12,0.48,248.,M,47.6,M,,*4B
$GPGSV,3,1,12,05,47,302,35,06,01,199,,07,56,062,48,09,21,094,42,1*6F
$GPGSV,3,2,12,11,20,224,41,13,31,277,38,14,20,158,46,18,03,341,,1*69
$GPGSV,3,3,12,20,65,238,37,22,04,171,,27,01,041,,30,80,173,42,1*61
$GLGSV,3,1,09,69,20,106,48,70,75,027,33,71,36,310,46,73,25,182,43,1*79
$GLGSV,3,2,09,79,32,037,47,80,64,115,51,85,00,233,,86,21,281,37,1*7E
$GLGSV,3,3,09,87,19,329,34,1*49
$GAGSV,3,1,12,04,52,284,41,06,27,277,38,09,05,275,,10,31,242,,7*7B
$GAGSV,3,2,12,11,35,276,38,12,21,218,,19,63,075,39,21,37,104,41,7*76
$GAGSV,3,3,12,23,17,157,41,27,22,045,45,29,17,089,44,36,16,326,,7*7D
$GBGSV,3,1,11,02,00,103,,05,17,123,45,06,04,053,,07,07,076,36,1*76
$GBGSV,3,2,11,09,19,053,44,10,06,088,,16,01,052,,20,27,302,39,1*7A
$GBGSV,3,3,11,23,62,138,49,25,37,056,47,29,06,293,32,1*43
$GNRMC,040006.00,A,4843.26150,N,00920.55395,E,0.013,,080225,,,A,V*16
$GNGGA,040006.00,4843.26150,N,00920.55395,E,1,12,0.48,248.1,M,47.6,M,,*4A
$GPGSV,3,1,12,05,47,302,35,06,01,199,,07,56,062,48,09,21,094,42,1*6F
$GPGSV,3,2,12,11,20,224,41,13,31,277,38,14,20,158,46,18,03,341,,1*69
$GPGSV,3,3,12,20,65,238,38,22,04,171,,27,01,041,,30,80,173,42,1*6E
$GLGSV,3,1,09,69,20,106,48,70,75,027,34,71,36,310,46,73,25,182,45,1*78
$GLGSV,3,2,09,79,32,037,46,80,64,115,51,85,00,233,,86,21,281,36,1*7E
$GLGSV,3,3,09,87,19,329,33,1*4E
$GAGSV,3,1,12,04,52,284,41,06,27,277,38,09,05,275,,10,31,242,,7*7B
$GAGSV,3,2,12,11,35,276,38,12,21,218,,19,63,075,39,21,37,104,41,7*76
$GAGSV,3,3,12,23,17,157,40,27,22,045,45,29,17,089,44,36,16,326,,7*7C
$GBGSV,3,1,11,02,00,103,,05,17,123,45,06,04,053,,07,07,076,3,1*76
$GBGSV,3,2,11,09,19,053,44,10,06,088,,16,01,052,,20,27,302,39,1*7A
$GBGSV,3,3,11,23,62,138,49,25,37,056,47,29,06,293,31,1*40
$GNRMC,040007.00,A,4843.26149,N,00920.55393,E,0.023,,080225,,,A,V*1A
$GNGGA,040007.00,4843.26149,N,00920.55393,E,1,12,0.48,248.0,M,47.6,M,,*44
$GPGSV,3,1,12,05,47,302,35,06,01,199,,07,56,062,48,09,21,094,42,1*6F
$GPGSV,3,2,12,11,20,224,41,13,31,277,38,14,20,158,46,18,03,341,,1*69
$GPGSV,3,3,12,20,65,238,38,22,04,171,,27,01,041,,30,80,173,42,1*6E
$GLGSV,3,1,09,69,20,106,46,70,75,027,33,71,36,310,46,73,25,182,46,1*72
$GLGSV,3,2,09,79,32,037,46,80,64,115,51,85,00,233,,86,21,281,35,1*7D
$GLGSV,3,3,09,87,19,329,33,1*4E
$GAGSV,3,1,12,04,52,284,41,06,27,277,38,09,05,275,,10,31,242,,7*7B
$GAGSV,3,2,12,11,35,276,38,12,21,218,,19,63,075,39,21,37,104,41,7*76
$GAGSV,3,3,12,23,17,157,40,27,22,045,45,29,17,089,44,36,16,326,,7*7C
$GBGSV,3,1,11,02,00,103,,05,17,123,45,06,04,053,,07,07,076,37,1*77
$GBGSV,3,2,11,09,19,053,44,10,06,088,,16,01,052,,20,27,302,40,1*74
$GBGSV,3,3,11,23,62,138,49,25,37,056,47,29,06,293,31,1*40
$GNRMC,040008.00,A,4843.26147,N,00920.55392,E,0.010,,080225,,,A,V*1A
$GNGGA,040008.00,4843.26147,N,00920.55392,E,1,12,0.48,247.9,M,47.6,M,,*42
$GPGSV,3,1,12,05,47,302,36,06,01,199,,07,56,062,48,09,21,094,42,1*6C
$GPGSV,3,2,12,11,20,224,41,13,31,277,38,14,20,158,46,18,03,341,,1*69
$GPGSV,3,3,12,20,65,238,39,22,04,171,,27,01,041,,30,80,173,42,1*6F
$GLGSV,3,1,09,69,20,106,47,70,75,027,33,71,36,310,46,73,25,182,46,1*73
$GLGSV,3,2,09,79,32,037,46,80,64,115,51,85,00,233,,86,21,281,35,1*7D
$GLGSV,3,3,09,87,19,329,33,1*4E
$GAGSV,3,1,12,04,52,284,41,06,27,277,38,09,05,275,,10,31,242,,7*7B
$GAGSV,3,2,12,11,35,276,38,12,21,218,,19,63,075,39,21,37,104,41,7*76
$GAGSV,3,3,12,23,17,157,40,27,22,045,45,29,17,089,44,36,16,326,,7*7C
$GBGSV,3,1,11,02,00,103,,05,17,123,45,06,04,053,,07,07,076,37,1*77
$GBGSV,3,2,11,09,19,053,44,10,06,088,,16,01,052,,20,27,302,40,1*74
$GBGSV,3,3,11,23,62,138,50,25,37,056,47,29,06,293,31,1*48
$GNRMC,040009.00,A,4843.26146,N,00920.55392,E,0.026,,080225,,,A,V*1F
$GNGGA,040009.00,4843.26146,N,00920.55392,E,1,12,0.48,247.9,M,47.6,M,,*42
$GPGSV,3,1,12,05,47,302,36,06,01,199,,07,56,062,48,09,21,094,43,1*6D
$GPGSV,3,2,12,11,20,224,41,13,31,277,39,14,20,158,46,18,03,341,,1*68
$GPGSV,3,3,12,20,65,238,38,22,04,171,,27,01,041,,30,80,173,42,1*6E
$GLGSV,3,1,09,69,20,106,47,70,75,027,33,71,36,310,46,73,25,182,47,1*72
$GLGSV,3,2,09,79,32,037,46,80,64,115,51,85,00,233,,86,21,281,35,1*7D
$GLGSV,3,3,09,87,19,329,34,1*49
$GAGSV,3,1,12,04,52,284,41,06,27,277,38,09,05,275,,10,31,242,,7*7B
$GAGSV,3,2,12,11,35,276,39,12,21,218,,19,63,075,39,21,37,104,41,7*77
$GAGSV,3,3,12,23,17,157,40,27,22,045,45,29,17,089,43,36,16,326,,7*7B
$GBGSV,3,1,11,02,00,103,,05,17,123,45,06,04,053,,07,07,076,36,1*76
$GBGSV,3,2,11,09,19,053,44,10,06,088,,16,01,052,,20,27,302,40,1*74
$GBGSV,3,3,11,23,62,138,49,25,37,056,47,29,06,293,31,1*40
$GNRMC,040010.00,A,4843.26145,N,00920.55391,E,0.003,,080225,,,A,V*10
$GNGGA,040010.00,4843.26145,N,00920.55391,E,1,12,0.48,247.9,M,47.6,M,,*4A
$GPGSV,3,1,12,05,47,302,35,06,01,199,,07,56,062,47,09,21,094,43,1*61
$GPGSV,3,2,12,11,20,224,41,13,31,277,39,14,20,158,46,18,03,341,,1*68
$GPGSV,3,3,12,20,65,238,38,22,04,171,,27,01,041,,30,80,173,41,1*6D
$GLGSV,3,1,09,69,20,107,46,70,75,030,33,71,37,310,47,73,26,182,48,1*78
$GLGSV,3,2,09,79,31,037,46,80,64,114,51,85,00,233,,86,20,280,34,1*7E
$GLGSV,3,3,09,87,19,329,34,1*49
$GAGSV,3,1,12,04,52,284,41,06,27,277,37,09,05,275,,10,31,242,,7*74
$GAGSV,3,2,12,11,35,276,39,12,21,218,,19,63,075,39,21,37,104,42,7*74
$GAGSV,3,3,12,23,17,157,40,27,22,045,45,29,17,089,43,36,16,326,,7*7B
$GBGSV,3,1,11,02,00,103,,05,17,123,45,06,04,053,,07,07,076,37,1*77
$GBGSV,3,2,11,09,19,053,44,10,06,088,,16,01,052,,20,27,302,40,1*74
$GBGSV,3,3,11,23,62,138,49,25,37,056,47,29,06,293,31,1*40
$GNRMC,040011.00,A,4843.26144,N,00920.55392,E,0.003,,080225,,,A,V*13
$GNGGA,040011.00,4843.26144,N,00920.55392,E,1,12,0.48,247.9,M,47.6,M,,*49
$GPGSV,3,1,12,05,47,302,35,06,01,199,,07,56,062,47,09,21,094,43,1*61
$GPGSV,3,2,12,11,20,224,40,13,31,277,39,14,20,158,46,18,03,341,,1*69
$GPGSV,3,3,12,20,65,238,38,22,04,171,,27,01,041,,30,80,173,41,1*6D
$GLGSV,3,1,09,69,20,107,46,70,75,030,33,71,37,310,47,73,26,182,48,1*78
$GLGSV,3,2,09,79,31,037,46,80,64,114,51,85,00,233,,86,20,280,34,1*7E
$GLGSV,3,3,09,87,19,329,33,1*4E
$GAGSV,3,1,12,04,52,284,41,06,27,277,37,09,05,275,,10,31,242,,7*74
$GAGSV,3,2,12,11,35,276,39,12,21,218,,19,63,075,39,21,37,104,42,7*74
$GAGSV,3,3,12,23,17,157,40,27,22,045,45,29,17,089,43,36,16,326,,7*7B
$GBGSV,3,1,11,02,00,103,,05,17,123,45,06,04,053,,07,07,076,37,1*77
$GBGSV,3,2,11,09,19,053,44,10,06,088,,16,01,052,,20,27,302,40,1*74
$GBGSV,3,3,11,23,62,138,49,25,37,056,47,29,06,293,31,1*40
$GNRMC,040012.00,A,4843.26144,N,00920.55392,E,0.011,,080225,,,A,V*13
$GNGGA,040012.00,4843.26144,N,00920.55392,E,1,12,0.48,247.8,M,47.6,M,,*4B
$GPGSV,3,1,12,05,47,302,35,06,01,199,,07,56,062,47,09,21,094,43,1*61
$GPGSV,3,2,12,11,20,224,40,13,31,277,39,14,20,158,46,18,03,341,,1*69
$GPGSV,3,3,12,20,65,238,38,22,04,171,,27,01,041,,30,80,173,41,1*6D
$GLGSV,3,1,09,69,20,107,45,70,75,030,33,71,37,310,47,73,26,182,49,1*7A
$GLGSV,3,2,09,79,31,037,46,80,64,114,51,85,00,233,,86,20,280,33,1*79
$GLGSV,3,3,09,87,19,329,33,1*4E
$GAGSV,3,1,12,04,52,284,41,06,27,277,37,09,05,275,,10,31,242,,7*74
$GAGSV,3,2,12,11,35,276,39,12,21,218,,19,63,075,39,21,37,104,42,7*74
$GAGSV,3,3,12,23,17,157,39,27,22,045,45,29,17,089,43,36,16,326,,7*75
$GBGSV,3,1,11,02,00,103,,05,17,123,45,06,04,053,,07,07,076,37,1*77
$GBGSV,3,2,11,09,19,053,44,10,06,088,,16,01,052,,20,27,302,40,1*74
$GBGSV,3,3,11,23,62,138,49,25,37,056,47,29,06,293,30,1*41
$GNRMC,040013.00,A,4843.26143,N,00920.55392,E,0.009,,080225,,,A,V*1C
$GNGGA,040013.00,4843.26143,N,00920.55392,E,1,12,0.48,247.8,M,47.6,M,,*4D
$GPGSV,3,1,12,05,47,302,35,06,01,199,,07,56,062,47,09,21,094,43,1*61
$GPGSV,3,2,12,11,20,224,40,13,31,277,39,14,20,158,46,18,03,341,,1*69
$GPGSV,3,3,12,20,65,238,37,22,04,171,,27,01,041,,30,80,173,41,1*62
$GLGSV,3,1,09,69,20,107,45,70,75,030,33,71,37,310,47,73,26,182,49,1*7A
$GLGSV,3,2,09,79,31,037,46,80,64,114,51,85,00,233,,86,20,280,32,1*78
$GLGSV,3,3,09,87,19,329,33,1*4E
$GAGSV,3,1,12,04,52,284,41,06,27,277,37,09,05,275,,10,31,242,,7*74
$GAGSV,3,2,12,11,35,276,39,12,21,218,,19,63,075,39,21,37,104,42,7*74
$GAGSV,3,3,12,23,17,157,39,27,22,045,45,29,17,089,43,36,16,326,,7*75
$GBGSV,3,1,11,02,00,103,,05,17,123,45,06,04,053,,07,07,076,37,1*77
$GBGSV,3,2,11,09,19,053,44,10,06,088,,16,01,052,,20,27,302,40,1*74
$GBGSV,3,3,11,23,62,138,49,25,37,056,47,29,06,293,30,1*41
$GNRMC,040014.00,A,4843.26143,N,00920.55392,E,0.011,,080225,,,A,V*12
$GNGGA,040014.00,4843.26143,N,00920.55392,E,1,12,0.48,247.8,M,47.6,M,,*4A
$GPGSV,3,1,12,05,47,302,36,06,01,199,,07,56,062,47,09,21,094,44,1*65
$GPGSV,3,2,12,11,20,224,40,13,31,277,39,14,20,158,46,18,03,341,,1*69
$GPGSV,3,3,12,20,65,238,37,22,04,171,,27,01,041,,30,80,173,41,1*62
$GLGSV,3,1,09,69,20,107,45,70,75,030,33,71,37,310,47,73,26,182,49,1*7A
$GLGSV,3,2,09,79,31,037,45,80,64,114,51,85,00,233,,86,20,280,31,1*78
$GLGSV,3,3,09,87,19,329,32,1*4F
$GAGSV,3,1,12,04,52,284,41,06,27,277,37,09,05,275,,10,31,242,,7*74
$GAGSV,3,2,12,11,35,276,39,12,21,218,,19,63,075,39,21,37,104,42,7*74
$GAGSV,3,3,12,23,17,157,38,27,22,045,45,29,17,089,43,36,16,326,,7*74
$GBGSV,3,1,11,02,00,103,,05,17,123,45,06,04,053,,07,07,076,37,1*77
$GBGSV,3,2,11,09,19,053,44,10,07,087,,16,01,052,,20,27,302,40,1*7A
$GBGSV,3,3,11,23,62,138,49,25,37,056,47,29,06,293,30,1*41
$GNRMC,040015.00,A,4843.26144,N,00920.55393,E,0.032,,080225,,,A,V*14
$GNGGA,040015.00,4843.26144,N,00920.55393,E,1,12,0.48,247.8,M,47.6,M,,*4D
$GPGSV,3,1,12,05,47,302,36,06,01,199,,07,56,062,47,09,21,094,44,1*65
$GPGSV,3,2,12,11,20,224,41,13,31,277,39,14,20,158,46,18,03,341,,1*68
$GPGSV,3,3,12,20,65,238,37,22,04,171,,27,01,041,,30,80,173,41,1*62
$GLGSV,3,1,09,69,20,107,45,70,75,030,33,71,37,310,46,73,26,182,49,1*7B
$GLGSV,3,2,09,79,31,037,46,80,64,114,51,85,00,233,,86,20,280,31,1*7B
$GLGSV,3,3,09,87,19,329,31,1*4C
$GAGSV,3,1,12,04,52,284,41,06,27,277,37,09,05,275,,10,31,242,,7*74
$GAGSV,3,2,12,11,35,276,39,12,21,218,,19,63,075,39,21,37,104,42,7*74
$GAGSV,3,3,12,23,17,157,38,27,22,045,45,29,17,089,43,36,16,326,,7*74
$GBGSV,3,1,11,02,00,103,,05,17,123,45,06,04,053,,07,07,076,37,1*77
$GBGSV,3,2,11,09,19,053,44,10,07,087,,16,01,052,,20,27,302,40,1*7A
$GBGSV,3,3,11,23,62,138,49,25,37,056,47,29,06,293,31,1*40
$GNRMC,040016.00,A,4843.26144,N,00920.55394,E,0.012,,080225,,,A,V*12
$GNGGA,040016.00,4843.26144,N,00920.55394,E,1,12,0.48,247.8,M,47.6,M,,*49
$GPGSV,3,1,12,05,47,302,36,06,01,199,,07,56,062,47,09,21,094,44,1*65
$GLGSV,3,1,09,69,20,107,45,70,75,030,33,71,37,310,46,73,26,182,49,1*7B
$GLGSV,3,2,09,79,31,037,46,80,64,114,51,85,00,233,,86,20,280,30,1*7A
$GLGSV,3,3,09,87,19,329,31,1*4C
$GAGSV,3,1,12,04,52,284,40,06,27,277,36,09,05,275,,10,31,242,,7*74
$GAGSV,3,2,12,11,35,276,39,12,21,218,,19,63,075,39,21,37,104,42,7*74
$GAGSV,3,3,12,23,17,157,37,27,22,045,45,29,17,089,43,36,16,326,,7*7B
$GBGSV,3,1,11,02,00,103,,05,17,123,45,06,04,053,,07,07,075,37,1*74
$GBGSV,3,2,11,09,19,053,44,10,07,087,,16,01,052,,20,27,302,41,1*7B
$GBGSV,3,3,11,23,62,137,49,25,37,055,47,29,06,293,31,1*4C
$GNRMC,040017.00,A,4843.26144,N,00920.55395,E,0.005,,080225,,,A,V*14
$GNGGA,040017.00,4843.26144,N,00920.55395,E,1,12,0.48,247.8,M,47.6,M,,*49
$GPGSV,3,1,12,05,47,302,37,06,01,199,,07,56,062,47,09,21,094,43,1*63
$GPGSV,3,2,12,11,20,224,41,13,31,277,39,14,20,158,46,18,03,341,,1*68
$GPGSV,3,3,12,20,65,238,37,22,04,171,,27,01,041,,30,80,173,41,1*62
$GLGSV,3,1,09,69,20,107,45,70,75,030,33,71,37,310,46,73,26,182,49,1*7B
$GLGSV,3,2,09,79,31,037,46,80,64,114,51,85,00,233,,86,20,280,30,1*7A
$GLGSV,3,3,09,87,19,329,31,1*4C
$GAGSV,3,1,12,04,52,284,40,06,27,277,36,09,05,275,,10,31,242,,7*74
$GAGSV,3,2,12,11,35,276,39,12,21,218,,19,63,075,39,21,37,104,42,7*74
$GAGSV,3,3,12,23,17,157,37,27,22,045,45,29,17,089,43,36,16,326,,7*7B
$GBGSV,3,1,11,02,00,103,,05,17,123,45,06,04,053,,07,07,075,37,1*74
$GBGSV,3,2,11,09,19,053,44,10,07,087,,16,01,052,,20,27,302,41,1*7B
$GBGSV,3,3,11,23,62,137,49,25,37,055,46,29,06,293,31,1*4D
$GNRMC,040018.00,A,4843.26145,N,00920.55395,E,0.003,,080225,,,A,V*1C
$GNGGA,040018.00,4843.26145,N,00920.55395,E,1,12,0.48,247.7,M,47.6,M,,*48
$GPGSV,3,1,12,05,47,302,37,06,01,199,,07,56,062,47,09,21,094,43,1*63
$GPGSV,3,2,12,11,20,224,41,13,31,277,40,14,20,158,46,18,03,341,,1*66
$GPGSV,3,3,12,20,65,238,36,22,04,171,,27,01,041,,30,80,173,41,1*63
$GLGSV,3,1,09,69,20,107,45,70,75,030,33,71,37,310,46,73,26,182,49,1*7B
$GLGSV,3,2,09,79,31,037,46,80,64,114,51,85,00,233,,86,20,280,30,1*7A
$GLGSV,3,3,09,87,19,329,32,1*4F
$GAGSV,3,1,12,04,52,284,41,06,27,277,36,09,05,275,,10,31,242,,7*75
$GAGSV,3,2,12,11,35,276,39,12,21,218,,19,63,075,39,21,37,104,42,7*74
$GAGSV,3,3,12,23,17,157,36,27,22,045,45,29,17,089,43,36,16,326,,7*7A
$GBGSV,3,1,11,02,00,103,,05,17,123,45,06,04,053,,07,07,075,37,1*74
$GBGSV,3,2,11,09,19,053,44,10,07,087,,16,00,052,,20,27,302,41,1*7A
$GBGSV,3,3,11,23,62,137,49,25,37,055,46,29,06,293,30,1*4C
$GNRMC,040019.00,A,4843.26146,N,00920.55397,E,0.008,,080225,,,A,V*17
$GNGGA,040019.00,4843.26146,N,00920.55397,E,1,12,0.48,247.8,M,47.6,M,,*47
$GPGSV,3,1,12,05,47,302,37,06,01,199,,07,56,062,47,09,21,094,43,1*63
$GPGSV,3,2,12,11,20,224,41,13,31,277,40,14,20,158,46,18,03,341,,1*66
$GPGSV,3,3,12,20,65,238,37,22,04,171,,27,01,041,,30,80,173,41,1*62
$GLGSV,3,1,09,69,20,107,45,70,75,030,33,71,37,310,46,73,26,182,50,1*73
$GLGSV,3,2,09,79,31,037,46,80,64,114,51,85,00,233,,86,20,280,30,1*7A
$GLGSV,3,3,09,87,19,329,33,1*4E
$GAGSV,3,1,12,04,52,284,40,06,27,277,36,09,05,275,,10,31,242,,7*74
$GAGSV,3,2,12,11,35,276,39,12,21,218,,19,63,075,39,21,37,104,42,7*74
$GAGSV,3,3,12,23,17,157,35,27,22,045,45,29,17,089,43,36,16,326,,7*79
$GBGSV,3,1,11,02,00,103,,05,17,123,45,06,04,053,,07,07,075,37,1*74
$GBGSV,3,2,11,09,19,053,44,10,07,087,,16,00,052,,20,27,302,41,1*7A
$GBGSV,3,3,11,23,62,137,49,25,37,055,47,29,06,293,30,1*4D
$GNRMC,040020.00,A,4843.26146,N,00920.55399,E,0.026,,080225,,,A,V*1F
$GNGGA,040020.00,4843.26146,N,00920.55399,E,1,12,0.48,247.8,M,47.6,M,,*43
$GPGSV,3,1,12,05,47,302,37,06,01,199,,07,56,062,47,09,21,094,44,1*64
$GPGSV,3,2,12,11,20,224,41,13,31,277,40,14,20,158,46,18,03,341,,1*66
$GPGSV,3,3,12,20,65,238,37,22,04,171,,27,01,041,,30,80,173,41,1*62
$GLGSV,3,1,09,69,20,107,45,70,75,030,33,71,37,310,45,73,26,182,50,1*70
$GLGSV,3,2,09,79,31,037,46,80,64,114,51,85,00,233,,86,20,280,30,1*7A
$GLGSV,3,3,09,87,19,329,34,1*49
$GAGSV,3,1,12,04,52,284,41,06,27,277,36,09,05,275,,10,31,242,,7*75
$GAGSV,3,2,12,11,35,276,39,12,21,218,,19,63,075,39,21,37,104,42,7*74
$GAGSV,3,3,12,23,17,157,34,27,22,045,45,29,17,089,43,36,16,326,,7*78
$GBGSV,3,1,11,02,00,103,,05,17,123,45,06,04,053,,07,07,075,37,1*74
$GBGSV,3,2,11,09,19,053,44,10,07,087,,16,00,052,,20,27,302,41,1*7A
$GBGSV,3,3,11,23,62,137,49,25,37,055,47,29,06,293,30,1*4D
$GNRMC,040021.00,A,4843.26146,N,00920.55399,E,0.007,,080225,,,A,V*1D
$GNGGA,040021.00,4843.26146,N,00920.55399,E,1,12,0.48,247.8,M,47.6,M,,*42
$GPGSV,3,1,12,05,47,302,37,06,01,199,,07,56,062,47,09,21,094,44,1*64
$GPGSV,3,2,12,11,20,224,41,13,31,277,40,14,20,158,47,18,03,341,,1*67
$GPGSV,3,3,12,20,65,238,37,22,04,171,,27,01,041,,30,80,173,41,1*62
$GLGSV,3,1,09,69,20,107,45,70,75,030,32,71,37,310,45,73,26,182,50,1*71
$GLGSV,3,2,09,79,31,037,46,80,64,114,51,85,00,233,,86,20,280,30,1*7A
$GLGSV,3,3,09,87,19,329,33,1*4E
$GAGSV,3,1,12,04,52,284,40,06,27,277,36,09,05,275,,10,31,242,,7*74
$GAGSV,3,2,12,11,35,276,39,12,21,218,,19,63,075,39,21,37,104,42,7*74
$GAGSV,3,3,12,23,17,157,33,27,22,045,45,29,17,089,43,36,16,326,,7*7F
$GBGSV,3,1,11,02,00,103,,05,17,123,45,06,04,053,,07,07,075,38,1*7B
$GBGSV,3,2,11,09,19,053,44,10,07,087,,16,00,052,,20,27,302,41,1*7A
$GBGSV,3,3,11,23,62,137,49,25,37,055,47,29,06,293,30,1*4D
$GNGGA,040022.00,4843.26147,N,00920.55400,E,1,12,0.48,247.7,M,47.6,M,,*48
$GPGSV,3,1,12,05,47,302,37,06,01,199,,07,56,062,47,09,21,094,44,1*64
$GPGSV,3,2,12,11,20,224,41,13,31,277,40,14,20,158,46,18,03,341,,1*66
$GPGSV,3,3,12,20,65,238,37,22,04,171,,27,01,041,,30,80,173,41,1*62
$GLGSV,3,1,09,69,20,107,45,70,75,030,32,71,37,310,45,73,26,182,50,1*71
$GLGSV,3,2,09,79,31,037,47,80,64,114,51,85,00,233,,86,20,280,31,1*7A
$GLGSV,3,3,09,87,19,329,33,1*4E
$GAGSV,3,1,12,04,52,284,40,06,27,277,36,09,05,275,,10,31,242,,7*74
$GAGSV,3,2,12,11,35,276,39,12,21,218,,19,63,075,39,21,37,104,42,7*74
$GAGSV,3,3,12,23,17,157,33,27,22,045,45,29,17,089,43,36,16,326,,7*7F
$GBGSV,3,1,11,02,00,103,,05,17,123,45,06,04,053,,07,07,075,37,1*74
$GBGSV,3,2,11,09,19,053,44,10,07,087,,16,00,052,,20,27,302,41,1*7A
$GBGSV,3,3,11,23,62,137,49,25,37,055,47,29,06,293,30,1*4D
$GNRMC,040023.00,A,4843.26148,N,00920.55400,E,0.009,,080225,,,A,V*18
$GNGGA,040023.00,4843.26148,N,00920.55400,E,1,12,0.48,247.8,M,47.6,M,,*49
$GPGSV,3,1,12,05,47,302,37,06,01,199,,07,56,062,47,09,21,094,44,1*64
$GPGSV,3,2,12,11,20,224,42,13,31,277,40,14,20,158,46,18,03,341,,1*65
$GPGSV,3,3,12,20,65,238,37,22,04,171,,27,01,041,,30,80,173,41,1*62
$GLGSV,3,1,09,69,20,107,43,70,75,030,32,71,37,310,45,73,26,182,50,1*77
$GLGSV,3,2,09,79,31,037,47,80,64,114,51,85,00,233,,86,20,280,33,1*78
$GLGSV,3,3,09,87,19,329,33,1*4E
$GAGSV,3,1,12,04,52,284,40,06,27,277,36,09,05,275,,10,31,242,,7*74
$GAGSV,3,2,12,11,35,276,39,12,21,218,,19,63,075,39,21,37,104,42,7*74
$GAGSV,3,3,12,23,17,157,32,27,22,045,45,29,17,089,43,36,16,326,,7*7E
$GBGSV,3,1,11,02,00,103,,05,17,123,45,06,04,053,,07,07,075,3,1*74
$GBGSV,3,2,11,09,19,053,44,10,07,087,,16,00,052,,20,27,302,41,1*7A
$GBGSV,3,3,11,23,62,137,49,25,37,055,47,29,06,293,30,1*4D
$GNRMC,040024.00,A,4843.26149,N,00920.55400,E,0.008,,080225,,,A,V*1F
$GNGGA,040024.00,4843.26149,N,00920.55400,E,1,12,0.48,247.8,M,47.6,M,,*4F
$GPGSV,3,1,12,05,47,302,37,06,01,199,,07,56,062,47,09,21,094,44,1*64
$GPGSV,3,2,12,11,20,224,42,13,31,277,40,14,20,158,46,18,03,341,,1*65
$GPGSV,3,3,12,20,65,238,37,22,04,171,,27,01,041,,30,80,173,40,1*63
$GLGSV,3,1,09,69,20,107,44,70,75,030,31,71,37,310,45,73,26,182,0,1*73
$GLGSV,3,2,09,79,31,037,47,80,64,114,51,85,00,233,,86,20,280,32,1*79
$GLGSV,3,3,09,87,19,329,32,1*4F
$GAGSV,3,1,12,04,52,284,41,06,27,277,37,09,05,275,,10,31,242,,7*74
$GAGSV,3,2,12,11,35,276,39,12,21,218,,19,63,075,39,21,37,104,42,7*74
$GAGSV,3,3,12,23,17,157,32,27,22,045,45,29,17,089,43,36,16,326,,7*7E
$GBGSV,3,1,11,02,00,103,,05,17,123,45,06,04,053,,07,07,075,37,1*74
$GBGSV,3,2,11,09,19,053,44,10,07,087,,16,00,052,,20,27,302,41,1*7A
$GBGSV,3,3,11,23,62,137,49,25,37,055,47,29,06,293,30,1*4D
$GNRMC,040025.00,A,4843.26150,N,00920.55401,E,0.006,,080225,,,A,V*19
$GNGGA,040025.00,4843.26150,N,00920.55401,E,1,12,0.48,247.8,M,47.6,M,,*47
$GPGSV,3,1,12,05,47,302,37,06,01,199,,07,56,062,47,09,21,094,44,1*64
$GPGSV,3,2,12,11,20,224,42,13,31,277,40,14,20,158,47,18,03,341,,1*64
$GPGSV,3,3,12,20,65,238,37,22,04,171,,27,01,041,,30,80,173,40,1*63
$GLGSV,3,1,09,69,20,107,44,70,75,030,31,71,37,310,45,73,26,182,50,1*73
$GLGSV,3,2,09,79,31,037,47,80,64,114,51,85,00,233,,86,20,280,32,1*79
$GLGSV,3,3,09,87,19,329,32,1*4F
$GAGSV,3,1,12,04,52,284,41,06,27,277,32,09,05,275,,10,31,242,,7*71
$GAGSV,3,2,12,11,35,276,39,12,21,218,,19,63,075,39,21,37,104,43,7*75
$GAGSV,3,3,12,23,17,157,31,27,22,045,45,29,17,089,43,36,16,326,,7*7D
$GBGSV,3,1,11,02,00,103,,05,17,123,44,06,04,053,,07,07,075,37,1*75
$GBGSV,3,2,11,09,19,053,44,10,07,087,,16,00,052,,20,27,302,41,1*7A
$GBGSV,3,3,11,23,62,137,49,25,37,055,46,29,06,293,30,1*4C
$GNRMC,040026.00,A,4843.26151,N,00920.55402,E,0.011,,080225,,,A,V*1E
$GNGGA,040026.00,4843.26151,N,00920.55402,E,1,12,0.48,247.9,M,47.6,M,,*47
$GPGSV,3,1,12,05,47,302,37,06,01,199,,07,56,062,47,09,21,094,43,1*63
$GPGSV,3,2,12,11,20,224,42,13,31,277,40,14,20,158,47,18,03,341,,1*64
$GPGSV,3,3,12,20,65,238,37,22,04,171,,27,01,041,,30,80,173,40,1*63
$GLGSV,3,1,09,69,20,107,44,70,75,030,31,71,37,310,45,73,26,182,50,1*73
$GLGSV,3,2,09,79,31,037,47,80,64,114,51,85,00,233,,86,20,280,32,1*79
$GLGSV,3,3,09,87,19,329,32,1*4F
$GAGSV,3,1,12,04,52,284,41,06,27,277,36,09,05,275,,10,31,242,,7*75
$GAGSV,3,2,12,11,35,276,39,12,21,218,,19,63,075,39,21,37,104,43,7*75
$GAGSV,3,3,12,23,17,157,31,27,22,045,45,29,17,089,43,36,16,326,,7*7D
$GBGSV,3,1,11,02,00,103,,05,17,123,45,06,04,053,,07,07,075,38,1*7B
$GBGSV,3,2,11,09,19,053,44,10,07,087,,16,00,052,,20,27,302,41,1*7A
$GBGSV,3,3,11,23,62,37,49,25,37,055,47,29,06,293,30,1*4D
$GNRMC,040027.00,A,4843.26152,N,00920.55402,E,0.005,,080225,,,A,V*19
$GNGGA,040027.00,4843.26152,N,00920.55402,E,1,12,0.48,247.9,M,47.6,M,,*45
$GPGSV,3,1,12,05,47,302,37,06,01,199,,07,56,062,47,09,21,094,43,1*63
$GPGSV,3,2,12,11,20,224,42,13,31,277,40,14,20,158,47,18,03,341,,1*64
$GPGSV,3,3,12,20,65,238,38,22,04,171,,27,01,041,,30,80,173,40,1*6C
$GLGSV,3,1,09,69,20,107,44,70,75,030,31,71,37,310,45,73,26,182,49,1*7B
$GLGSV,3,2,09,79,31,037,47,80,64,114,51,85,00,233,,86,20,280,34,1*7F
$GLGSV,3,3,09,87,19,329,32,1*4F
$GAGSV,3,1,12,04,52,284,41,06,27,277,37,09,05,275,,10,31,242,,7*74
$GAGSV,3,2,12,11,35,276,39,12,21,218,,19,63,075,39,21,37,104,42,7*74
$GAGSV,3,3,12,23,17,157,30,27,22,045,45,29,17,089,44,36,16,326,,7*7B
$GBGSV,3,1,11,02,00,103,,05,17,123,45,06,04,053,,07,07,075,37,1*74
$GBGSV,3,2,11,09,19,053,44,10,07,087,,16,00,052,,20,27,302,41,1*7A
$GBGSV,3,3,11,23,62,137,49,25,37,055,47,29,06,293,30,1*4D
$GNRMC,040028.00,A,4843.26154,N,00920.55403,E,0.008,,080225,,,A,V*1C
$GNGGA,040028.00,4843.26154,N,00920.55403,E,1,12,0.48,248.0,M,47.6,M,,*4B
$GPGSV,3,1,12,05,47,302,37,06,01,199,,07,56,062,47,09,21,094,43,1*63
$GPGSV,3,2,12,11,20,224,42,13,31,277,40,14,20,158,47,18,03,341,,1*64
$GPGSV,3,3,12,20,65,238,38,22,04,171,,27,01,041,,30,80,173,40,1*6C
$GLGSV,3,1,09,69,20,107,43,70,75,030,31,71,37,310,45,73,26,182,49,1*7C
$GLGSV,3,2,09,79,31,037,47,80,64,114,51,85,00,233,,86,20,280,34,1*7F
$GLGSV,3,3,09,87,19,329,32,1*4F
$GAGSV,3,1,12,04,52,284,41,06,27,277,37,09,05,275,,10,31,242,,7*74
$GAGSV,3,2,12,11,35,276,39,12,21,218,,19,63,075,39,21,37,104,42,7*74
$GAGSV,3,3,12,23,17,157,29,27,22,045,45,29,17,089,44,36,16,326,,7*73
$GBGSV,3,1,11,02,00,103,,05,17,123,45,06,04,053,,07,07,075,37,1*74
$GBGSV,3,2,11,09,19,053,44,10,07,087,,16,00,052,,20,27,302,41,1*7A
$GBGSV,3,3,11,23,62,137,49,25,37,055,46,29,06,293,30,1*4C
$GNRMC,040029.00,A,4843.26155,N,00920.55404,E,0.003,,080225,,,A,V*10
$GNGGA,040029.00,4843.26155,N,00920.55404,E,1,12,0.51,248.0,M,47.6,M,,*44
$GPGSV,3,1,12,05,47,302,37,06,01,199,,07,56,062,47,09,21,094,43,1*63
$GPGSV,3,2,12,11,20,224,42,13,31,277,40,14,20,158,47,18,03,341,,1*64
$GPGSV,3,3,12,20,65,238,37,22,04,171,,27,01,041,,30,80,173,40,1*63
$GLGSV,3,1,09,69,20,107,42,70,75,030,32,71,37,310,45,73,26,182,49,1*7E
$GLGSV,3,2,09,79,31,037,47,80,64,114,51,85,00,233,,86,20,280,35,1*7E
$GLGSV,3,3,09,87,9,329,32,1*4F
$GAGSV,3,1,12,04,52,284,41,06,27,277,37,09,05,275,,10,31,242,,7*74
$GAGSV,3,2,12,11,35,276,39,12,21,218,,19,63,075,39,21,37,104,42,7*74
$GAGSV,3,3,12,23,17,157,28,27,22,045,45,29,17,089,44,36,16,326,,7*72
$GBGSV,3,1,11,02,00,103,,05,17,123,45,06,04,053,,07,07,075,37,1*74
$GBGSV,3,2,11,09,19,053,44,10,07,087,,16,00,052,,20,27,302,41,1*7A
$GBGSV,3,3,11,23,62,137,49,25,37,055,46,29,06,292,30,1*4D
$GNRMC,040030.00,A,4843.26157,N,00920.55405,E,0.004,,080225,,,A,V*1C
$GNGGA,040030.00,4843.26157,N,00920.55405,E,1,12,0.51,248.0,M,47.6,M,,*4F
$GPGSV,3,1,12,05,47,302,37,06,01,199,,07,56,062,47,09,21,094,43,1*63
$GPGSV,3,2,12,11,20,224,42,13,31,277,40,14,20,158,47,18,03,341,,1*64
$GPGSV,3,3,12,20,65,238,37,22,04,171,,27,01,041,,30,80,173,40,1*63
$GLGSV,3,1,09,69,20,107,43,70,75,030,32,71,37,310,45,73,26,182,49,1*7F
$GLGSV,3,2,09,79,31,037,47,80,64,114,51,85,00,233,,86,20,280,36,1*7D
$GLGSV,3,3,09,87,19,329,32,1*4F
$GAGSV,3,1,12,04,52,284,41,06,27,277,37,09,05,275,,10,31,242,,7*74
$GAGSV,3,2,12,11,35,276,39,12,21,218,,19,63,075,39,21,37,104,42,7*74
$GAGSV,3,3,12,23,17,157,28,27,22,045,45,29,17,089,44,36,16,326,,7*72
$GBGSV,3,1,11,02,00,103,,05,17,123,45,06,04,053,,07,07,075,38,1*7B
$GBGSV,3,2,11,09,19,053,43,10,07,087,,16,00,052,,20,27,302,41,1*7D
$GBGSV,3,3,11,23,62,137,50,25,37,055,46,29,06,292,30,1*45
$GNRMC,040031.00,A,4843.26159,N,00920.55405,E,0.003,,080225,,,A,V*14
$GNGGA,040031.00,4843.26159,N,00920.55405,E,1,12,0.51,248.1,M,47.6,M,,*41
$GPGSV,3,1,12,05,47,302,37,06,01,199,,07,56,062,47,09,21,094,43,1*63
$GPGSV,3,2,12,11,20,224,42,13,31,277,40,14,20,158,47,18,03,341,,1*64
$GPGSV,3,3,12,20,65,238,38,22,04,171,,27,01,041,,30,80,173,40,1*6C
$GLGSV,3,1,09,69,20,107,43,70,75,030,33,71,37,310,45,73,26,182,49,1*7E
$GLGSV,3,2,09,79,31,037,47,80,64,114,51,85,00,233,,86,20,280,37,1*7C
$GLGSV,3,3,09,87,19,329,31,1*4C
$GAGSV,3,1,12,04,52,284,41,06,27,277,37,09,05,275,,10,31,242,,7*74
$GAGSV,3,2,12,11,35,276,39,12,21,218,,19,63,075,39,21,37,104,42,7*74
$GAGSV,3,3,12,23,17,157,28,27,22,045,45,29,17,089,44,36,16,326,,7*72
$GBGSV,3,1,11,02,00,103,,05,17,123,45,06,04,053,,07,07,075,38,1*7B
$GBGSV,3,2,11,09,19,053,44,10,07,087,,16,00,052,,20,27,302,41,1*7A
$GBGSV,3,3,11,23,62,137,50,25,37,055,46,29,06,292,30,1*45
$GNRMC,040032.00,A,4843.26161,N,00920.55405,E,0.013,,080225,,,A,V*1D
$GNGGA,040032.00,4843.26161,N,00920.55405,E,1,12,0.51,248.1,M,47.6,M,,*49
$GPGSV,3,1,12,05,47,302,37,06,01,199,,07,56,062,47,09,21,094,43,1*63
$GPGSV,3,2,12,11,20,224,42,13,31,277,41,14,20,158,47,18,03,341,,1*65
$GPGSV,3,3,12,20,65,238,38,22,04,171,,27,01,041,,30,80,173,40,1*6C
$GLGSV,3,1,09,69,20,107,43,70,75,030,33,71,37,310,45,73,26,182,48,1*7F
$GLGSV,3,2,09,79,31,037,46,80,64,114,51,85,00,233,,86,20,280,37,1*7D
$GLGSV,3,3,09,87,19,329,31,1*4C
$GAGSV,3,1,12,04,52,284,41,06,27,277,37,09,05,275,,10,31,242,,7*74
$GAGSV,3,2,12,11,35,276,39,12,21,218,,19,63,075,39,21,37,104,42,7*74
$GAGSV,3,3,12,23,17,157,27,27,22,045,45,29,17,089,44,36,16,326,,7*7D
$GBGSV,3,1,11,02,00,103,,05,17,123,45,06,04,053,,07,07,075,38,1*7B
$GBGSV,3,2,11,09,19,053,44,10,07,087,,16,00,052,,20,27,302,41,1*7A
$GBGSV,3,3,11,23,62,137,50,25,37,055,46,29,06,292,31,1*44
$GNRMC,040033.00,A,4843.26163,N,00920.55405,E,0.009,,080225,,,A,V*15
$GNGGA,040033.00,4843.26163,N,00920.55405,E,1,12,0.51,248.2,M,47.6,M,,*49
$GPGSV,3,1,12,05,47,302,37,06,01,199,,07,56,062,47,09,21,094,42,1*62
$GPGSV,3,2,12,11,20,224,42,13,31,277,41,14,20,158,47,18,03,341,,1*65
$GPGSV,3,3,12,20,65,238,38,22,04,171,,27,01,041,,30,80,173,40,1*6C
$GLGSV,3,1,09,69,20,107,43,70,75,030,33,71,37,310,45,73,26,182,48,1*7F
$GLGSV,3,2,09,79,31,037,46,80,64,114,51,85,00,233,,86,20,280,37,1*7D
$GLGSV,3,3,09,87,19,329,31,1*4C
$GAGSV,3,1,12,04,52,284,41,06,27,277,37,09,05,275,,10,31,242,,7*74
$GAGSV,3,2,12,11,35,276,39,12,21,218,,19,63,075,39,21,37,104,42,7*74
$GAGSV,3,3,12,23,17,157,25,27,22,045,45,29,17,089,44,36,16,326,,7*7F
$GBGSV,3,1,11,02,00,103,,05,17,123,45,06,04,053,,07,07,075,38,1*7B
$GBGSV,3,2,11,09,19,053,43,10,07,087,,16,00,052,,20,27,302,41,1*7D
$GBGSV,3,3,11,23,62,137,50,25,37,055,46,29,06,292,30,1*45
$GNRMC,040034.00,A,4843.26163,N,00920.55404,E,0.006,,080225,,,A,V*1C
$GNGGA,040034.00,4843.26163,N,00920.55404,E,1,12,0.51,248.2,M,47.6,M,,*4F
$GPGSV,3,1,12,05,47,302,38,06,01,199,,07,56,062,47,09,21,094,42,1*6D
$GPGSV,3,2,12,11,20,224,42,13,31,277,41,14,20,158,47,18,03,341,,1*65
$GPGSV,3,3,12,20,65,238,38,22,04,171,,27,01,041,,30,80,173,40,1*6C
$GLGSV,3,1,09,69,20,107,44,70,75,030,32,71,37,310,45,73,26,182,48,1*79
$GLGSV,3,2,09,79,31,037,46,80,64,114,50,85,00,233,,86,20,280,37,1*7C
$GLGSV,3,3,09,87,19,329,31,1*4C
$GAGSV,3,1,12,04,52,284,41,06,27,277,37,09,05,275,,10,31,242,,7*74
$GAGSV,3,2,12,11,35,276,38,12,21,218,,19,63,075,39,21,37,104,43,7*74
$GAGSV,3,3,12,23,17,157,25,27,22,045,45,29,17,089,43,36,16,326,,7*78
$GBGSV,3,1,11,02,00,103,,05,17,123,45,06,04,053,,07,07,075,38,1*7B
$GBGSV,3,2,11,09,19,053,43,10,07,087,,16,00,052,,20,27,302,41,1*7D
$GBGSV,3,3,11,23,62,137,50,25,37,055,46,29,06,292,30,1*45
$GNRMC,040035.00,A,4843.26164,N,00920.55404,E,0.009,,080225,,,A,V*15
$GNGGA,040035.00,4843.26164,N,00920.55404,E,1,12,0.51,248.3,M,47.6,M,,*48
$GPGSV,3,1,12,05,47,302,37,06,01,199,,07,56,062,47,09,21,094,42,1*62
$GPGSV,3,2,12,11,20,224,43,13,31,277,40,14,20,158,48,18,03,341,,1*6A
$GPGSV,3,3,12,20,65,238,38,22,04,171,,27,01,041,,30,80,173,40,1*6C
$GLGSV,3,1,09,69,20,107,44,70,75,030,32,71,37,310,45,73,26,182,48,1*79
$GLGSV,3,2,09,79,31,037,46,80,64,114,50,85,00,233,,86,20,280,37,1*7C
$GLGSV,3,3,09,87,19,329,33,1*4E
$GAGSV,3,1,12,04,52,284,41,06,27,277,37,09,05,275,,10,31,242,,7*74
$GAGSV,3,2,12,11,35,276,39,12,21,218,,19,63,075,39,21,37,104,43,7*75
$GAGSV,3,3,12,23,17,157,26,27,22,045,45,29,17,089,43,36,16,326,,7*7B
$GBGSV,3,1,11,02,00,103,,05,17,123,45,06,04,053,,07,07,075,38,1*7B
$GBGSV,3,2,11,09,19,053,43,10,07,087,,16,00,052,,20,27,302,41,1*7D
$GBGSV,3,3,11,23,62,137,50,25,37,055,46,29,06,292,30,1*45
$GNRMC,040036.00,A,4843.26166,N,00920.55404,E,0.002,,080225,,,A,V*1F
$GNGGA,040036.00,4843.26166,N,00920.55404,E,1,12,0.51,248.3,M,47.6,M,,*49
$GPGSV,3,1,12,05,47,302,38,06,01,199,,07,56,062,47,09,21,094,41,1*6E
$GPGSV,3,2,12,11,20,224,43,13,31,277,40,14,20,158,48,18,03,341,,1*6A
$GPGSV,3,3,12,20,65,238,39,22,04,171,,27,01,041,,30,80,173,40,1*6D
$GLGSV,3,1,09,69,20,107,45,70,75,030,32,71,37,310,45,73,26,182,48,1*78
$GLGSV,3,2,09,79,31,037,46,80,64,114,50,85,00,233,,86,20,280,37,1*7C
$GLGSV,3,3,09,87,19,329,34,1*49
$GAGSV,3,1,12,04,52,284,41,06,27,277,37,09,05,275,,10,31,242,,7*74
$GAGSV,3,2,12,11,35,276,39,12,21,218,,19,63,075,39,21,37,104,43,7*75
$GAGSV,3,3,12,23,17,157,27,27,22,045,45,29,17,089,43,36,16,326,,7*7A
$GBGSV,3,1,11,02,00,103,,05,7,123,45,06,04,053,,07,07,075,38,1*7B
$GBGSV,3,2,11,09,19,053,43,10,07,087,,16,00,052,,20,27,302,42,1*7E
$GBGSV,3,3,11,23,62,137,50,25,37,055,46,29,06,292,31,1*44
$GNRMC,040037.00,A,4843.26167,N,00920.55403,E,0.007,,080225,,,A,V*1D
$GNGGA,040037.00,4843.26167,N,00920.55403,E,1,12,0.51,248.3,M,47.6,M,,*4E
$GPGSV,3,1,12,05,47,302,38,06,01,199,,07,56,062,47,09,21,094,41,1*6E
$GPGSV,3,,12,11,20,224,43,13,31,277,40,14,20,158,47,18,03,341,,1*65
$GPGSV,3,3,12,20,65,238,39,22,04,171,,27,01,041,,30,80,173,40,1*6D
$GLGSV,3,1,09,69,20,107,45,70,75,031,32,71,37,310,45,73,26,182,47,1*76
$GLGSV,3,2,09,79,31,037,46,80,64,114,50,85,00,233,,86,20,280,37,1*7C
$GLGSV,3,3,09,87,19,329,35,1*48
$GAGSV,3,1,12,04,52,284,41,06,27,277,37,09,05,275,,10,31,242,,7*74
$GAGSV,3,2,12,11,35,276,39,12,21,218,,19,63,075,39,21,37,104,43,7*75
$GAGSV,3,3,12,23,17,157,27,27,22,045,45,29,17,089,43,36,16,326,,7*7A
$GBGSV,3,1,11,02,00,103,,05,17,123,45,06,04,053,,07,07,075,38,1*7B
$GBGSV,3,2,11,09,19,053,43,10,07,087,,16,00,052,,20,27,302,42,1*7E
$GBGSV,3,3,11,23,62,137,50,25,37,055,46,29,06,292,31,1*44
$GNRMC,040038.00,A,4843.26168,N,00920.55402,E,0.012,,080225,,,A,V*18
$GNGGA,040038.00,4843.26168,N,00920.55402,E,1,12,0.51,248.4,M,47.6,M,,*48
$GPGSV,3,1,12,05,47,302,38,06,01,199,,07,56,062,47,09,21,094,42,1*6D
$GPGSV,3,2,12,11,20,224,43,13,31,277,40,14,20,158,47,18,03,341,,1*65
$GPGSV,3,3,12,20,65,238,39,22,04,171,,27,01,041,,30,80,173,40,1*6D
$GLGSV,3,1,09,69,20,107,45,70,75,031,32,71,37,310,45,73,26,182,47,1*76
$GLGSV,3,2,09,79,31,037,46,80,64,114,50,85,00,233,,86,20,280,36,1*7D
$GLGSV,3,3,09,87,19,329,35,1*48
$GAGSV,3,1,12,04,52,284,41,06,27,277,37,09,05,275,,10,31,242,,7*74
$GAGSV,3,2,12,11,35,276,39,12,21,218,,19,63,075,39,21,37,104,43,7*75
$GAGSV,3,3,12,23,17,157,27,27,22,045,45,29,17,089,43,36,16,326,,7*7A
$GBGSV,3,1,11,02,00,103,,05,17,123,45,06,04,053,,07,07,075,38,1*7B
$GBGSV,3,2,11,09,19,053,43,10,07,087,,16,00,052,,20,27,302,42,1*7E
$GBGSV,3,3,11,23,62,137,50,25,37,055,46,29,06,292,31,1*44
$GNRMC,040039.00,A,4843.26170,N,00920.55402,E,0.013,,080225,,,A,V*11
$GNGGA,040039.00,4843.26170,N,00920.55402,E,1,12,0.51,248.4,M,47.6,M,,*40
$GPGSV,3,1,12,05,47,302,38,06,01,199,,07,56,062,47,09,21,094,41,1*6E
$GPGSV,3,2,12,11,20,224,43,13,31,277,40,14,20,158,47,18,03,341,,1*65
$GPGSV,3,3,12,20,65,238,39,22,04,171,,27,01,041,,30,80,173,40,1*6D
$GLGSV,3,1,09,69,20,107,45,70,75,031,33,71,37,310,44,73,26,182,46,1*77
$GLGSV,3,2,09,79,31,037,46,80,64,114,50,85,00,233,,86,20,280,37,1*7C
$GLGSV,3,3,09,87,19,329,36,1*4B
$GAGSV,3,1,12,04,52,284,41,06,27,277,37,09,05,275,,10,31,242,,7*74
$GAGSV,3,2,12,11,35,276,39,12,21,218,,19,63,075,39,21,37,104,43,7*75
$GAGSV,3,3,12,23,17,157,26,27,22,045,45,29,17,089,43,36,16,326,,7*7B
$GBGSV,3,1,11,02,00,103,,05,17,123,45,06,04,053,,07,07,075,38,1*7B
$GBGSV,3,2,11,09,19,053,43,10,07,087,,16,00,052,,20,27,302,42,1*7E
$GBGSV,3,3,11,23,62,137,50,25,37,055,46,29,06,292,31,1*44
$GNRMC,040040.00,A,4843.26173,N,00920.55402,E,0.008,,080225,,,A,V*16
$GNGGA,040040.00,4843.26173,N,00920.55402,E,1,12,0.51,248.4,M,47.6,M,,*4D
$GPGSV,3,1,12,05,47,302,38,06,01,199,,07,56,062,46,09,21,094,41,1*6F
$GPGSV,3,2,12,11,20,224,43,13,31,277,40,14,20,158,47,18,03,341,,1*65
$GPGSV,3,3,12,20,65,238,40,22,04,171,,27,01,041,,30,80,173,40,1*63
$GLGSV,3,1,09,69,20,107,45,70,75,031,33,71,37,310,44,73,26,182,46,1*77
$GLGSV,3,2,09,79,31,037,46,80,64,114,50,85,00,233,,86,20,280,36,1*7D
$GLGSV,3,3,09,87,19,329,36,1*4B
$GAGSV,3,1,12,04,52,284,41,06,27,277,37,09,05,275,,10,31,242,,7*74
$GAGSV,3,2,12,11,35,276,39,12,21,218,,19,63,075,39,21,37,104,43,7*75
$GAGSV,3,3,12,23,17,157,25,27,22,045,45,29,17,089,43,36,16,326,,7*78
$GBGSV,3,1,11,02,00,103,,05,17,123,45,06,04,053,,07,07,075,38,1*7B
$GBGSV,3,2,11,09,19,053,43,10,07,087,,16,00,052,,20,27,302,42,1*7E
$GBGSV,3,3,11,23,62,137,50,25,37,055,46,29,06,292,31,1*44
$GNRMC,040041.00,A,4843.26175,N,00920.55402,E,0.005,,080225,,,A,V*1C
$GNGGA,040041.00,4843.26175,N,00920.55402,E,1,12,0.51,248.5,M,47.6,M,,*4B
$GPGSV,3,1,12,05,47,302,38,06,01,199,,07,56,062,46,09,21,094,41,1*6F
$GPGSV,3,2,12,11,20,224,43,13,31,277,40,14,20,158,47,18,03,341,,1*65
$GPGSV,3,3,12,20,65,238,40,22,04,171,,27,01,041,,30,80,173,41,1*62
$GLGSV,3,1,09,69,20,107,45,70,75,031,33,71,37,310,44,73,26,182,45,1*74
$GLGSV,3,2,09,79,31,037,46,80,64,114,50,85,00,233,,86,20,280,35,1*7E
$GLGSV,3,3,09,87,19,329,36,1*4B
$GAGSV,3,1,12,04,52,284,41,06,27,277,37,09,05,275,,10,31,242,,7*74
$GAGSV,3,2,12,11,35,276,39,12,21,218,,19,63,075,39,21,37,104,43,7*75
$GAGSV,3,3,12,23,17,157,26,27,22,045,45,29,17,089,43,36,16,326,,7*7B
$GBGSV,3,1,11,02,00,103,,05,17,123,45,06,04,053,,07,07,075,38,1*7B
$GBGSV,3,2,11,09,19,053,43,10,07,087,,16,00,052,,20,27,302,42,1*7E
$GBGSV,3,3,11,23,62,137,50,25,37,055,45,29,06,292,32,1*44
$GNRMC,040042.00,A,4843.26177,N,00920.55402,E,0.006,,080225,,,A,V*1E
$GNGGA,040042.00,4843.6177,N,00920.55402,E,1,12,0.48,248.5,M,47.6,M,,*42
$GPGSV,3,1,12,05,47,302,38,06,01,199,,07,56,062,46,09,21,094,41,1*6F
$GPGSV,3,2,12,11,20,224,43,13,31,277,40,14,20,158,47,18,03,341,,1*65
$GPGSV,3,3,12,20,65,238,40,22,04,171,,27,01,041,,30,80,173,41,1*62
$GLGSV,3,1,09,69,20,107,46,70,75,031,33,71,37,310,44,73,26,182,45,1*77
$GLGSV,3,2,09,79,31,037,46,80,64,114,50,85,00,233,,86,20,280,35,1*7E
$GLGSV,3,3,09,87,19,329,35,1*48
$GAGSV,3,1,12,04,52,284,41,06,27,277,37,09,05,275,,10,31,242,,7*74
$GAGSV,3,2,12,11,35,276,39,12,21,218,,19,63,075,39,21,37,104,43,7*75
$GAGSV,3,3,12,23,17,157,29,27,22,045,45,29,17,089,43,36,16,326,,7*74
$GBGSV,3,1,11,02,00,103,,05,17,123,45,06,04,053,,07,07,075,38,1*7B
$GBGSV,3,2,11,09,19,053,43,10,07,087,,16,00,052,,20,27,302,42,1*7E
$GBGSV,3,3,11,23,62,137,50,25,37,055,45,29,06,292,32,1*44
$GNRMC,040043.00,A,4843.26180,N,00920.55402,E,0.008,,080225,,,A,V*19
$GNGGA,040043.00,4843.26180,N,00920.55402,E,1,12,0.48,248.6,M,47.6,M,,*48
$GPGSV,3,1,12,05,47,302,38,06,01,199,,07,56,062,46,09,21,094,42,1*6C
$GPGSV,3,2,12,11,20,224,43,13,31,277,41,14,20,158,47,18,03,341,,1*64
$GPGSV,3,3,12,20,65,238,40,22,04,171,,27,01,041,,30,80,173,41,1*62
$GLGSV,3,1,09,69,20,107,46,70,75,031,34,71,37,310,44,73,26,182,44,1*71
$GLGSV,3,2,09,79,31,037,46,80,64,114,50,85,00,233,,86,20,280,34,1*7F
$GLGSV,3,3,09,87,19,329,35,1*48
$GAGSV,3,1,12,04,52,284,41,06,27,277,37,09,05,275,,10,31,242,,7*74
$GAGSV,3,2,12,11,35,276,39,12,21,218,,19,63,075,39,21,37,104,43,7*75
$GAGSV,3,3,12,23,17,157,32,27,22,045,45,29,17,089,42,36,16,326,,7*7F
$GBGSV,3,1,11,02,00,103,,05,17,123,45,06,04,053,,07,07,075,38,1*7B
$GBGSV,3,2,11,09,19,053,43,10,07,087,,16,00,052,,20,27,302,42,1*7E
$GBGSV,3,3,11,23,62,137,50,25,37,055,45,29,06,292,32,1*44
$GNRMC,040044.00,A,4843.26182,N,00920.55402,E,0.008,,080225,,,A,V*1C
$GNGGA,040044.00,4843.26182,N,00920.55402,E,1,12,0.48,248.7,M,47.6,M,,*4C
$GPGSV,3,1,12,05,47,302,38,06,01,199,,07,56,062,46,09,21,094,42,1*6C
$GPGSV,3,2,12,11,20,224,43,13,31,277,40,14,20,158,47,18,03,341,,1*65
$GPGSV,3,3,12,20,65,238,40,22,0,171,,27,01,041,,30,80,173,41,1*62
$GLGSV,3,1,09,69,20,107,46,70,75,031,34,71,37,310,44,73,26,182,43,1*76
$GLGSV,3,2,09,79,31,037,46,80,64,114,50,85,00,233,,86,20,280,34,1*7F
$GLGSV,3,3,09,87,19,329,34,1*49
$GAGSV,3,1,12,04,52,284,41,06,27,277,37,09,05,275,,10,31,242,,7*74
$GAGSV,3,2,12,11,35,276,39,12,21,218,,19,63,075,39,21,37,104,43,7*75
$GAGSV,3,3,12,23,17,157,34,27,22,045,45,29,17,089,42,36,16,326,,7*79
$GBGSV,3,1,11,02,00,103,,05,17,123,45,06,04,053,,07,07,075,38,1*7B
$GBGSV,3,2,11,09,19,053,43,10,07,087,,16,00,052,,20,27,302,42,1*7E
$GBGSV,3,3,11,23,62,137,49,25,37,055,45,29,06,292,32,1*4C
$GNRMC,040045.00,A,4843.26185,N,00920.55402,E,0.007,,080225,,,A,V*15
$GNGGA,040045.00,4843.26185,N,00920.55402,E,1,12,0.48,248.7,M,47.6,M,,*4A
$GPGSV,3,1,12,05,47,302,38,06,01,199,,07,56,062,46,09,21,094,42,1*6C
$GPGSV,3,2,12,11,20,224,43,13,31,277,40,14,20,158,47,18,03,341,,1*65
$GPGSV,3,3,12,20,65,238,40,22,04,171,,27,01,041,,30,80,173,41,1*62
$GLGSV,3,1,09,69,20,107,46,70,75,031,33,71,37,310,43,73,26,182,43,1*76
$GLGSV,3,2,09,79,31,037,46,80,64,114,50,85,00,233,,86,20,280,34,1*7F
$GLGSV,3,3,09,87,19,329,33,1*4E
$GAGSV,3,1,12,04,52,284,41,06,27,277,37,09,05,275,,10,31,242,,7*74
$GAGSV,3,2,12,11,35,276,39,12,21,218,,19,63,075,39,21,37,104,43,7*75
$GAGSV,3,3,12,23,17,157,35,27,22,045,45,29,17,089,42,36,16,326,,7*78
$GBGSV,3,1,11,02,00,103,,05,17,123,45,06,04,053,,07,07,075,38,1*7B
$GBGSV,3,2,11,09,19,053,43,10,07,087,,16,00,052,,20,27,302,42,1*7E
$GBGSV,3,3,11,23,62,137,49,25,37,055,45,29,06,292,32,1*4C
$GNRMC,040046.00,A,4843.26187,N,00920.55402,E,0.005,,080225,,,A,V*16
$GNGGA,040046.00,4843.26187,N,00920.55402,E,1,12,0.48,248.8,M,47.6,M,,*44
$GPGSV,3,1,12,05,47,302,38,06,01,199,,07,56,062,46,09,21,094,42,1*6C
$GPGSV,3,2,12,11,20,224,43,13,31,277,41,14,20,158,47,18,03,341,,1*64
$GPGSV,3,3,12,20,65,238,40,22,04,171,,27,01,041,,30,80,173,41,1*62
$GLGSV,3,1,09,69,20,107,46,70,75,031,33,71,37,310,43,73,26,182,42,1*77
$GLGSV,3,2,09,79,31,037,45,80,64,114,50,85,00,233,,86,20,280,33,1*7B
$GLGSV,3,3,09,87,19,329,33,1*4E
$GAGSV,3,1,12,04,52,284,41,06,27,277,36,09,05,275,,10,31,242,,7*75
$GAGSV,3,2,12,11,35,276,39,12,21,218,,19,63,075,38,21,37,104,43,7*74
$GAGSV,3,3,12,23,17,157,35,27,22,045,45,29,17,089,42,36,16,326,,7*78
$GBGSV,3,1,11,02,00,103,,05,17,123,45,06,04,053,,07,07,075,38,1*7B
$GBGSV,3,2,11,09,19,053,43,10,07,087,,16,00,052,,20,27,302,42,1*7E
$GBGSV,3,3,11,23,62,137,49,25,37,055,45,29,06,292,32,1*4C
$GNRMC,040047.00,A,4843.26188,N,00920.55401,E,0.009,,080225,,,A,V*17
$GNGGA,040047.00,4843.26188,N,00920.55401,E,1,12,0.48,248.9,M,47.6,M,,*48
$GPGSV,3,1,12,05,47,302,38,06,01,199,,07,56,062,46,09,21,094,42,1*6C
$GPGSV,3,2,12,11,20,224,43,13,31,277,41,14,20,158,47,18,03,341,,1*64
$GPGSV,3,3,12,20,65,238,40,22,04,171,,27,01,041,,30,80,173,41,1*62
$GLGSV,3,1,09,69,20,107,47,70,75,031,33,71,37,310,43,73,26,182,1,1*75
$GLGSV,3,2,09,79,31,037,45,80,64,113,50,85,00,233,,86,20,280,32,1*7D
$GLGSV,3,3,09,87,19,329,33,1*4E
$GAGSV,3,1,12,04,52,284,41,06,27,277,36,09,05,275,,10,31,242,,7*75
$GAGSV,3,2,12,11,35,276,39,12,21,218,,19,63,075,38,21,37,104,43,7*74
$GAGSV,3,3,12,23,17,157,35,27,22,045,45,29,17,089,42,36,16,326,,7*78
$GBGSV,3,1,11,02,00,103,30,05,17,123,45,06,04,053,,07,07,075,38,1*78
$GBGSV,3,2,11,09,19,053,43,10,07,087,,16,00,052,,20,27,302,42,1*7E
$GBGSV,3,3,11,23,62,137,49,25,37,055,45,29,06,292,33,1*4D
$GNRMC,040048.00,A,4843.26190,N,00920.55400,E,0.004,,080225,,,A,V*1D
$GNGGA,040048.00,4843.26190,N,00920.55400,E,1,12,0.48,249.0,M,47.6,M,,*47
$GPGSV,3,1,2,05,47,302,38,06,01,199,,07,56,062,45,09,21,094,42,1*6F
$GPGSV,3,2,12,11,20,224,43,13,31,277,41,14,20,158,47,18,03,341,,1*64
$GPGSV,3,3,12,20,65,238,40,22,04,171,,27,01,041,,30,80,173,41,1*62
$GLGSV,3,1,09,69,20,107,47,70,75,031,32,71,37,310,43,73,26,182,41,1*74
$GLGSV,3,2,09,79,31,037,45,80,64,113,50,85,00,233,,86,20,280,33,1*7C
$GLGSV,3,3,09,87,19,329,33,1*4E
$GAGSV,3,1,12,04,52,284,41,06,27,277,36,09,05,275,,10,31,242,,7*75
$GAGSV,3,2,12,11,35,276,39,12,21,218,,19,63,075,38,21,37,104,43,7*74
$GAGSV,3,3,12,23,17,157,36,27,22,045,45,29,17,089,42,36,16,326,,7*7B
$GBGSV,3,1,11,02,00,103,,05,17,123,45,06,04,053,,07,07,075,38,1*7B
$GBGSV,3,2,11,09,19,053,43,10,07,087,,16,00,052,,20,27,302,42,1*7E
$GBGSV,3,3,11,23,62,137,49,25,37,055,45,29,06,292,32,1*4C
$GNRMC,040049.00,A,4843.26192,N,00920.55399,E,0.002,,080225,,,A,V*1F
$GNGGA,040049.00,4843.2619,N,00920.55399,E,1,12,0.48,249.1,M,47.6,M,,*42
$GPGSV,3,1,12,05,47,302,38,06,01,199,,07,56,062,45,09,21,094,42,1*6F
$GPGSV,3,2,12,11,20,224,43,13,31,277,41,14,20,158,48,18,03,341,,1*6B
$GPGSV,3,3,12,20,65,238,39,22,04,171,,27,01,041,,30,80,173,41,1*6C
$GLGSV,3,1,09,69,20,107,47,70,75,031,32,71,37,310,43,73,26,182,4,1*75
$GLGSV,3,2,09,79,31,037,45,80,64,113,49,85,00,233,,86,20,280,33,1*74
$GLGSV,3,3,09,87,19,329,32,1*4F
$GAGSV,3,1,12,04,52,284,41,06,27,277,36,09,05,275,,10,31,242,,7*75
$GAGSV,3,2,12,11,35,276,39,12,21,218,,19,63,075,38,21,37,104,43,7*74
$GAGSV,3,3,12,23,17,157,35,27,22,045,45,29,17,089,42,36,16,326,,7*78
$GBGSV,3,1,11,02,00,103,,05,17,123,45,06,04,053,,07,07,075,38,1*7B
$GBGSV,3,2,11,09,19,053,43,10,07,087,,16,00,052,,20,27,302,42,1*7E
$GBGSV,3,3,11,23,62,137,49,25,37,055,46,29,06,292,32,1*4F
$GNRMC,040050.00,A,4843.26194,N,00920.55398,E,0.002,,080225,,,A,V*10
$GNGGA,040050.00,4843.26194,N,00920.55398,E,1,12,0.48,249.2,M,47.6,M,,*4E
$GPGSV,3,1,12,05,47,302,38,06,01,199,,07,56,062,45,09,21,094,43,1*6E
$GPGSV,3,2,12,11,20,224,43,13,31,277,41,14,20,158,48,18,03,341,,1*6B
$GPGSV,3,3,12,20,65,238,39,22,04,171,,27,01,041,,30,80,173,41,1*6C
$GLGSV,3,1,09,69,20,107,47,70,75,031,31,71,37,310,43,73,26,182,36,1*77
$GLGSV,3,2,09,79,31,037,45,80,64,113,49,85,00,233,,86,20,280,33,1*74
$GLGSV,3,3,09,87,19,329,32,1*4F
$GAGSV,3,1,12,04,52,284,41,06,27,277,36,09,05,275,,10,31,242,,7*75
$GAGSV,3,2,12,11,35,276,39,12,21,218,,19,63,075,38,21,37,104,43,7*74
$GAGSV,3,3,12,23,17,157,36,27,22,045,45,29,17,089,42,36,16,326,,7*7B
$GBGSV,3,1,11,02,00,103,,05,17,123,45,06,04,053,,07,07,075,38,1*7B
$GBGSV,3,2,11,09,19,053,43,10,07,087,,16,00,052,,20,27,302,42,1*7E
$GBGSV,3,3,11,23,62,137,49,25,37,055,46,29,06,292,32,1*4F
$GNRMC,040051.00,A,4843.26196,N,00920.55396,E,0.005,,080225,,,A,V*1A
$GNGGA,040051.00,4843.26196,N,00920.55396,E,1,12,0.48,249.3,M,47.6,M,,*42
$GPGSV,3,1,12,05,47,302,38,06,01,199,,07,56,062,45,09,21,094,43,1*6E
$GPGSV,3,2,12,11,20,224,43,13,31,277,40,14,20,158,47,18,03,341,,1*65
$GPGSV,3,3,12,20,65,238,39,22,04,171,,27,01,041,,30,80,173,41,1*6C
$GLGSV,3,1,09,69,20,107,48,70,75,031,31,71,37,310,44,73,26,182,36,1*7F
$GLGSV,3,2,09,79,31,037,46,80,64,113,49,85,00,233,,86,20,280,33,1*77
$GLGSV,3,3,09,87,19,329,31,1*4C
$GAGSV,3,1,12,04,52,284,41,06,27,277,36,09,05,275,,10,31,242,,7*75
$GAGSV,3,2,12,11,35,276,39,12,21,218,,19,63,075,38,21,37,104,43,7*74
$GAGSV,3,3,12,23,17,157,37,27,22,045,45,29,17,089,42,36,16,326,,7*7A
$GBGSV,3,1,11,02,00,103,,05,17,123,45,06,04,053,,07,07,075,38,1*7B
$GBGSV,3,2,11,09,19,053,43,10,07,087,,16,00,052,,20,27,302,42,1*7E
$GBGSV,3,3,11,23,62,137,49,25,37,055,46,29,06,292,33,1*4E
$GNRMC,040052.00,A,4843.26199,N,00920.55394,E,0.010,,080225,,,A,V*10
$GNGGA,040052.00,4843.26199,N,00920.55394,E,1,12,0.48,249.4,M,47.6,M,,*4B
$GPGSV,3,1,12,05,47,302,39,06,01,199,,07,56,062,45,09,21,094,43,1*6F
$GPGSV,3,3,12,20,65,238,39,22,04,171,,27,01,041,,30,80,173,41,1*6C
$GLGSV,2,1,08,69,20,107,48,70,75,031,32,71,37,310,44,73,26,182,36,1*7C
$GLGSV,2,2,08,79,31,037,46,80,64,113,49,86,20,280,33,87,19,329,32,1*76
$GAGSV,3,1,12,04,52,284,41,06,27,277,36,09,05,275,,10,31,242,,7*75
$GAGSV,3,2,12,11,35,276,39,12,21,218,,19,63,075,38,21,37,104,43,7*74
$GAGSV,3,3,12,23,17,157,37,27,22,045,45,29,17,089,42,36,16,326,,7*7A
$GBGSV,3,1,11,02,00,103,,05,17,123,45,06,04,053,,07,07,075,38,1*7B
$GBGSV,3,2,11,09,19,053,43,10,07,087,,16,00,052,,20,27,302,42,1*7E
$GBGSV,3,3,11,23,62,137,48,25,37,055,46,29,06,292,32,1*4E
$GNRMC,040053.00,A,4843.26201,N,00920.55392,E,0.012,,080225,,,A,V*17
$GNGGA,040053.00,4843.2620,N,00920.55392,E,1,12,0.48,249.5,M,47.6,M,,*4F
$GPGSV,3,1,12,05,47,302,39,06,01,199,,07,56,062,45,09,21,094,43,1*6F
$GPGSV,3,2,12,11,20,224,43,13,31,277,41,14,20,158,48,18,03,341,,1*6B
$GPGSV,3,3,12,20,65,238,39,22,04,171,,27,01,041,,30,80,173,41,1*6C
$GLGSV,2,1,08,69,20,107,49,70,75,031,32,71,37,310,44,73,26,182,28,1*72
$GLGSV,2,2,08,79,31,037,46,80,64,113,49,86,20,280,33,87,19,329,32,1*76
$GAGSV,3,1,12,04,52,284,41,06,27,277,36,09,05,275,,10,31,242,,7*75
$GAGSV,3,2,12,11,35,276,39,12,21,218,,19,63,075,38,21,37,104,43,7*74
$GAGSV,3,3,12,23,17,157,37,27,22,045,45,29,17,089,42,36,16,326,,7*7A
$GBGSV,3,1,11,02,00,103,,05,17,123,45,06,04,053,,07,07,075,38,1*7B
$GBGSV,3,2,11,09,19,053,43,10,07,087,,16,00,052,,20,27,302,42,1*7E
$GBGSV,3,3,11,23,62,137,48,25,37,055,46,29,06,292,25,1*48
$GNRMC,040054.00,A,4843.26203,N,00920.55390,E,0.009,,080225,,,A,V*1A
$GNGGA,040054.00,4843.26203,N,00920.55390,E,1,12,0.48,249.6,M,47.6,M,,*4B
$GPGSV,3,1,12,05,47,302,39,06,01,199,,07,56,062,45,09,21,094,42,1*6E
$GPGSV,3,2,12,11,20,224,42,13,31,277,41,14,20,158,48,18,03,341,,1*6A
$GPGSV,3,3,12,20,65,238,39,22,04,171,,27,01,041,,30,80,173,42,1*6F
$GLGSV,2,1,08,69,20,107,49,70,75,031,33,71,37,310,44,73,26,182,27,1*7C
$GLGSV,2,2,08,79,31,037,46,80,64,113,49,86,20,280,33,87,19,328,33,1*76
$GAGSV,3,1,12,04,52,284,41,06,27,277,36,09,05,275,,10,31,242,,7*75
$GAGSV,3,2,12,11,35,276,39,12,21,218,,19,63,075,38,21,37,104,43,7*74
$GAGSV,3,3,12,23,17,157,38,27,22,045,45,29,17,089,42,36,16,326,,7*75
$GBGSV,3,1,11,02,00,103,,05,17,123,45,06,04,053,,07,07,075,38,1*7B
$GBGSV,3,2,11,09,19,053,43,10,07,087,,16,00,052,,20,27,302,42,1*7E
$GBGSV,3,3,11,23,62,137,48,25,37,055,46,29,06,292,33,1*4F
$GNRMC,040055.00,A,4843.26205,N,00920.55389,E,0.008,,080225,,,A,V*14
$GNGGA,040055.00,4843.26205,N,00920.55389,E,1,12,0.48,249.7,M,47.6,M,,*45
$GPGSV,3,1,12,05,47,302,39,06,01,199,,07,56,062,45,09,21,094,42,1*6E
$GPGSV,3,2,12,11,20,224,42,13,31,277,41,14,20,158,48,18,03,341,,1*6A
$GPGSV,3,3,12,20,65,238,38,22,04,171,,27,01,041,,30,80,173,42,1*6E
$GLGSV,2,1,08,69,20,107,49,70,75,031,33,71,37,310,44,73,26,182,28,1*73
$GLGSV,2,2,08,79,31,037,45,80,64,113,49,86,20,280,32,87,19,328,34,1*73
$GAGSV,3,1,12,04,52,284,41,06,27,277,36,09,05,275,,10,31,242,,7*75
$GAGSV,3,2,12,11,35,276,39,12,21,218,,19,63,075,38,21,37,104,43,7*74
$GAGSV,3,3,12,23,17,157,38,27,22,045,45,29,17,089,42,36,16,326,,7*75
$GBGSV,3,1,11,02,00,103,,05,17,123,45,06,04,053,,07,07,075,38,1*7B
$GBGSV,3,2,11,09,19,053,43,10,07,087,,16,00,052,,20,27,302,42,1*7E
$GBGSV,3,3,11,23,62,137,48,25,37,055,46,29,06,292,33,1*4F
$GNRMC,040056.00,A,4843.26207,N,00920.55387,E,0.003,,080225,,,A,V*10
$GNGGA,040056.00,4843.26207,N,00920.55387,E,1,12,0.48,249.8,M,47.6,M,,*45
$GPGSV,3,1,12,05,47,302,39,06,01,199,,07,56,062,45,09,21,094,41,1*6D
$GPGSV,3,2,12,11,20,224,43,13,31,277,41,14,20,158,47,18,03,341,,1*64
$GPGSV,3,3,12,20,65,238,38,22,04,171,,27,01,041,,30,80,173,42,1*6E
$GLGSV,2,1,08,69,20,107,49,70,75,031,34,71,37,310,44,73,26,182,28,1*74
$GLGSV,2,2,08,79,31,037,45,80,64,113,49,86,20,280,32,87,19,328,35,1*72
$GAGSV,3,1,12,04,52,284,41,06,27,277,36,09,05,275,,10,31,242,,7*75
$GAGSV,3,2,12,11,35,276,39,12,21,218,,19,63,075,38,21,37,104,43,7*74
$GAGSV,3,3,12,23,17,157,38,27,22,045,45,29,17,089,42,36,16,326,,7*75
$GBGSV,3,1,11,02,00,103,,05,17,123,45,06,04,053,,07,07,075,38,1*7B
$GBGSV,3,2,11,09,19,053,43,10,07,087,,16,00,052,,20,27,302,42,1*7E
$GBGSV,3,3,11,23,62,137,48,25,37,055,46,29,06,292,33,1*4F
$GNRMC,040057.00,A,4843.26209,N,00920.55385,E,0.008,,080225,,,A,V*16
$GNGGA,040057.00,4843.26209,N,00920.55385,E,1,12,0.48,249.9,M,47.6,M,,*49
$GPGSV,3,1,12,05,47,302,39,06,01,199,,07,56,062,45,09,21,094,41,1*6D
$GPGSV,3,2,12,11,20,224,43,13,31,277,41,14,20,158,48,18,03,341,,1*6B
$GPGSV,3,3,12,20,65,238,38,22,04,171,,27,01,041,,30,80,173,41,1*6D
$GLGSV,2,1,08,69,20,107,49,70,75,031,34,71,37,310,44,73,26,182,30,1*7D
$GLGSV,2,2,08,79,31,037,45,80,64,113,49,86,20,280,32,87,19,328,35,1*72
$GAGSV,3,1,12,04,52,284,41,06,27,277,36,09,05,275,,10,31,242,,7*75
$GAGSV,3,2,12,11,35,276,39,12,21,218,,19,63,075,38,21,37,104,44,7*73
$GBGSV,3,1,11,02,00,103,,05,17,123,45,06,04,053,,07,07,075,3,1*7B
$GBGSV,3,2,11,09,19,053,4,10,07,087,,16,00,052,,20,27,302,43,1*7F
$GBGSV,3,3,11,23,62,137,48,25,37,055,46,29,06,292,33,1*4F
$GNRMC,040058.00,A,4843.26210,N,00920.55384,E,0.006,,080225,,,A,V*1E
$GNGGA,040058.00,4843.26210,N,00920.55384,E,1,12,0.48,250.0,M,47.6,M,,*4E
$GPGSV,3,1,12,05,47,302,39,06,01,199,,07,56,062,45,09,21,094,41,1*6D
$GPGSV,3,2,12,11,20,224,43,13,31,277,41,14,20,158,48,18,03,341,,1*6B
$GPGSV,3,3,12,20,65,238,38,22,04,171,,27,01,041,,30,80,173,41,1*6D
$GLGSV,2,1,08,69,20,107,49,70,75,031,34,71,37,310,44,73,26,182,33,1*7E
$GLGSV,2,2,08,79,31,037,45,80,64,113,49,86,20,280,32,87,19,328,34,1*73
$GAGSV,3,1,12,04,52,284,41,06,27,277,36,09,05,275,,10,31,242,,7*75
$GAGSV,3,2,12,11,35,276,39,12,21,218,,19,63,075,38,21,37,104,44,7*73
$GAGSV,3,3,12,23,17,157,38,27,22,045,45,29,17,089,42,36,16,326,,7*75
$GBGSV,3,1,11,02,00,103,,05,17,123,45,06,04,053,,07,07,075,38,1*7B
$GBGSV,3,2,11,09,19,053,43,10,07,087,,16,00,052,,20,27,302,43,1*7F
$GBGSV,3,3,11,23,62,137,48,25,37,055,46,29,06,292,33,1*4F
$GNRMC,040059.00,A,4843.26212,N,00920.55382,E,0.002,,080225,,,A,V*1F
$GNGGA,040059.00,4843.26212,N,00920.55382,E,1,12,0.48,250.1,M,47.6,M,,*4A
$GPGSV,3,1,12,05,47,302,39,06,01,199,,07,56,062,44,09,21,094,41,1*6C
$GPGSV,3,2,12,11,20,224,42,13,31,277,42,14,20,158,48,18,03,341,,1*69
$GPGSV,3,3,12,20,65,238,38,22,04,171,,27,01,041,,30,80,173,41,1*6D
$GLGSV,2,1,08,69,20,107,49,70,75,031,34,71,37,310,44,73,26,182,33,1*7E
$GLGSV,2,2,08,79,31,037,45,80,64,113,49,86,20,280,32,87,19,328,34,1*73
$GAGSV,3,1,12,04,52,284,41,06,27,277,36,09,05,275,,10,31,242,,7*75
$GAGSV,3,2,12,11,35,276,39,12,21,218,,19,63,075,38,21,37,104,44,7*73
$GAGSV,3,3,12,23,17,157,39,27,22,045,45,29,17,089,42,36,16,326,,7*74
$GBGSV,3,1,11,02,00,103,,05,17,123,45,06,04,053,,07,07,075,38,1*7B
$GBGSV,3,2,11,09,19,053,43,10,07,087,,16,00,052,,20,27,302,42,1*7E
$GBGSV,3,3,11,23,62,137,48,25,37,055,46,29,06,292,33,1*4F
$GNRMC,040100.00,A,4843.26213,N,00920.55382,E,0.003,,080225,,,A,V*12
$GNGGA,040100.00,4843.26213,N,00920.55382,E,1,12,0.48,250.2,M,47.6,M,,*45
$GPGSV,3,1,12,05,47,302,39,06,01,199,,07,56,062,44,09,21,094,41,1*6C
$GPGSV,3,2,12,11,20,224,42,13,31,277,42,14,20,158,48,18,03,341,,1*69
$GPGSV,3,3,12,20,65,238,38,22,04,171,,27,01,041,,30,80,173,41,1*6D
$GLGSV,2,1,08,69,20,107,49,70,75,031,33,71,37,310,44,73,26,182,35,1*7F
$GLGSV,2,2,08,79,31,037,45,80,64,113,49,86,20,280,34,87,19,328,33,1*72
$GAGSV,3,1,12,04,52,284,41,06,27,277,36,09,05,275,,10,31,242,,7*75
$GAGSV,3,2,12,11,35,276,39,12,21,218,,19,63,075,38,21,37,104,44,7*73
$GAGSV,3,3,12,23,17,157,39,27,22,045,45,29,17,089,42,36,16,326,,7*74
$GBGSV,3,1,11,02,00,103,,05,17,123,45,06,04,053,,07,07,075,38,1*7B
$GBGSV,3,2,11,09,19,053,43,10,07,087,,16,00,052,,20,27,302,42,1*7E
$GBGSV,3,3,11,23,62,137,48,25,37,055,46,29,06,292,33,1*4F
$GNRMC,040101.00,A,4843.26215,N,00920.55381,E,0.009,,080225,,,A,V*1C
$GNGGA,040101.00,4843.26215,N,00920.55381,E,1,12,0.48,250.2,M,47.6,M,,*41
$GPGSV,3,1,12,05,47,301,38,06,01,199,,07,56,062,44,09,21,094,40,1*6F
$GPGSV,3,2,12,11,20,224,42,13,31,277,42,14,20,158,47,18,03,341,,1*66
$GPGSV,3,3,12,20,65,238,38,22,0,171,,27,01,041,,30,80,173,41,1*6D
$GLGSV,2,1,08,69,20,107,49,70,75,031,33,71,37,310,44,73,26,182,36,1*7C
$GLGSV,2,2,08,79,31,037,45,80,64,113,49,86,20,280,34,87,19,328,33,1*72
$GAGSV,3,1,12,04,52,284,41,06,27,277,36,09,05,275,,10,31,242,,7*75
$GAGSV,3,2,12,11,35,276,39,12,21,218,,19,63,075,38,21,37,104,44,7*73
$GAGSV,3,3,12,23,17,157,40,27,22,045,45,29,17,089,42,36,16,326,,7*7A
$GBGSV,3,1,11,02,00,103,,05,17,123,45,06,04,053,,07,07,075,38,1*7B
$GBGSV,3,2,11,09,19,053,43,10,07,087,,16,00,052,,20,27,302,43,1*7F
$GBGSV,3,3,11,23,62,137,48,25,37,055,46,29,06,292,33,1*4F
$GNRMC,040102.00,A,4843.26218,N,00920.55380,E,0.013,,080225,,,A,V*18
$GNGGA,040102.00,4843.26218,N,00920.55380,E,1,12,0.48,250.3,M,47.6,M,,*4F
$GPGSV,3,1,12,05,47,301,38,06,01,199,,07,56,062,44,09,21,094,40,1*6F
$GPGSV,3,2,12,11,20,224,42,13,31,277,42,14,20,158,47,18,03,341,,1*66
$GPGSV,3,3,12,20,65,238,39,22,04,171,,27,01,041,,30,80,173,41,1*6C
$GLGSV,2,1,08,69,20,107,49,70,75,031,33,71,37,310,44,73,26,182,37,1*7D
$GLGSV,2,2,08,79,31,037,45,80,64,113,49,86,20,280,33,87,19,328,32,1*74
$GAGSV,3,1,12,04,52,284,41,06,27,277,36,09,05,275,,10,31,242,,7*75
$GAGSV,3,2,12,11,35,276,39,12,21,218,,19,63,075,38,21,37,104,44,7*73
$GAGSV,3,3,12,23,17,157,40,27,22,045,45,29,17,089,41,36,16,326,,7*79
$GBGSV,3,1,11,02,00,103,,05,17,123,45,06,04,053,,07,07,075,38,1*7B
$GBGSV,3,2,11,09,19,053,43,10,07,087,,16,00,052,,20,27,302,43,1*7F
$GBGSV,3,3,11,23,62,137,48,25,37,055,46,29,06,292,33,1*4F
$GNRMC,040103.00,A,4843.26220,N,00920.55380,E,0.016,,080225,,,A,V*17
$GNGGA,040103.00,4843.26220,N,00920.55380,E,1,12,0.48,250.4,M,47.6,M,,*42
$GPGSV,3,1,12,05,47,301,38,06,01,199,,07,55,062,44,09,21,094,40,1*6C
$GPGSV,3,2,12,11,20,224,42,13,31,277,42,14,20,158,47,18,03,341,,1*66
$GPGSV,3,3,12,20,65,238,39,22,04,171,,27,01,041,,30,80,173,41,1*6C
$GLGSV,2,1,08,69,20,107,49,70,75,031,32,71,37,310,44,73,26,182,40,1*7C
$GLGSV,2,2,08,79,31,037,45,80,64,113,49,86,20,280,33,87,19,328,31,1*77
$GAGSV,3,1,12,04,52,284,41,06,27,277,36,09,05,275,,10,31,242,,7*75
$GAGSV,3,2,12,11,35,276,39,12,21,218,,19,63,075,38,21,37,104,44,7*73
$GAGSV,3,3,12,23,17,157,40,27,22,045,45,29,17,089,42,36,16,326,,7*7A
$GBGSV,3,1,11,02,00,103,,05,17,123,45,06,04,053,,07,07,075,8,1*7B
$GBGSV,3,2,11,09,19,053,3,10,07,087,,16,00,052,,20,27,302,43,1*7F
$GBGSV,3,3,11,23,62,137,48,25,37,055,46,29,06,292,33,1*4F
$GNRMC,040104.00,A,4843.26222,N,00920.55380,E,0.004,,080225,,,A,V*11
$GNGGA,040104.00,4843.26222,N,00920.55380,E,1,12,0.48,250.5,M,47.6,M,,*46
$GPGSV,3,1,12,05,47,301,37,06,01,199,,07,55,062,44,09,21,094,39,1*6D
$GPGSV,3,2,12,11,20,224,42,13,31,277,42,14,20,158,48,18,03,341,,1*69
$GPGSV,3,3,12,20,65,238,39,22,04,171,,27,01,041,,30,80,173,41,1*6C
$GLGSV,2,1,08,69,20,107,49,70,75,031,32,71,37,310,44,73,26,182,41,1*7D
$GLGSV,2,2,08,79,31,037,45,80,64,113,49,86,20,280,32,87,19,328,30,1*77
$GAGSV,3,1,12,04,52,284,41,06,27,277,36,09,05,275,,10,31,242,,7*75
$GAGSV,3,2,12,11,35,276,39,12,21,218,,19,63,075,38,21,37,104,44,7*73
$GAGSV,3,3,12,23,17,157,40,27,22,045,45,29,17,089,42,36,16,326,,7*7A
$GBGSV,3,1,11,02,00,103,,05,17,123,45,06,04,053,,07,07,075,38,1*7B
$GBGSV,3,2,11,09,19,053,43,10,07,087,,16,00,052,,20,27,302,43,1*7F
$GBGSV,3,3,11,23,62,137,48,25,37,055,46,29,06,292,33,1*4F
$GNRMC,040105.00,A,4843.26224,N,00920.55381,E,0.007,,080225,,,A,V*14
$GNGGA,040105.00,4843.26224,N,00920.55381,E,1,12,0.48,250.6,M,47.6,M,,*43
$GPGSV,3,1,12,05,47,301,37,06,01,199,,07,55,062,44,09,21,094,39,1*6D
$GPGSV,3,2,12,11,20,224,42,13,31,277,42,14,20,158,47,18,03,341,,1*66
$GPGSV,3,3,12,20,65,238,39,22,04,171,,27,01,041,,30,80,173,41,1*6C
$GLGSV,2,1,08,69,20,107,49,70,75,031,31,71,37,310,44,73,26,182,41,1*7E
$GLGSV,2,2,08,79,31,037,45,80,64,113,49,86,20,280,33,87,19,328,28,1*7F
$GAGSV,3,1,12,04,52,284,41,06,27,277,36,09,05,275,,10,31,242,,7*75
$GAGSV,3,2,12,11,35,276,39,12,21,218,,19,63,075,38,21,37,104,44,7*73
$GAGSV,3,3,12,23,17,157,40,27,22,045,45,29,17,089,42,36,16,326,,7*7A
$GBGSV,3,1,11,02,00,103,,05,17,123,45,06,04,053,,07,07,075,38,1*7B
$GBGSV,3,2,11,09,19,053,43,10,07,087,,16,00,052,,20,27,302,43,1*7F
$GBGSV,3,3,11,23,62,137,48,25,37,055,46,29,06,292,32,1*4E
$GNRMC,040106.00,A,4843.26225,N,00920.55382,E,0.004,,080225,,,A,V*16
$GNGGA,040106.00,4843.26225,N,00920.55382,E,1,12,0.48,250.6,M,47.6,M,,*42
$GPGSV,3,1,12,05,47,301,37,06,01,199,,07,55,062,44,09,21,094,39,1*6D
