$GNRMC,13235.00,A,4843.26046,N,00920.55651,E,0.018,,080225,,,A,V*13
$GNGGA,113235.00,4843.26046,N,00920.55651,E,1,12,0.49,249.6,M,47.6,M,,*43
$GPGSV,3,1,10,03,00,341,,06,22,045,44,11,33,081,49,12,56,075,47,1*60
$GPGSV,3,2,10,24,21,149,42,25,78,308,38,28,32,308,34,29,43,208,40,1*66
$GPGSV,3,3,10,31,09,312,,32,33,263,36,1*6D
$GLGSV,3,1,10,66,13,243,39,67,25,297,41,68,13,345,42,75,27,099,49,1*7B
$GLGSV,3,2,10,76,73,015,39,77,36,305,,84,00,016,13,85,42,046,40,1*74
$GLGSV,3,3,10,86,50,137,46,87,15,175,,1*7D
$GAGSV,4,1,13,03,33,293,,05,33,229,34,08,06,335,,09,03,186,,7*7A
$GAGSV,4,2,13,10,18,144,49,11,02,165,,12,29,122,44,16,64,285,28,7*7A
$GAGSV,4,3,13,24,81,026,32,25,39,274,,26,03,018,,31,31,081,45,7*76
$GAGSV,4,4,13,33,29,059,43,7*41
$GBGSV,3,1,11,02,00,103,,05,15,124,43,07,00,058,,08,00,083,,1*7C
$GNRMC,130000.00,A,4843.26028,N,00920.55597,E,0.010,,080225,,,A,V*1F
$GNGGA,130000.00,4843.26028,N,00920.55597,E,1,12,0.51,249.2,M,47.6,M,,*4A
$GPGSV,3,1,12,04,03,342,,05,05,102,,11,21,043,45,12,21,103,48,1*6F
$GPGSV,3,2,12,18,20,178,42,20,15,068,40,25,60,103,45,26,22,293,41,1*62
$GPGSV,3,3,12,28,58,266,,29,86,220,38,31,43,299,42,32,05,232,,1*6A
$GLGSV,3,1,09,68,12,304,38,69,11,351,44,76,47,119,48,77,78,347,,1*72
$GLGSV,3,2,09,78,19,313,37,85,04,029,11,86,55,050,45,87,64,173,40,1*76
$GLGSV,3,3,09,88,09,202,41,1*4D
$GAGSV,3,1,12,02,15,287,,03,20,260,,0,03,214,,08,18,312,,7*7C
$GAGSV,3,2,12,10,49,123,44,11,35,158,41,12,48,084,37,16,82,050,30,7*7E
$GAGSV,3,3,12,24,56,095,45,25,66,300,37,31,06,103,38,33,14,033,32,7*71
$GBGSV,3,1,11,02,00,102,,05,16,124,39,08,20,077,44,10,04,072,34,1*77
$GBGSV,3,2,11,13,19,085,41,14,02,330,,17,12,128,,26,19,307,38,1*7F
$GNRMC,130001.00,A,4843.26029,N,00920.55598,E,0.007,,080225,,,A,V*16
$GNGGA,130001.00,4843.26029,N,00920.55598,E,1,12,0.51,249.2,M,47.6,M,,*45
$GPGSV,3,1,12,04,03,342,,05,05,102,,11,21,043,45,12,21,103,48,1*6F
$GPGSV,3,2,12,18,20,178,42,20,15,068,40,25,60,103,4,26,22,293,42,1*60
$GPGSV,3,3,12,28,58,266,,29,86,220,38,31,43,299,42,32,05,232,,1*6A
$GLGSV,3,1,09,68,12,304,38,69,11,351,45,76,47,119,48,77,78,347,,1*73
$GLGSV,3,2,09,78,19,313,37,85,04,029,12,86,55,050,44,87,64,173,41,1*75
$GLGSV,3,3,09,88,09,202,41,1*4D
$GAGSV,3,1,12,02,15,287,,03,20,260,,05,03,214,,08,18,312,,7*7C
$GAGSV,3,2,12,10,49,123,44,11,35,158,39,12,48,084,40,16,82,050,30,7*71
$GAGSV,3,3,12,24,56,095,47,25,66,300,37,31,06,103,38,33,14,033,32,7*73
$GBGSV,3,1,11,02,00,102,,05,16,124,39,08,20,077,44,10,04,072,34,1*77
$GNRMC,130002.00,A,4843.26029,N,00920.55599,E,0.014,,080225,,,A,V*16
$GNGGA,130002.00,4843.26029,N,00920.55599,E,1,12,0.51,249.2,M,47.6,M,,*47
$GPGSV,3,1,12,04,03,342,,05,05,102,,11,21,043,45,12,21,103,47,1*60
$GPGSV,3,2,12,18,20,178,42,20,15,068,41,25,60,103,45,26,22,293,41,1*63
$GPGSV,3,3,12,28,58,266,,29,86,220,38,31,43,299,42,32,05,232,,1*6A
$GLGSV,3,1,09,68,12,304,38,69,11,351,45,76,47,119,47,77,78,347,,1*7C
$GLGSV,3,2,09,78,19,313,37,85,04,029,13,86,55,050,46,87,64,173,42,1*75
$GLGSV,3,3,09,88,09,202,41,1*4D
$GAGSV,3,1,12,02,15,287,,03,20,260,,05,03,214,,08,18,312,,7*7C
$GAGSV,3,2,12,10,49,123,45,11,35,158,40,12,48,084,39,16,82,050,30,7*70
$GAGSV,3,3,12,24,56,095,46,25,66,300,37,31,06,103,39,33,14,033,32,7*73
$GBGSV,3,1,11,02,00,102,,05,16,124,39,08,20,077,44,10,04,072,34,1*77
$GBGSV,3,2,11,13,19,085,41,14,02,330,,17,12,128,,26,19,307,37,1*70
$GNRMC,130003.00,A,4843.26029,N,00920.55599,E,0.030,,080225,,,A,V*11
$GNGGA,130003.00,4843.26029,N,00920.55599,E,1,12,0.51,249.2,M,47.6,M,,*46
$GPGSV,3,1,12,04,03,342,,05,05,102,,11,21,043,45,12,21,103,47,1*60
$GPGSV,3,2,12,18,20,178,42,20,15,068,41,25,60,103,45,26,22,293,39,1*6C
$GPGSV,3,3,12,28,58,266,,29,86,220,38,31,43,299,39,32,05,232,,1*66
$GLGSV,3,1,09,68,12,304,34,69,11,351,45,76,47,119,48,77,78,347,,1*7F
$GLGSV,3,2,09,78,19,313,35,85,04,029,14,86,55,050,46,87,64,173,42,1*70
$GLGSV,3,3,09,88,09,202,40,1*4C
$GAGSV,3,1,12,02,15,287,,03,20,260,,05,03,214,,08,18,312,,7*7C
$GAGSV,3,2,12,10,49,123,44,11,35,158,40,12,48,084,36,16,82,050,30,7*7E
$GAGSV,3,3,12,24,56,095,43,25,66,300,36,31,06,103,38,33,14,033,33,7*77
$GBGSV,3,1,11,02,00,102,,05,16,124,38,08,20,077,43,10,04,072,34,1*71
$GNRMC,130004.00,A,4843.26028,N,00920.55599,E,0.017,,080225,,,A,V*12
$GNGGA,130004.00,4843.2028,N,00920.55599,E,1,12,0.51,249.2,M,47.6,M,,*40
$GPGSV,3,1,12,04,03,342,,05,05,102,,11,21,043,45,12,21,103,47,1*60
$GPGSV,3,2,12,18,20,178,41,20,15,068,41,25,60,103,44,26,22,293,42,1*62
$GPGSV,3,3,12,28,58,266,,29,86,220,38,31,43,299,42,32,05,232,,1*6A
$GLGSV,3,1,09,68,12,304,38,69,11,351,45,76,47,119,48,77,78,347,,1*73
$GLGSV,3,2,09,78,19,313,36,85,04,029,13,86,55,050,43,87,64,173,41,1*72
$GLGSV,3,3,09,88,09,202,40,1*4C
$GAGSV,3,1,12,02,15,287,,03,20,260,,05,03,214,,08,18,312,,7*7C
$GAGSV,3,2,12,10,49,123,44,11,35,158,40,12,48,084,38,16,82,050,30,7*70
$GAGSV,3,3,12,24,56,095,46,25,66,300,36,31,06,103,38,33,14,033,33,7*72
$GBGSV,3,1,11,02,00,102,,05,16,124,39,08,20,077,44,10,04,072,34,1*77
$GBGSV,3,2,11,13,19,085,42,14,02,330,,17,12,128,,26,19,307,37,1*73
$GNRMC,130005.00,A,4843.26026,N,00920.55600,E,0.024,,080225,,,A,V*1E
$GNGGA,130005.00,4843.26026,N,00920.55600,E,1,12,0.51,249.2,M,47.6,M,,*4C
$GPGSV,3,1,12,04,03,342,,05,05,102,,11,21,043,45,12,21,103,47,1*60
$GPGSV,3,2,12,18,20,178,41,20,15,068,41,25,60,103,44,26,22,293,42,1*62
$GPGSV,3,3,12,28,58,266,29,86,220,38,31,43,299,42,32,05,232,,1*6A
$GLGSV,3,1,09,68,12,304,38,69,11,351,45,76,47,119,48,77,78,347,,1*73
$GLGSV,3,2,09,78,19,313,35,85,04,029,15,86,55,050,44,87,64,173,45,1*74
$GLGSV,3,3,09,88,09,202,40,1*4C
$GAGSV,3,1,12,02,15,287,,03,20,260,,05,03,214,,08,18,312,,7*7C
$GAGSV,3,2,12,10,49,123,44,11,35,158,41,12,48,084,39,16,82,050,29,7*78
$GAGSV,3,3,12,24,56,095,46,25,66,300,36,31,06,103,38,33,14,033,32,7*73
$GBGSV,3,1,11,02,00,102,,05,16,124,39,08,20,077,44,10,04,072,34,1*77
$GBGSV,3,2,11,13,19,085,42,14,02,330,,17,12,128,,26,19,307,37,1*73
$GNRMC,130006.00,A,4843.26025,N,00920.55601,E,0.007,,080225,,,A,V*1E
$GNGGA,130006.00,4843.26025,N,00920.55601,E,1,12,0.51,249.2,M,47.6,M,,*4D
$GPGSV,3,1,12,04,03,342,,05,05,102,,11,21,043,45,12,21,103,47,1*60
$GPGSV,3,2,12,18,20,178,41,20,15,068,41,25,60,103,43,26,22,293,42,1*65
$GPGSV,3,3,12,28,58,266,,29,86,220,35,31,43,299,42,32,05,232,,1*67
$GLGSV,3,1,09,68,12,304,38,69,11,351,45,76,47,119,48,77,78,347,,1*73
$GLGSV,3,2,09,78,19,313,35,85,04,029,08,86,55,050,46,87,64,173,45,1*7A
$GLGSV,3,3,09,88,09,202,40,1*4C
$GAGSV,3,1,12,02,15,287,,03,20,260,,05,03,214,,08,18,312,,7*7C
$GAGSV,3,2,12,10,49,123,44,11,35,158,41,12,48,084,38,16,82,050,30,7*71
$GAGSV,3,3,12,24,56,095,46,25,66,300,36,31,06,103,38,33,14,033,33,7*72
$GBGSV,3,1,11,02,00,102,,05,16,124,39,08,20,077,44,10,04,072,34,1*77
$GNRMC,130007.00,A,4843.26023,N,00920.55602,E,0.014,,080225,,,A,V*18
$GNGGA,130007.00,4843.26023,N,00920.55602,E,1,12,0.51,249.2,M,47.6,M,,*49
$GPGSV,3,1,12,04,03,342,,05,05,102,,11,21,043,45,12,21,103,47,1*60
$GPGSV,3,2,12,18,20,178,42,20,15,068,41,25,60,103,44,26,22,293,42,1*61
$GPGSV,3,3,12,8,58,266,,29,86,220,38,31,43,299,42,32,05,232,,1*6A
$GLGSV,3,1,09,68,12,304,37,69,11,351,45,76,47,119,49,77,78,347,,1*7D
$GLGSV,3,2,09,78,19,313,35,85,04,029,12,86,55,050,43,87,64,173,41,1*70
$GLGSV,3,3,09,88,09,202,39,1*42
$GAGSV,3,1,12,02,15,287,,03,20,260,,05,03,214,,08,18,312,,7*7C
$GAGSV,3,2,12,10,49,123,43,11,35,158,39,12,48,084,38,16,82,050,34,7*7D
$GAGSV,3,3,12,24,56,095,43,25,66,300,37,31,06,103,39,33,14,033,32,7*76
$GBGSV,3,1,11,02,00,102,,05,16,124,39,08,20,077,44,10,04,073,34,1*76
$GNRMC,130008.00,A,4843.26022,N,00920.55603,E,0.019,,080225,,,A,V*1A
$GNGGA,130008.00,4843.26022,N,00920.55603,E,1,12,0.51,249.2,M,47.6,M,,*46
$GPGSV,3,1,12,04,03,342,,05,05,102,,11,21,043,45,12,21,103,47,1*60
$GPGSV,3,2,12,18,20,178,41,20,15,068,41,25,60,103,44,26,22,293,42,1*62
$GPGSV,3,3,12,28,58,266,,29,86,220,36,31,43,299,42,32,05,232,,1*64
$GLGSV,3,1,09,68,12,304,38,69,11,351,45,76,47,119,48,77,78,347,,1*73
$GLGSV,3,2,09,78,19,313,35,85,04,029,11,86,55,050,45,87,64,173,41,1*75
$GLGSV,3,3,09,88,09,202,39,1*42
$GAGSV,3,1,12,02,15,287,,03,20,260,,05,03,214,,08,18,312,,7*7C
$GAGSV,3,2,12,10,49,123,44,11,35,158,39,12,48,084,39,16,82,050,30,7*7F
$GAGSV,3,3,12,24,56,095,45,25,66,300,36,31,06,103,39,33,14,033,33,7*70
$GBGSV,3,1,11,02,00,102,,05,16,124,39,08,20,077,44,10,04,073,34,1*76
$GBGSV,3,2,11,13,19,085,42,14,02330,,17,12,128,,26,19,307,38,1*7C
$GNRMC,130009.00,A,4843.26019,N,00920.55604,E,0.045,,080225,,,A,V*1D
$GNGGA,130009.00,4843.26019,N,00920.55604,E,1,12,0.51,249.2,M,47.6,M,,*48
$GPGSV,3,1,12,04,03,342,,05,05,102,,11,21,043,45,12,21,103,46,1*61
$GPGSV,3,2,12,18,20,178,39,20,15,068,42,5,60,103,42,26,22,293,42,1*68
$GPGSV,3,3,12,28,58,266,,29,86,220,35,31,43,299,42,32,05,232,,1*67
$GLGSV,3,1,09,68,12,304,37,69,11,351,45,76,47,119,49,77,78,347,,1*7D
$GLGSV,3,2,09,78,19,313,35,85,04,029,11,86,55,050,44,87,64,173,44,1*71
$GLGSV,3,3,09,88,09,202,38,1*43
$GAGSV,3,1,12,02,15,287,,03,20,260,,05,03,214,,08,18,312,,7*7C
$GAGSV,3,2,12,10,49,123,44,11,35,158,41,12,48,084,39,16,82,050,31,7*71
$GAGSV,3,3,12,24,56,095,47,25,66,300,36,31,06,103,38,33,14,033,33,7*73
$GBGSV,3,1,11,02,00,102,,05,16,124,39,08,20,077,44,10,04,073,34,1*76
$GBGSV,3,3,11,27,04,044,,29,63,189,44,30,51,061,43,1*4E
$GNRMC,130010.00,A,4843.26018,N,00920.55605,E,0.007,,080225,,,A,V*13
$GNGGA,130010.00,4843.26018,N,00920.55605,E,1,12,0.51,249.2,M,47.6,M,,*40
$GPGSV,3,1,12,04,03,342,,05,05,102,,11,21,043,45,12,21,103,46,1*61
$GPGSV,3,2,12,18,20,178,40,20,15,068,42,25,60,103,42,26,22,293,42,1*66
$GPGSV,3,3,12,28,58,266,,29,86,220,38,31,43,299,42,32,05,232,,1*6A
$GLGSV,3,1,09,68,12,303,37,69,11,351,44,76,47,120,50,77,78,347,,1*79
$GLGSV,3,2,09,78,19,313,36,85,04,029,13,86,55,050,42,87,65,172,39,1*7C
$GLGSV,3,3,09,88,10,202,38,1*4B
$GAGSV,3,1,12,02,15,287,,03,20,260,,05,03,214,,08,18,312,,7*7C
$GAGSV,3,2,12,10,49,123,44,11,35,158,40,12,48,084,36,16,82,050,31,7*7F
$GAGSV,3,3,12,24,56,095,47,25,66,300,37,31,06,103,38,33,14,033,33,7*72
$GBGSV,3,1,11,02,00,102,,05,16,124,39,08,20,077,44,10,04,073,35,1*77
$GNRMC,130011.00,A,4843.26017,N,00920.55607,E,0.037,,080225,,,A,V*1C
$GNGGA,130011.00,4843.26017,N,00920.55607,E,1,12,0.51,249.2,M,47.6,M,,*4C
$GPGSV,3,1,12,04,03,342,,05,05,102,,11,21,043,45,12,21,103,46,1*61
$GPGSV,3,2,12,18,20,178,40,20,15,068,42,25,60,103,44,26,22,293,42,1*60
$GPGSV,3,3,12,28,58,266,,29,86,220,38,31,43,299,42,32,05,232,,1*6A
$GLGSV,3,1,09,68,12,303,37,69,11,351,44,76,47,120,49,77,78,347,,1*71
$GLGSV,3,2,09,78,19,313,35,5,04,029,12,86,55,050,44,87,65,172,41,1*77
$GLGSV,3,3,09,88,10,202,38,1*4B
$GAGSV,3,1,12,02,15,287,,03,20,260,,05,03,214,,08,18,312,,7*7C
$GAGSV,3,2,12,10,49,123,46,11,35,158,41,12,48,084,36,16,82,050,32,7*7F
$GAGSV,3,3,12,24,56,095,45,25,66,300,36,31,06,103,39,33,14,033,33,7*70
$GBGSV,3,1,11,02,00,102,,05,16,124,39,08,20,077,44,10,04,073,35,1*77
$GBGSV,3,2,11,13,19,085,42,14,02,330,,17,12,128,,26,19,307,37,1*73
$GNRMC,130012.00,A,4843.26015,N,00920.55610,E,0.029,,080225,,,A,V*14
$GNGGA,130012.00,4843.26015,N,00920.55610,E,1,12,0.51,249.1,M,47.6,M,,*48
$GPGSV,3,1,12,04,03,342,,05,05,102,,11,21,043,45,12,21,103,46,1*61
$GPGSV,3,2,12,18,20,178,40,20,15,068,42,25,60,103,46,26,22,293,41,1*61
$GPGSV,3,3,12,28,58,266,,29,86,220,37,31,43,299,42,32,05,232,,1*65
$GLGSV,3,1,09,68,12,303,36,69,11,351,44,76,47,120,49,77,78,347,,1*70
$GLGSV,3,2,09,78,19,313,36,85,04,029,12,86,55,050,44,87,65,172,44,1*71
$GLGSV,3,3,09,88,10,202,38,1*4B
$GAGSV,3,1,12,02,15,287,,03,20,260,,05,03,214,,08,18,312,,7*7C
$GAGSV,3,2,12,10,49,123,44,11,35,158,40,12,48,084,36,16,82,050,31,7*7F
$GAGSV,3,3,12,24,56,095,46,25,66,300,36,31,06,103,39,33,14,033,32,7*72
$GBGSV,3,1,11,02,00,102,,05,16,124,39,08,20,077,44,10,04,073,35,1*77
$GBGSV,3,2,11,13,19,085,42,14,02,330,,17,12,128,,26,19,307,37,1*73
$GNRMC,130013.00,A,4843.26013,N,00920.55611,E,0.033,,080225,,,A,V*19
$GNGGA,130013.00,4843.26013,N,00920.55611,E,1,12,0.51,249.1,M,47.6,M,,*4E
$GPGSV,3,1,12,04,03,342,,05,05,102,,11,21,043,45,12,21,103,45,1*62
$GPGSV,3,2,12,18,20,178,41,20,15,068,42,25,60,103,46,26,22,293,42,1*63
$GPGSV,3,3,12,28,58,266,,29,86,220,38,31,43,299,42,32,05,232,,1*6A
$GLGSV,3,1,09,68,12,303,36,69,11,351,44,76,47,120,50,77,78,347,,1*78
$GLGSV,3,2,09,78,19,313,36,85,04,029,13,86,55,050,44,87,65,172,42,1*76
$GLGSV,3,3,09,88,10,202,38,1*4B
$GAGSV,3,1,12,02,15,287,,03,20,260,,05,03,214,,08,18,312,,7*7C
$GAGSV,3,2,12,10,49,123,45,11,35,158,39,12,48084,36,16,82,05,30,7*71
$GAGSV,3,3,12,24,56,095,47,25,66,300,36,31,06,103,39,33,14,033,33,7*72
$GBGSV,3,1,11,02,00,102,,05,16,124,39,08,20,077,44,10,04,073,35,1*77
$GBGSV,3,2,11,13,19,085,42,14,02,330,,17,12,129,,26,19,307,37,1*72
$GNRMC,130014.00,A,4843.26011,N,00920.55612,E,0.042,,080225,,,A,V*19
$GNGGA,130014.00,4843.26011,N,00920.55612,E,1,12,0.51,249.1,M,47.6,M,,*48
$GPGSV,3,1,12,04,03,342,,05,05,102,,11,21,043,45,12,21,103,45,1*62
$GPGSV,3,2,12,18,20,178,41,20,15,068,42,25,60,103,44,26,22,293,41,1*62
$GPGSV,3,3,12,28,58,266,,29,86,220,38,31,43,299,42,32,05,232,,1*6A
$GLGSV,3,1,09,68,12,303,35,69,11,351,44,76,47,120,49,77,78,347,,1*73
$GLGSV,3,2,09,78,19,313,35,85,04,029,13,86,55,050,42,87,65,172,42,1*73
$GLGSV,3,3,09,88,10,202,39,1*4A
$GAGSV,3,1,12,02,15,287,,03,20,260,,05,03,214,,08,18,312,,7*7C
$GAGSV,3,2,12,10,49,123,45,11,35,158,41,12,48,084,37,16,82,050,30,7*7F
$GAGSV,3,3,12,24,56,095,46,25,66,300,36,31,06,103,40,33,14,033,33,7*7D
$GBGSV,3,1,11,02,00,102,,05,16,124,38,08,20,077,44,10,04,073,35,1*76
$GBGSV,3,2,11,13,19,085,42,14,02,330,,17,12,129,,26,19,307,37,1*72
$GNRMC,130015.00,A,4843.26010,N,00920.55613,E,0.003,,080225,,,A,V*1D
$GNGGA,130015.00,4843.26010,N,00920.55613,E,1,12,0.51,249.1,M,47.6,M,,*49
$GPGSV,3,1,12,04,03,342,,05,05,102,,11,21,043,45,12,21,103,44,1*63
$GPGSV,3,2,12,18,20,178,41,20,15,068,42,25,60,103,44,26,22,293,41,1*62
$GPGSV,3,3,12,28,58,266,,29,86,220,38,31,43,299,42,32,05,232,,1*6A
$GLGSV,3,1,09,68,12,303,35,69,11,351,44,76,47,120,48,77,78,347,,1*72
$GLGSV,3,2,09,78,19,313,35,85,04,029,12,86,55,050,44,87,65,172,44,1*72
$GLGSV,3,3,09,88,10,202,39,1*4A
$GAGSV,3,1,12,02,15,287,,03,20,260,,05,03,214,,08,18,312,,7*7C
$GAGSV,3,2,12,10,49,123,44,11,35,158,41,12,48,084,37,16,82,050,29,7*76
$GAGSV,3,3,12,24,56,095,45,25,66,300,36,31,06,103,40,33,14,033,33,7*7E
$GBGSV,3,1,11,02,00,102,,05,16,124,39,08,20,077,44,10,04,073,35,1*77
$GNRMC,130016.00,A,4843.26008,N,00920.55614,E,0.012,,080225,,,A,V*10
$GNGGA,130016.00,4843.26008,N,00920.55614,E,1,12,0.51,249.1,M,47.6,M,,*44
$GPGSV,3,1,12,04,03,342,,05,05,102,,11,21,043,46,12,21,103,44,1*60
$GPGSV,3,2,12,18,20,178,41,20,15,068,43,25,60,103,44,26,22,293,41,1*63
$GPGSV,3,3,12,28,58,266,,29,86,220,38,31,43,299,42,32,05,232,,1*6A
$GLGSV,3,1,09,68,12,303,35,69,11,351,44,76,47,120,49,77,78,347,,1*73
$GLGSV,3,2,09,78,19,313,35,85,04,029,12,86,55,050,44,87,65,172,43,1*75
$GLGSV,3,3,09,88,10,202,39,1*4A
$GAGSV,3,1,12,02,15,287,,03,20,260,,05,03,214,,08,18,312,,7*7C
$GAGSV,3,2,12,10,49,123,45,11,35,158,41,12,48,084,34,16,82,050,31,7*7D
$GAGSV,3,3,12,24,56,095,46,25,66,300,36,31,06,103,40,33,14,033,33,7*7D
$GBGSV,3,1,11,02,00,102,,05,16,124,39,08,20,077,44,10,04,073,35,1*77
$GBGSV,3,2,11,13,19,085,42,14,02,330,,17,12,129,,26,20,307,37,1*78
$GNRMC,130017.00,A,4843.26007,N,00920.55614,E,0.026,,080225,,,A,V*19
$GNGGA,130017.00,4843.26007,N,00920.55614,E,1,12,0.51,249.1,M,47.6,M,,*4A
$GPGSV,3,1,12,04,03,342,,05,05,102,,11,21,043,46,12,21,103,44,1*60
$GPGSV,3,2,12,18,20,178,43,20,15,068,43,25,60,103,43,26,22,293,40,1*67
$GPGSV,3,3,12,28,58,266,,29,86,220,35,31,43,299,42,32,05,232,,1*67
$GLGSV,3,1,09,68,12,303,30,69,11,351,44,76,47,120,49,77,78,347,,1*76
$GLGSV,3,2,09,78,19,313,34,85,04,029,14,86,55,050,43,87,65,172,44,1*72
$GLGSV,3,3,09,88,10,202,40,1*44
$GAGSV,3,1,12,02,15,287,,03,20,260,,05,03,214,,08,18,312,,7*7C
$GAGSV,3,2,12,10,49,123,45,11,35,158,41,12,48,084,37,16,82,050,32,7*7D
$GAGSV,3,3,12,24,56,095,46,25,66,300,36,31,06,103,41,33,14,033,33,7*7C
$GBGSV,3,1,11,02,00,102,,05,16,124,40,08,20,077,44,10,04,073,35,1*79
$GBGSV,3,2,11,13,19,085,42,14,02,330,,17,12,129,,26,20,307,40,1*78
$GNRMC,130018.00,A,4843.26007,N,00920.55614,E,0.021,,080225,,,A,V*11
$GNGGA,130018.00,4843.26007,N,00920.55614,E,1,12,0.51,249.1,M,47.6,M,,*45
$GPGSV,3,1,12,04,03,342,,05,05,102,,11,21,043,46,12,21,103,44,1*60
$GPGSV,3,2,12,18,20,178,42,20,15,068,42,25,60,103,43,26,22,293,42,1*65
$GPGSV,3,3,12,28,58,266,,29,86,220,38,31,43,299,42,32,05,232,,1*6A
$GLGSV,3,1,09,68,12,303,36,69,11,351,44,76,47,120,47,77,78,347,,1*7E
$GLGSV,3,2,09,78,19,313,34,85,04,029,13,86,55,050,44,87,65,172,43,1*75
$GLGSV,3,3,09,88,10,202,39,1*4A
$GAGSV,3,1,12,02,15,287,,03,20,260,,05,03,214,,08,18,312,,7*7C
$GAGSV,3,2,12,10,49,123,45,11,35,158,41,12,48,084,37,16,82,050,31,7*7E
$GAGSV,3,3,12,24,56,095,46,25,66,300,37,31,06,103,41,33,14,033,32,7*7C
$GBGSV,3,1,11,02,00,102,,05,16,124,39,08,20,077,44,10,04,073,35,1*77
$GBGSV,3,2,11,13,19,085,42,14,02,330,,17,12,129,,26,20,307,37,1*78
$GNRMC,130019.00,A,4843.26006,N,00920.55615,E,0.001,,080225,,,A,V*12
$GNGGA,130019.00,4843.26006,N,00920.55615,E,1,12,0.51,249.1,M,47.6,M,,*44
$GPGSV,3,1,12,04,03,342,,05,05,102,,11,21,043,46,12,21,103,46,1*62
$GPGSV,3,2,12,18,20,178,42,20,15,068,42,25,60,103,43,26,22,293,41,1*66
$GPGSV,3,3,12,2858,266,,29,86,220,38,31,43,299,42,32,05,232,,1*6A
$GLGSV,3,1,09,68,12,303,37,69,11,351,44,76,47,120,48,77,78,347,,1*70
$GLGSV,3,2,09,78,19,313,34,85,04,029,11,86,55,050,44,87,65,172,44,1*70
$GLGSV,3,3,09,88,10,202,40,1*44
$GAGSV,3,1,12,02,15,287,,03,20,260,,05,03,214,,08,18,312,,7*7C
$GAGSV,3,2,12,10,49,123,43,11,35,158,41,12,48,084,35,16,82,050,32,7*79
$GAGSV,3,3,12,24,56,095,46,25,66,300,36,31,06,103,41,33,14,033,32,7*7D
$GBGSV,3,1,11,02,00,102,,05,16,124,39,08,20,077,44,10,04,073,35,1*77
$GBGSV,3,2,11,13,19,085,42,14,02,330,,17,12,129,,26,20,307,37,1*78
$GNRMC,130020.00,A,4843.26006,N,00920.55614,E,0.033,,080225,,,A,V*18
$GNGGA,130020.00,4843.26006,N,00920.55614,E,1,12,0.51,249.1,M,47.6,M,,*4F
$GPGSV,3,1,12,04,03,342,,05,05,102,,11,21,043,46,12,21,103,46,1*62
$GPGSV,3,2,12,18,20,178,41,20,15,068,42,25,60,103,44,26,22,293,41,1*62
$GPGSV,3,3,12,28,58,266,,29,86,220,38,31,43,299,42,32,05,232,,1*6A
$GLGSV,3,1,09,68,12,303,38,69,11,351,38,76,47,120,48,77,78,347,,1*74
$GLGSV,3,2,09,78,19,313,33,85,04,029,12,86,55,050,45,87,65,172,43,1*72
$GLGSV,3,3,09,88,10,202,40,1*44
$GAGSV,3,1,12,02,15,287,,03,20,260,,05,03,214,,08,18,312,,7*7C
$GAGSV,3,2,12,10,49,123,43,11,35,158,41,12,48,084,35,16,82,050,32,7*79
$GAGSV,3,3,12,24,56,095,45,25,66,300,37,31,06,103,41,33,14,033,33,7*7E
$GBGSV,3,1,11,02,00,102,,05,16,124,39,08,20,077,44,10,04,073,35,1*77
$GNRMC,130021.00,A,4843.26005,N,00920.55613,E,0.027,,080225,,,A,V*18
$GNGGA,130021.00,4843.26005,N,00920.55613,E,1,12,0.51,249.1,M,47.6,M,,*4A
$GPGSV,3,1,12,04,03,342,,05,05,102,,11,21,043,46,12,21,103,44,1*60
$GPGSV,3,2,12,18,20,178,41,20,15,068,42,25,60,103,43,26,22,293,41,1*65
$GPGSV,3,3,12,28,58,266,,29,86,220,33,31,43,299,42,32,05,232,,1*61
$GLGSV,3,1,09,68,12,303,30,69,11,351,44,76,47,120,47,77,78,347,,1*78
$GLGSV,3,2,09,78,19,313,33,85,04,029,13,86,55,050,45,87,65,172,43,1*73
$GLGSV,3,3,09,88,10,202,40,1*44
$GAGSV,3,1,12,02,15,287,,03,20,260,,05,03,214,,08,18,312,,7*7C
$GAGSV,3,2,12,10,49,123,45,11,35,158,41,12,48,084,34,16,82,050,31,7*7D
$GAGSV,3,3,12,24,56,095,45,25,66,300,37,31,06,103,41,33,14,033,32,7*7F
$GBGSV,3,1,11,02,00,102,,05,16,124,39,08,20,077,44,10,04,073,35,1*77
$GBGSV,3,2,11,13,19,085,42,14,02,330,,17,12,129,,26,20,307,38,1*77
$GNRMC,130022.00,A,4843.26004,N,00920.55613,E,0.009,,080225,,,A,V*16
$GNGGA,130022.00,4843.26004,N,00920.55613,E,1,12,0.51,249.1,M,47.6,M,,*48
$GPGSV,3,1,12,04,03,342,,05,05,102,,11,21,043,46,12,21,103,45,1*61
$GPGSV,3,2,12,18,20,178,40,20,15,068,42,25,60,103,41,26,22,293,41,1*66
$GPGSV,3,3,12,28,58,266,,29,86,220,36,31,43,299,42,32,05,232,,1*64
$GLGSV,3,1,09,68,12,303,38,69,11,351,44,76,47,120,48,77,78,347,,1*7F
$GLGSV,3,2,09,78,19,313,34,85,04,029,12,86,55,050,45,87,65,172,44,1*72
$GAGSV,3,1,12,02,15,287,,03,20,260,,05,03,214,,08,18,312,,7*7C
$GNRMC,130023.00,A,4843.26004,N,00920.55613,E,0.033,,080225,,,A,V*1E
$GNGGA,130023.00,4843.26004,N,00920.55613,E,1,12,0.51,249.1,M,47.6,M,,*49
$GPGSV,3,1,12,04,03,342,,05,05,102,,11,21,043,45,12,21,103,45,1*62
$GPGSV,3,2,12,18,20,178,41,20,15,068,42,25,60,103,38,26,22,293,41,1*69
$GPGSV,3,3,12,28,58,266,,29,86,220,37,31,43,299,42,32,05,232,,1*65
$GLGSV,3,1,09,68,12,303,38,69,11,351,44,76,47,120,48,77,78,347,,1*7F
$GLGSV,3,2,09,78,19,313,33,85,04,029,13,86,55,050,45,87,65,172,44,1*74
$GLGSV,3,3,09,88,10,202,41,1*45
$GAGSV,3,1,12,02,15,287,,03,20,260,,05,03,214,,08,18,312,,7*7C
$GAGSV,3,2,12,10,49,123,44,11,35,158,42,12,48,084,33,16,82,050,31,7*78
$GAGSV,3,3,12,24,56,095,44,25,66,300,36,31,06,103,41,33,14,033,34,7*79
$GBGSV,3,1,11,02,00,102,,05,16,124,38,08,20,077,44,10,04,073,35,1*76
$GBGSV,3,2,11,13,19,085,42,14,02,330,,17,12,129,,26,20,307,37,1*78
$GNRMC,130024.00,A,4843.26003,N,00920.55613,E,0.022,,080225,,,A,V*1E
$GNGGA,130024.00,4843.26003,N,00920.55613,E,112,0.51,249.1,M,47.6,M,,*49
$GPGSV,3,1,12,04,03,342,,05,05,102,,11,21,043,45,12,21,103,45,1*62
$GPGSV,3,2,12,18,20,178,42,20,15,068,42,25,60,103,41,26,22,293,41,1*64
$GPGSV,3,3,12,28,58,266,,29,86,220,37,31,43,299,42,32,05,232,,1*65
$GLGSV,3,1,09,68,12,303,39,69,11,351,44,76,47,120,47,77,78,347,,1*71
$GLGSV,3,2,09,78,19,313,33,85,04,029,09,86,55,050,47,87,65,172,43,1*7A
$GLGSV,3,3,09,88,10,202,39,1*4A
$GAGSV,3,1,12,02,15,287,,03,20,260,,05,03,214,,08,18,312,,7*7C
$GAGSV,3,2,12,10,49,123,45,11,35,158,43,12,48,084,37,16,82,050,30,7*7D
$GAGSV,3,3,12,24,56,095,45,25,66,300,36,31,06,103,41,33,14,033,34,7*78
$GBGSV,3,1,11,02,00,102,,05,16,124,39,08,20,077,44,10,04,073,35,1*77
$GBGSV,3,2,11,13,19,085,42,14,02,330,,17,12,129,,26,20,307,37,1*78
$GNRMC,130025.00,A,4843.26001,N,00920.55614,E,0.005,,080225,,,A,V*1F
$GNGGA,130025.00,4843.26001,N,00920.55614,E,1,12,0.51,249.2,M,47.6,M,,*4E
$GPGSV,3,1,12,04,03,342,,05,05,102,,11,21,043,46,12,21,103,45,1*61
$GPGSV,3,2,12,18,20,178,42,20,15,068,41,25,60,103,44,26,22,293,41,1*62
$GPGSV,3,3,12,28,58,266,,29,86,220,37,31,43,299,42,32,05,232,,1*65
$GLGSV,3,1,09,68,12,303,39,69,11,351,45,76,47,120,48,77,78,347,,1*7F
$GLGSV,3,2,09,78,19,313,33,85,04,029,11,86,55,050,45,87,65,172,43,1*71
$GLGSV,3,3,09,88,10,202,39,1*4A
$GAGSV,3,1,12,02,15,287,,03,20,260,,05,03,214,,08,18,312,,7*7C
$GAGSV,3,2,12,10,49,123,44,11,35,158,41,12,48,084,37,16,82,050,30,7*7E
$GAGSV,3,3,12,24,56,095,45,25,66,300,36,31,06,103,41,33,14,033,34,7*78
$GBGSV,3,1,11,02,00,102,,05,16,124,39,08,20,077,44,10,04,073,35,1*77
$GNRMC,130026.00,A,4843.26000,N,00920.55614,E,0.024,,080225,,,A,V*1E
$GNGGA,130026.00,4843.26000,N,00920.55614,E,1,12,0.51,249.2,M,47.6,M,,*4C
$GPGSV,3,1,12,04,03,342,,05,05,102,,11,21,043,45,12,21,103,45,1*62
$GPGSV,3,2,12,18,20,178,42,20,15,068,41,25,60,103,41,26,22,293,41,1*67
$GPGSV,3,3,12,28,58,266,,29,86,220,36,31,43,299,41,32,05,232,,1*67
$GLGSV,3,1,09,68,12,303,40,69,11,351,45,76,47,120,48,77,78,347,,1*71
$GLGSV,3,2,09,78,19,313,33,85,04,029,13,86,55,050,46,87,65,172,44,1*77
$GLGSV,3,3,09,88,10,202,39,1*4A
$GAGSV,3,1,12,02,15,287,,03,20,260,,05,03,214,,08,18,312,,7*7C
$GAGSV,3,2,12,10,49,123,43,11,35,158,42,12,48,084,37,16,82,050,34,7*7E
$GAGSV,3,3,12,24,56,095,46,25,66,300,36,31,06,103,41,33,14,033,33,7*7C
$GBGSV,3,1,11,02,00,102,,05,16,124,39,08,20,077,44,10,04,073,35,1*77
$GBGSV,3,2,11,13,19,085,41,14,02,330,,17,12,129,,26,20,307,38,1*74
$GNRMC,130027.00,A,4843.26000,N,00920.55616,E,0.014,,080225,,,A,V*1E
$GNGGA,130027.00,4843.26000,N,00920.55616,E,1,12,0.51,249.2,M,47.6,M,,*4F
$GPGSV,3,1,12,04,03,342,,05,05,102,,11,21,043,45,12,21,103,45,1*62
$GPGSV,3,2,12,18,20,178,42,20,15,068,40,25,60,103,42,26,22,293,41,1*65
$GPGSV,3,3,12,28,58,266,,29,86,220,39,31,43,299,41,32,05,232,,1*68
$GLGSV,3,1,09,68,12,303,40,69,11,351,45,76,47,120,48,77,78,347,,1*71
$GLGSV,3,2,09,78,19,313,34,85,04,029,11,86,55,050,45,87,65,172,44,1*71
$GLGSV,3,3,09,88,10,202,40,1*44
$GAGSV,3,1,12,02,15,287,,03,20,260,,05,03,214,,08,18,312,,7*7C
$GAGSV,3,2,12,10,49,123,44,11,35,158,42,12,48,084,37,16,82,050,29,7*75
$GAGSV,3,3,12,24,56,095,45,25,66,300,37,31,06,103,42,33,14,033,33,7*7D
$GBGSV,3,1,11,02,00,102,,05,16,124,39,08,20,077,44,10,04,073,35,1*77
$GBGSV,3,2,11,13,19,085,41,14,02,330,,17,12,129,,26,20,307,38,1*74
$GNRMC,130028.00,A,4843.25999,N,00920.55617,E,0.009,,080225,,,A,V*16
$GNGGA,130028.00,4843.25999,N,00920.55617,E,1,12,0.51,249.3,M,47.6,M,,*4A
$GPGSV,3,1,12,04,03,342,,05,05,102,,11,21,043,45,12,21,103,44,1*63
$GPGSV,3,2,12,18,20,178,41,20,15,068,40,25,60,103,43,26,22,293,41,1*67
$GPGSV,3,3,12,28,58,266,,29,86,220,39,31,43,299,41,32,05,232,,1*68
$GLGSV,3,1,09,68,12,303,40,69,11,351,45,76,47,120,47,77,78,347,,1*7E
$GLGSV,3,2,09,78,19,313,34,85,04,029,13,86,55,050,45,87,65,172,44,1*73
$GLGSV,3,3,09,88,10,202,39,1*4A
$GAGSV,3,1,12,02,15,287,,03,20,260,,05,03,214,,08,18,312,,7*7C
$GAGSV,3,2,12,10,49,123,44,11,35,158,42,12,48,084,37,16,82,050,29,7*75
$GAGSV,3,3,12,24,56,095,45,25,66,300,37,31,06,103,42,33,14,033,33,7*7D
$GBGSV,3,1,11,02,00,102,,05,16,124,39,08,20,077,44,10,04,073,35,1*77
$GBGSV,3,2,11,13,19,085,41,14,02,330,,17,12,129,,26,20,307,38,1*74
$GBGSV,3,3,11,27,04,044,,29,64,189,44,30,50,061,45,1*4E
$GNRMC,130029.00,A,4843.25998,N,00920.55618,E,0.023,,08025,,,A,V*11
$GNGGA,130029.00,4843.25998,N,00920.55618,E,1,12,0.51,249.3,M,47.6,M,,*45
$GPGSV,3,1,12,04,03,342,,05,05,102,,11,21,043,45,12,21,103,44,1*63
$GPGSV,3,2,12,18,20,178,42,20,15,068,40,25,60,103,43,26,22,293,41,1*64
$GPGSV,3,3,12,28,58,266,,29,86,220,39,31,43,299,40,32,05,232,,1*69
$GLGSV,3,1,09,68,12,303,40,69,11,351,45,76,47,120,48,77,78,347,,1*71
$GLGSV,3,2,09,78,19,313,33,85,04,029,13,86,55,050,45,87,65,172,44,1*74
$GLGSV,3,3,09,88,10,202,40,1*44
$GAGSV,3,1,12,02,15,287,,03,20,260,,05,03,214,,08,18,312,,7*7C
$GAGSV,3,2,12,10,49,123,44,11,35,158,43,12,48,084,38,16,82,050,34,7*77
$GAGSV,3,3,12,24,56,095,46,25,66,300,36,31,06,103,42,33,14,033,33,7*7F
$GBGSV,3,1,11,02,00,102,,05,16,124,39,08,20,077,44,10,04,073,34,1*76
$GNRMC,130030.00,A,4843.25997,N,00920.55618,E,0.014,,080225,,,A,V*12
$GNGGA,130030.00,4843.25997,N,00920.55618,E,1,12,0.51,249.3,M,47.6,M,,*42
$GPGSV,3,1,12,04,03,342,,05,05,102,,11,21,043,45,12,21,103,44,1*63
$GPGSV,3,2,12,18,20,178,42,20,15,068,39,25,60,103,41,26,22,293,41,1*68
$GPGSV,3,3,12,28,58,266,,29,86,220,38,31,43,299,39,32,05,232,,1*66
$GLGSV,3,1,09,68,12,303,40,69,11,351,44,76,47,120,48,77,78,347,,1*70
$GLGSV,3,2,09,78,19,313,33,85,04,029,13,86,55,050,44,87,65,172,46,1*77
$GLGSV,3,3,09,88,10,202,40,1*44
$GAGSV,3,1,12,02,15,287,,03,20,260,,05,03,214,,08,18,312,,7*7C
$GAGSV,3,2,12,10,49,123,44,11,35,158,42,12,48,084,37,16,82,050,34,7*79
$GAGSV,3,3,12,24,56,095,47,25,66,300,36,31,06,103,42,33,14,033,33,7*7E
$GBGSV,3,1,11,02,00,102,,05,16,124,39,08,20,077,44,10,04,073,34,1*76
$GBGSV,3,2,11,13,19,085,41,14,02,330,,17,12,129,,26,20,307,38,1*74
$GNRMC,130031.00,A,4843.25997,N,00920.55617,E,0.022,,080225,,,A,V*19
$GNGGA,130031.00,4843.25997,N,00920.55617,E,1,12,0.51,249.3,M,47.6,M,,*4C
$GPGSV,3,1,12,04,03,342,,05,05,102,,11,21,043,45,12,21,103,44,1*63
$GPGSV,3,2,12,18,20,178,42,20,15,068,39,25,60,103,41,26,22,293,41,1*68
$GPGSV,3,3,12,28,58,266,,29,86,220,39,31,43,299,39,32,05,232,,1*67
$GLGSV,3,1,09,68,12,303,29,69,11,350,45,76,47,120,49,77,78,347,,1*7E
$GLGSV,3,2,09,78,19,313,33,85,04,029,11,86,55,050,44,87,65,172,44,1*77
$GLGSV,3,3,09,88,10,202,40,1*44
$GAGSV,3,1,12,02,15,287,,03,20,260,,05,03,214,,08,18,312,,7*7C
$GAGSV,3,2,12,10,49,123,45,11,35,158,42,12,48,084,39,16,82,050,28,7*7B
$GNRMC,130032.00,A,4843.25996,N,00920.55617,E,0.014,,080225,,,A,V*1E
$GNGGA,130032.00,4843.25996,N,00920.55617,E,1,12,0.51,249.3,M,47.6,M,,*4E
$GPGSV,3,1,12,04,03,342,,05,05,102,,11,21,043,45,12,21,103,44,1*63
$GPGSV,3,2,12,18,20,178,42,20,15,068,38,25,60,103,43,26,22,293,41,1*6B
$GPGSV,3,3,12,28,58,266,,29,86,220,38,31,43,299,38,32,05,232,,1*67
$GLGSV,3,1,09,68,12,303,40,69,11,350,45,76,47,120,47,77,78,347,,1*7F
$GLGSV,3,2,09,78,19,313,33,85,04,029,11,86,55,050,45,87,65,172,44,1*76
$GLGSV,3,3,09,88,10,202,40,1*44
$GAGSV,3,1,12,02,15,287,,03,20,260,,05,03,214,,08,18,312,,7*7C
$GAGSV,32,12,10,49,123,42,11,35,158,42,12,48,084,38,16,82,050,29,7*7C
$GAGSV,3,3,12,24,56,095,45,25,66,300,36,31,06,103,42,33,14,033,34,7*7B
$GNRMC,130033.00,A,4843.25995,N,00920.55617,E,0.007,,080225,,,A,V*1E
$GNGGA,130033.00,4843.25995,N,00920.55617,E,1,12,0.51,249.3,M,47.6,M,,*4C
$GPGSV,3,1,12,04,03,342,,05,05,102,,11,21,043,44,12,21,103,43,1*65
$GPGSV,3,2,12,18,20,178,43,20,15,068,39,25,60,103,44,26,22,293,41,1*6C
$GPGSV,3,3,12,28,58,266,,29,86,220,40,31,43,299,38,32,05,232,,1*68
$GLGSV,3,1,09,68,12,303,40,69,11,350,45,76,47,120,47,77,78,347,,1*7F
$GLGSV,3,2,09,78,19,313,33,85,04,029,11,86,55,050,44,87,65,172,46,1*75
$GLGSV,3,3,09,88,10,202,40,1*44
$GAGSV,3,1,12,02,15,287,,03,20,260,,05,03,214,,08,18,312,,7*7C
$GAGSV,3,2,12,10,49,123,45,11,35,158,43,12,48,084,35,16,82,050,30,7*7F
$GAGSV,3,3,12,24,56,095,46,25,66,300,36,31,06,103,41,33,14,033,33,7*7C
$GBGSV,3,1,11,02,00,102,,05,16,124,38,08,20,077,44,10,04,073,34,1*77
$GBGSV,3,2,11,13,19,085,41,14,02,330,,17,12,129,,26,20,307,39,1*75
$GNRMC,130034.00,A,4843.25995,N,00920.55618,E,0.012,,080225,,,A,V*12
$GNGGA,130034.00,4843.25995,N,00920.55618,E,1,12,0.51,249.2,M,47.6,M,,*45
$GPGSV,3,1,12,04,03,342,,05,05,102,,11,21,043,44,12,21,103,43,1*65
$GPGSV,3,2,12,18,20,178,43,20,15,068,38,25,60,103,44,26,22,293,41,1*6D
$GPGSV,3,3,12,28,58,266,,29,86,220,42,31,43,299,38,32,05,232,,1*6A
$GLGSV,3,1,09,68,12,303,40,69,11,350,45,76,47,120,47,77,78,347,,1*7F
$GLGSV,3,2,09,78,19,313,33,85,04,029,11,86,55,050,43,87,65,172,48,1*7C
$GLGSV,3,3,09,88,10,202,41,1*45
$GAGSV,3,1,12,02,15,287,,03,20,260,,05,03,214,,08,18,312,,7*7C
$GAGSV,3,2,12,10,49,123,44,11,35,158,44,12,48,084,36,16,82,050,29,7*72
$GAGSV,3,3,12,24,56,095,46,25,66,300,36,31,06,103,41,33,14,033,33,7*7C
$GBGSV,3,1,11,02,00,102,,05,16,124,39,08,20,077,44,10,04,073,34,1*76
$GNRMC,130035.00,A,4843.25994,N,00920.55618,E,0.007,,080225,,,A,V*16
$GNGGA,130035.00,4843.25994,N,00920.55618,E,1,12,0.51,249.2,M,47.6,M,,*45
$GPGSV,3,1,12,04,03,342,,05,05,102,,11,21,043,45,12,21,103,43,1*64
$GPGSV,3,2,12,18,20,178,42,20,15,068,38,25,60,103,43,26,22,293,41,1*6B
$GPGSV,3,3,12,28,58,266,,29,86,220,40,31,43,299,38,32,05,232,,1*68
$GLGSV,3,1,09,68,12,303,40,69,11,350,45,76,47,120,48,77,78,347,,1*70
$GLGSV,3,3,09,88,10,202,41,1*45
$GAGSV,3,1,12,02,15,287,,03,20,260,,05,03,214,,08,18,312,,7*7C
$GAGSV,3,2,12,10,49,123,44,11,35,158,42,12,48,084,38,16,82,050,29,7*7A
$GAGSV,3,3,12,24,56,095,45,25,66,300,36,31,06,103,41,33,14,033,34,7*78
$GBGSV,3,1,11,02,00,102,,05,16,124,39,08,20,077,44,10,04,073,34,1*76
$GBGSV,3,2,11,13,19,085,41,14,02,330,,17,12,129,,26,20,307,39,1*75
$GNRMC,130036.00,A,4843.25993,N,00920.55619,E,0.005,,080225,,,A,V*11
$GNGGA,130036.00,4843.25993,N,00920.55619,E,1,12,0.51,249.2,M,47.6,M,,*40
$GPGSV,3,1,12,04,03,342,,05,05,102,,11,21,043,45,12,21,103,43,1*64
$GPGSV,3,2,12,18,20,178,42,20,15,068,38,25,60,103,44,26,22,293,41,1*6C
$GPGSV,3,3,12,28,58,266,,29,86,220,40,31,43,299,38,32,05,232,,1*68
$GLGSV,3,1,09,68,12,303,40,69,11,350,46,76,47,120,48,77,78,347,,1*73
$GLGSV,3,2,09,78,19,313,34,85,04,029,12,86,55,050,45,87,65,172,44,1*72
$GLGSV,3,3,09,88,10,202,40,1*44
$GAGSV,3,1,12,02,15,287,,03,20,260,,05,03,214,,08,18,312,,7*7C
$GAGSV,3,2,12,10,49,123,43,11,35,158,42,12,48,084,37,16,82,050,29,7*72
$GAGSV,3,3,12,24,56,095,45,25,66,300,36,31,06,103,41,33,14,033,33,7*7F
$GBGSV,3,1,11,02,00,102,,05,16,124,39,08,20,077,44,10,04,073,33,1*71
$GBGSV,3,2,11,13,19,085,40,14,02,330,,17,12,129,,26,20,307,39,1*74
$GNRMC,130037.00,A,4843.25992,N,00920.55619,E,0.005,,080225,,,A,V*11
$GNGGA,130037.00,4843.25992,N,00920.55619,E,1,12,0.51,249.2,M,47.6,M,,*40
$GPGSV,3,1,12,04,03,342,,05,05,102,,11,21,043,44,12,21,103,43,1*65
$GPGSV,3,2,12,18,20,178,42,20,15,068,39,25,60,103,45,26,22,293,41,1*6C
$GPGSV,3,3,12,28,58,266,,29,86,220,41,31,43,299,38,32,05,232,,1*69
$GLGSV,3,1,09,68,12,303,40,69,11,350,46,76,47,120,48,77,78,347,,1*73
$GLGSV,3,2,09,78,19,313,34,85,04,029,10,86,55,050,44,87,65,172,45,1*70
$GLGSV,3,3,09,88,10,202,40,1*44
$GAGSV,3,1,12,02,15,287,,03,20,260,,05,03,214,,08,18,312,,7*7C
$GAGSV,3,2,12,10,49,123,44,11,35,158,44,12,48,084,37,16,82,050,34,7*7F
$GAGSV,3,3,12,24,56,095,45,25,66,300,36,31,06,103,41,33,14,033,34,7*78
$GBGSV,3,1,11,02,00,102,,05,16,124,39,08,20,077,44,10,04,073,34,1*76
$GBGSV,3,2,11,13,19,085,40,14,02,330,,17,12,129,,26,20,307,39,1*74
$GNRMC,130038.00,A,4843.25992,N,00920.55620,E,0.009,,080225,,,A,V*18
$GNGGA,130038.00,4843.25992,N,00920.55620,E,1,12,0.51,249.1,M,47.6,M,,*46
$GPGSV,3,1,12,04,03,342,,05,05,102,,11,21,043,44,12,21,103,43,1*65
$GPGSV,3,2,12,18,20,178,42,20,15,068,39,25,60,103,44,26,22,293,41,1*6D
$GPGSV,3,3,12,28,58,266,,29,86,220,41,31,43,299,38,32,05,232,,1*69
$GLGSV,3,1,09,68,12,303,40,69,11,350,46,76,47,120,47,77,78,347,,1*7C
$GLGSV,3,2,09,78,19,313,35,85,04,029,12,86,55,050,43,87,65,172,46,1*77
$GLGSV,3,3,09,88,10,202,40,1*44
$GAGSV,3,1,12,02,15,287,,03,20,260,,05,03,214,,08,18,312,,7*7C
$GAGSV,3,2,12,10,49,123,45,11,35,158,42,12,48,084,37,16,82,050,26,7*7B
$GAGSV,3,3,12,24,56,095,43,25,66,300,35,31,06,103,40,33,14,033,34,7*7C
$GBGSV,3,1,11,02,00,102,,05,16,124,39,08,20,077,44,10,04,073,33,1*71
$GBGSV,3,2,11,13,19,085,41,14,02,330,,17,12,129,,26,20,307,39,1*75
$GNRMC,130039.00,A,4843.25991,N,00920.55620,E,0.012,,080225,,,A,V*10
$GNGGA,130039.00,4843.25991,N,00920.55620,E,1,12,0.51,249.1,M,47.6,M,,*44
$GPGSV,3,1,12,04,03,342,,05,05,102,,11,21,043,44,12,21,103,43,1*65
$GPGSV,3,2,12,18,2,178,43,20,15,068,40,25,60,103,45,26,22,293,41,1*63
$GPGSV,3,3,12,28,58,266,,29,86,220,41,31,43,299,39,32,05,232,,1*68
$GLGSV,3,1,09,68,12,303,40,69,11,350,46,76,47,120,47,77,79,350,,1*7B
$GLGSV,3,2,09,78,19,313,35,85,04,029,12,86,55,050,43,87,65,172,45,1*74
$GLGSV,3,3,09,88,10,202,41,1*45
$GAGSV,3,1,12,02,15,287,,03,20,260,,05,03,214,,08,18,312,,7*7C
$GAGSV,3,2,12,10,49,123,45,11,35,158,42,12,48,084,37,16,82,050,26,7*7B
$GAGSV,3,3,12,24,56,095,43,25,66,300,35,31,06,103,40,33,14,033,34,7*7C
$GBGSV,3,1,11,02,0,102,,05,16,124,38,08,20,077,44,10,04,073,33,1*70
$GBGSV,3,2,11,13,19,085,41,14,02,330,,17,12,129,,26,20,307,39,1*75
$GNRMC,130040.00,A,4843.25991,N,00920.55620,E,0.016,,080225,,,A,V*1A
$GNGGA,130040.00,4843.25991,N,00920.55620,E,1,12,0.51,249.0,M,47.6,M,,*4B
$GPGSV,3,1,12,04,03,342,,05,05,102,,11,21,043,44,12,21,103,43,1*65
$GPGSV,3,2,12,18,20,178,43,20,15,068,40,25,60,103,46,26,22,293,41,1*60
$GPGSV,3,3,12,28,58,266,,29,86,220,40,31,43,299,39,32,05,232,,1*69
$GLGSV,,1,09,68,12,303,40,69,11,350,45,76,47,120,48,77,79,350,,1*77
$GLGSV,3,2,09,78,20,313,35,85,04,029,13,86,55,050,45,87,65,172,46,1*7A
$GLGSV,3,3,09,88,10,202,41,1*45
$GAGSV,3,1,12,02,15,287,,03,20,260,,05,03,214,,08,18,312,,7*7C
$GAGSV,3,2,12,10,49,123,44,11,35,158,43,12,48,084,37,16,8,050,27,7*7A
$GAGSV,3,3,12,24,56,095,45,25,66,300,35,31,06,103,40,33,14,033,33,7*7D
$GBGSV,3,1,11,02,00,102,,05,16,124,39,08,20,077,44,10,04,073,33,1*71
$GBGSV,3,2,11,13,19,085,41,14,02,330,,17,12,129,,26,20,307,39,1*75
$GNRMC,130041.00,A,4843.25990,N,00920.55621,E,0.011,,080225,,,A,V*1C
$GNGGA,130041.00,4843.25990,N,00920.55621,E,1,12,0.51,249.0,M,47.6,M,,*4A
$GPGSV,3,1,12,04,03,342,,05,05,102,,11,21,043,44,12,21,103,42,1*64
$GPGSV,3,2,12,18,20,178,43,20,15,068,40,25,60,103,45,26,22,293,41,1*63
$GPGSV,3,3,12,28,58266,,29,86,220,40,31,43,299,39,32,05,232,,1*69
$GLGSV,3,1,09,68,12,303,38,69,11,350,44,76,47,120,50,77,79,350,,1*70
$GLGSV,3,2,09,78,20,313,36,85,04,029,12,86,55,050,43,87,65,172,46,1*7E
$GLGSV,3,3,09,88,10,202,41,1*45
$GAGSV,3,1,12,02,15,287,,03,20,260,,05,03,214,,08,18,312,,7*7C
$GAGSV,3,2,12,10,49,123,45,11,35,158,44,12,48,084,37,16,82,050,25,7*7E
$GAGSV,3,3,12,24,56,095,43,25,66,300,36,31,06,103,40,33,14,033,33,7*78
$GBGSV,3,1,11,02,00,102,,05,16,124,38,08,20,077,44,10,04,073,33,1*70
$GNRMC,130042.00,A,4843.25990,N,00920.55621,E,0.010,,080225,,,A,V*1E
$GNGGA,130042.00,4843.25990,N,00920.55621,E,1,12,0.51,249.0,M,47.6,M,,*49
$GPGSV,3,1,12,04,03,342,,05,05,102,,11,21,043,44,12,21,103,43,1*65
$GPGSV,3,2,12,18,20,178,43,20,15,068,41,25,60,103,44,26,22,293,41,1*63
$GPGSV,3,3,12,28,58,266,,29,86,220,40,31,43,299,39,32,05,232,,1*69
$GLGSV,3,1,09,68,12,303,40,69,11,350,44,76,47,120,51,77,79,350,,1*7E
$GLGSV,3,2,09,78,20,313,36,85,04,029,11,86,55,050,43,87,65,172,45,1*7E
$GLGSV,3,3,09,88,10,202,42,1*46
$GAGSV,3,1,12,02,15,287,,03,20,260,,05,03,214,,08,18,312,,7*7C
$GAGSV,3,2,12,10,49,123,45,11,35,158,42,12,48,084,37,16,82,050,26,7*7B
$GAGSV,3,3,12,24,56,095,43,25,66,300,36,31,06,103,40,33,14,033,34,7*7F
$GBGSV,3,1,11,02,00,102,,05,16,124,38,08,20,077,44,10,04,073,33,1*70
$GBGSV,3,2,11,13,19,085,41,14,02,330,,17,12,129,,26,20,307,39,1*75
$GNRMC,130043.00,A,4843.25989,N,00920.55622,E,0.011,,080225,,,A,V*15
$GNGGA,130043.00,4843.25989,N,00920.55622,E,1,12,0.51,248.9,M,47.6,M,,*4B
$GPGSV,3,1,12,04,03,342,,05,05,102,,11,21,043,44,12,21,103,43,1*65
$GPGSV,3,2,12,18,20,178,43,20,15,068,42,25,60,103,45,26,22,293,41,1*61
$GLGSV,3,1,09,68,12,303,41,69,11,350,44,76,47,120,50,77,79,350,,1*7E
$GLGSV,3,2,09,78,20,313,36,85,04,029,14,86,55,050,44,87,65,172,45,1*7C
$GLGSV,3,3,09,88,10,202,42,1*46
$GAGSV,3,1,12,02,15,287,,03,20,260,,05,03,214,,08,8,312,,7*7C
$GAGSV,3,2,12,10,49,123,45,11,35,158,43,12,48,084,37,16,82,050,32,7*7F
$GAGSV,3,3,2,24,56,095,43,25,66,300,36,31,06,103,39,33,14,033,33,7*76
$GBGSV,3,1,11,02,00,102,,05,16,124,38,08,20,077,44,10,04,073,34,1*77
$GBGSV,3,2,11,13,19,085,41,14,2,330,,17,12,129,,26,20,307,38,1*74
$GNRMC,130044.00,A,4843.25988,N,00920.55623,E,0.035,,080225,,,A,V*14
$GNGGA,130044.00,4843.25988,N,00920.55623,E,1,12,0.51,248.9,M,47.6,M,,*4C
$GPGSV,3,1,12,04,03,342,,05,05,102,,11,21,043,44,12,21,103,43,1*65
$GPGSV,3,2,12,18,20,178,43,20,15,068,42,25,60,103,46,26,22,293,41,1*62
$GPGSV,3,3,12,28,58,266,,29,86,220,39,31,43,299,41,32,05,232,,1*68
$GLGSV,3,1,09,68,12,303,41,69,11,350,33,76,47,120,50,77,79,350,,1*7E
$GLGSV,3,2,09,78,20,313,33,85,04,029,09,86,55,050,43,87,65,172,44,1*73
$GLGSV,3,3,09,88,10,202,41,1*45
$GAGSV,3,1,12,02,15,287,,03,20,260,,05,03,214,,08,18,312,,7*7C
$GAGSV,3,2,12,10,49,123,44,11,35,158,43,12,48,084,37,16,82,050,26,7*7B
$GAGSV,3,3,12,24,56,095,45,25,66,300,37,31,06,103,39,33,14,033,33,7*71
$GBGSV,3,1,11,02,00,102,,05,16,124,39,08,20,077,44,10,04,073,33,1*71
$GBGSV,3,2,11,13,19,085,41,14,02,330,,17,12,129,,26,20,307,37,1*7B
$GNRMC,130045.00,A,4843.25988,N,00920.55623,E,0.007,,080225,,,A,V*14
$GNGGA,130045.00,4843.25988,N,00920.55623,E,1,12,0.51,248.9,M,47.6,M,,*4D
$GPGSV,3,2,12,18,20,178,44,20,15,068,43,25,60,103,45,26,22,293,41,1*67
$GPGSV,3,3,12,28,58,266,,29,86,220,37,31,43,299,40,32,05,232,,1*67
$GLGSV,3,1,09,68,12,303,41,69,11,350,46,76,47,120,50,77,79,350,,1*7C
$GLGSV,3,2,09,78,20,313,37,85,04,029,13,86,55,050,42,87,65,172,44,1*7D
$GLGSV,3,3,09,88,10,202,42,1*46
$GAGSV,3,1,12,02,15,287,,03,20,260,,05,03,214,,08,18,312,,7*7C
$GAGSV,3,2,12,10,49,123,45,11,35,158,43,12,48,084,38,16,82,050,27,7*74
$GAGSV,3,3,12,24,56,095,44,25,66,300,37,31,06,103,40,33,14,033,33,7*7E
$GBGSV,3,1,11,02,00,102,,05,16,124,39,08,20,077,44,10,04,073,33,1*71
$GNRMC,130046.00,A,4843.25987,N,00920.55624,E,0.010,,080225,,,A,V*19
$GNGGA,130046.00,4843.25987,N,00920.55624,E,1,12,0.51,248.9,M,47.6,M,,*46
$GPGSV,3,1,12,04,03,342,,05,05,102,,11,21,043,44,12,21,103,44,1*62
$GPGSV,3,2,12,18,20,178,44,20,15,068,43,25,60,103,44,26,22,293,41,1*66
$GPGSV,3,3,12,28,58,266,,2986,220,40,31,43,299,41,32,05,232,,1*66
$GLGSV,3,1,09,68,12,303,41,69,11,350,42,76,47,120,50,77,79,350,,1*78
$GLGSV,3,2,09,78,20,313,36,85,04,029,13,86,55,050,41,87,65,172,45,1*7E
$GLGSV,3,3,09,88,10,202,42,1*46
$GAGSV,3,1,12,02,15,287,,03,20,260,,05,03,214,,08,18,312,,7*7C
$GAGSV,3,2,12,10,49,123,44,11,35,158,42,12,48,084,38,16,82,050,28,7*7B
$GAGSV,3,3,12,24,56,095,43,25,66,300,36,31,06,103,40,33,14,033,34,7*7F
$GBGSV,3,1,11,02,00,102,,05,16,124,39,08,20,077,44,10,04,073,34,1*76
$GBGSV,3,2,11,13,19,085,41,14,02,330,,17,12,129,,2620,307,39,1*75
$GNRMC,130047.00,A,4843.25987,N,00920.55624,E,0.011,,080225,,,A,V*19
$GNGGA,130047.00,4843.25987,N,00920.55624,E,1,12,0.51,248.8,M,47.6,M,,*46
$GPGSV,3,1,12,04,03,342,,05,05,102,,11,21,043,44,12,21,103,42,1*64
$GPGSV,3,2,12,18,20,178,44,20,15,068,43,25,60,103,44,26,22,293,39,1*69
$GPGSV,3,3,12,28,58,266,,29,86,220,39,31,43,299,41,32,05,232,,1*68
$GLGSV,3,1,09,68,12,303,41,69,11,350,44,76,47,120,51,77,79,350,,1*7F
$GLGSV,3,2,09,78,20,313,35,85,03,029,12,86,55,050,43,87,65,172,46,1*7A
$GLGSV,3,3,09,88,10,202,42,1*46
$GAGSV,3,1,12,02,15,287,,03,20,260,,05,03,214,,08,18,312,,7*7C
$GAGSV,3,2,12,10,49,123,44,11,35,158,43,12,48,084,38,16,82,050,27,7*75
$GAGSV,3,3,12,24,56,095,43,25,66,300,36,31,06,103,40,33,14,033,34,7*7F
$GBGSV,3,1,11,02,00,102,,05,16,124,38,08,20,077,44,10,04,073,34,1*77
$GBGSV,3,2,11,13,19,085,41,14,02,330,,17,12,129,,26,20,307,39,1*75
$GNRMC,130048.00,A,4843.25986,N,00920.55624,E,0.029,,080225,,,A,V*1C
$GNGGA,130048.00,4843.25986,N,00920.55624,E,1,12,0.51,248.8,M,47.6,M,,*48
$GPGSV,3,1,12,04,03,342,,05,05,102,,11,21,043,44,12,21,103,42,1*64
$GPGSV,3,2,12,18,20,178,43,20,15,068,43,25,60,103,43,26,22,293,40,1*67
$GPGSV,3,3,12,28,58,266,,29,86,220,41,31,43,299,40,32,05,232,,1*66
$GLGSV,3,1,09,68,12,303,40,69,11,350,45,76,47,120,50,77,79,350,,1*7E
$GLGSV,3,2,09,78,20,313,36,85,03,029,14,86,55,049,46,87,65,172,46,1*72
$GLGSV,3,3,09,88,10,202,42,1*46
$GAGSV,3,1,12,02,15,287,,03,20,260,,05,03,214,,08,18,312,,7*7C
$GAGSV,3,2,12,10,49,123,45,11,35,158,44,12,48,084,34,16,82,050,28,7*70
$GAGSV,3,3,12,24,56,095,40,25,66,300,36,31,06,103,40,33,14,033,34,7*7C
$GBGSV,3,1,11,02,00,102,,05,16,124,38,08,20,077,44,10,04,073,34,1*77
$GBGSV,3,2,11,13,19,085,41,14,02,330,,17,12,129,,26,20,307,38,1*74
$GNRMC,130049.00,A,4843.25986,N,00920.55624,E,0.015,,080225,,,A,V*12
$GNGGA,130049.00,4843.25986,N,00920.55624,E,1,12,0.51,248.8,M,47.6,M,,*49
$GPGSV,3,1,12,04,03,342,,05,05,102,,11,21,043,44,12,21,103,43,1*65
$GPGSV,3,2,12,18,20,178,44,20,15,068,44,25,60,103,45,26,22,293,41,1*60
$GPGSV,3,3,12,28,58,266,,29,86,220,38,31,43,299,40,32,05,232,,1*68
$GLGSV,3,1,09,68,12,303,41,69,11,350,40,76,47,120,50,77,79,350,,1*7A
$GLGSV,3,2,09,78,20,313,37,85,03,029,08,86,55,049,44,87,65,172,42,1*78
$GLGSV,3,3,09,88,10,202,42,1*46
$GAGSV,3,1,12,02,15,287,,03,20,260,,05,03,214,,08,18,312,,7*7C
$GAGSV,3,2,12,10,49,123,44,11,35,158,42,12,48,084,40,16,82,050,28,7*74
$GAGSV,3,3,12,2,56,095,43,25,66,300,36,31,06,103,40,33,14,033,33,7*78
$GBGSV,3,1,11,02,00,102,,05,16,124,39,08,20,077,44,10,04,073,33,1*71
$GNRMC,130050.00,A,4843.25987,N,00920.55624,E,0.010,,080225,,,A,V*1E
$GNGGA,130050.00,4843.25987,N,00920.55624,E,1,12,0.51,248.8,M,47.6,M,,*40
$GPGSV,3,1,12,0,03,342,,05,05,102,,11,21,043,44,12,21,103,44,1*62
$GPGSV,3,2,12,18,20,178,43,20,15,068,43,25,60,103,44,26,22,293,40,1*60
$GPGSV,3,3,12,28,58,266,,29,86,220,39,31,43,299,40,32,05,232,,1*69
$GLGSV,3,1,09,68,12,303,41,69,11,350,46,76,47,120,50,77,79,350,,1*7C
$GLGSV,3,2,09,78,20,313,37,85,03,029,10,86,55,049,44,87,65,172,42,1*71
$GLGSV,3,3,09,88,10,202,42,1*46
$GAGSV,3,1,12,02,15,287,,03,20,260,,05,03,214,,08,18,312,,7*7C
$GAGSV,3,2,12,10,49,123,44,11,35,158,42,12,48,084,38,16,82,050,27,7*74
$GAGSV,3,3,12,24,56,095,43,25,66,300,36,31,06,103,41,33,14,033,33,7*79
$GBGSV,3,1,11,02,00,102,,05,16,124,39,08,20,077,44,10,04,073,33,1*71
$GBGSV,3,2,11,13,19,085,41,14,02,330,,17,12,129,,26,20,307,39,1*75
$GNRMC,130051.00,A,4843.25987,N,00920.55624,E,0.016,,080225,,,A,V*19
$GNGGA,130051.00,4843.25987,N,00920.55624,E,1,12,0.51,248.7,M,47.6,M,,*4E
$GPGSV,3,1,12,04,03,342,,05,05,102,,11,21,043,44,12,21,103,44,1*62
$GPGSV,3,2,12,18,20,178,43,20,15,068,44,25,60,103,44,26,22,293,40,1*67
$GPGSV,3,3,12,28,58,266,,29,86,220,40,31,43,299,40,32,05,232,,1*67
$GLGSV,3,1,09,68,12,303,41,69,11,350,45,76,47,120,50,77,79,350,,1*7F
$GLGSV,3,2,09,78,20,313,37,85,03,029,11,86,55,049,43,87,65,172,42,1*77
$GLGSV,3,3,09,88,10,202,42,1*46
$GAGSV,3,1,12,02,15,287,,03,20,260,,05,03,214,,08,18,312,,7*7C
$GAGSV,3,2,12,10,49,123,45,11,35,158,42,12,48,084,38,16,82,050,26,7*74
$GAGSV,3,3,12,24,56,095,42,25,66,300,36,31,06,103,41,33,14,033,33,7*78
$GBGSV,3,1,11,02,00,102,,05,16,124,39,08,20,077,44,10,04,073,34,1*76
$GBGSV,3,2,11,13,19,085,41,14,02,330,,17,12,129,,26,20,307,39,1*75
$GNRMC,130052.00,A,4843.25987,N,00920.55623,E,0.021,,080225,,,A,V*19
$GNGGA,130052.00,4843.25987,N,00920.55623,E,1,12,0.51,248.7,M,47.6,M,,*4A
$GPGSV,3,1,12,04,03,342,05,05,102,,11,21,043,44,12,21,103,44,1*62
$GPGSV,3,2,12,18,20,178,43,20,15,068,44,25,60,103,45,26,22,293,41,1*67
$GPGSV,3,3,12,28,58,266,,29,86,220,40,31,43,299,39,32,05,232,,1*69
$GLGSV,3,1,09,68,12,303,41,69,11,350,45,76,47,120,48,77,79,350,,1*76
$GLGSV,3,2,09,78,20,313,37,85,03,029,15,86,55,049,45,87,65,172,45,1*72
$GLGSV,3,3,09,88,10,202,42,1*46
$GAGSV,3,1,12,02,15,287,,03,20,260,,05,03,214,,08,18,312,,7*7C
$GAGSV,3,2,12,10,49,123,44,11,35,158,42,12,48,084,38,16,82,050,27,7*74
$GAGSV,3,3,12,24,56,095,45,25,66,300,36,31,06,103,41,33,14,033,33,7*7F
$GBGSV,3,1,11,02,00,102,,05,16,124,39,08,20,077,43,10,04,073,33,1*76
$GBGSV,3,2,11,13,19,085,41,14,02,330,,17,12,129,,26,20,307,39,1*75
$GBGSV,3,3,11,27,04,044,,29,64,189,44,30,50,061,47,1*4C
$GNRMC,130053.00,A,4843.25987,N,00920.55623,E,0.010,,080225,,,A,V*1A
$GNGGA,130053.00,4843.25987,N,00920.55623,E,1,12,0.51,248.7,M,47.6,M,,*4B
$GPGSV,3,1,12,04,03,342,,05,05,102,,11,21,043,44,12,21,103,46,1*60
$GPGSV,3,2,12,18,20,178,44,20,15,068,44,25,60,103,44,26,22,293,41,1*61
$GPGSV,3,3,12,28,58,266,,29,86,220,40,31,43,299,39,32,05,232,,1*69
$GLGSV,3,1,09,68,12,303,41,69,11,350,46,76,47,120,49,77,79,350,,1*74
$GLGSV,3,2,09,78,20,313,38,85,03,029,13,86,55,049,45,87,65,172,45,1*7B
$GLGSV,3,3,09,88,10,202,42,1*46
$GAGSV,3,1,12,02,15,287,,03,20,260,,05,03,214,,08,18,312,,7*7C
$GAGSV,3,2,12,10,49,123,44,11,35,158,42,12,48,084,39,16,82,050,27,7*75
$GAGSV,3,3,12,24,56,095,43,25,66,300,36,31,06,103,42,33,14,033,33,7*7A
$GBGSV,3,1,11,02,00,102,,05,16,124,39,08,20,077,43,10,04,073,33,1*76
$GNRMC,130054.00,A,4843.25987,N,00920.55623,E,0.011,,080225,,,A,V*1C
$GNGGA,130054.00,4843.25987,N,00920.55623,E,1,12,0.51,248.7,M,47.6,M,,*4C
$GPGSV,3,2,12,18,20,178,44,20,15,068,44,25,60,103,46,26,22,293,41,1*63
$GPGSV,3,3,12,28,58,266,,29,86,220,41,31,43,299,39,32,5,232,,1*68
$GLGSV,3,1,09,68,12,303,41,69,11,350,46,76,47,120,49,77,79,350,,1*74
$GLGSV,3,2,09,78,20,313,38,85,03,029,13,86,55,049,46,87,65,172,44,1*79
$GLGSV,3,3,09,88,10,202,42,1*46
$GAGSV,3,1,12,02,15,287,,03,20,260,,5,03,214,,08,18,312,,7*7C
$GAGSV,3,2,12,10,49,123,44,11,35,158,42,12,48,084,39,16,82,050,28,7*7A
$GAGSV,3,3,12,24,56,095,41,25,66,300,37,31,06,103,42,33,14,033,33,7*79
$GBGSV,3,1,11,02,00,102,,05,16,124,39,08,20,077,43,10,04,073,33,1*76
$GNRMC,130055.00,A,4843.25987,N,00920.55622,E,0.009,,080225,,,A,V*15
$GNGGA,130055.00,4843.25987,N,00920.55622,E,1,12,0.51,248.6,M,47.6,M,,*4D
$GPGSV,3,1,12,04,04,341,,05,05,102,,11,21,043,44,12,21,103,45,1*67
$GPGSV,3,2,12,18,20,178,43,20,15,068,44,25,60,103,45,26,22,293,41,1*67
$GPGSV,3,3,12,28,58,266,,29,86,220,39,31,43,299,39,32,05,232,,1*67
$GLGSV,3,1,09,68,12,303,40,69,11,350,46,76,47,120,49,77,79,350,,1*75
$GLGSV,3,2,09,78,20,313,38,85,03,029,11,86,55,049,43,87,65,172,44,1*7E
$GLGSV,3,3,09,88,10,202,42,1*46
$GAGSV,3,1,12,02,15,287,,03,20,260,,05,03,214,,08,18,312,,7*7C
$GAGSV,3,2,12,10,49,123,45,11,35,158,42,12,48,084,38,16,82,050,26,7*74
$GAGSV,3,3,12,24,56,095,43,25,66,300,36,31,06,103,42,33,14,033,34,7*7D
$GBGSV,3,1,11,02,00,102,,05,16,124,38,08,20,077,43,10,04,073,33,1*77
$GBGSV,3,2,11,13,19,085,41,14,02,330,,17,12,129,,26,20,307,39,1*75
$GNRMC,130056.00,A,4843.25987,N,00920.55622,E,0.008,,080225,,,A,V*17
$GNGGA,130056.00,4843.25987,N,00920.55622,E,1,12,0.51,248.6,M,47.6,M,,*4E
$GPGSV,3,1,12,04,04,341,,05,06,101,,11,21,043,44,12,21,103,46,1*64
$GPGSV,3,2,12,18,20,178,42,20,15,068,44,25,60,103,44,26,22,293,41,1*67
$GPGSV,3,3,12,28,58,266,,29,86,220,41,31,43,299,39,32,05,232,,1*68
$GLGSV,3,1,09,68,12,303,39,69,11,350,46,76,47,120,50,77,79,350,,1*73
$GLGSV,3,2,09,78,20,313,38,85,03,029,12,86,55,049,44,87,65,172,45,1*7B
$GLGSV,3,3,09,88,10,202,42,1*46
$GAGSV,3,1,12,02,15,287,,03,20,260,,05,03,214,,08,18,312,,7*7C
$GAGSV,3,2,12,10,49,123,45,11,35,158,42,12,48,084,37,16,82,050,24,7*79
$GAGSV,3,3,12,24,56,095,43,25,66,300,36,31,06,103,42,33,14,033,34,7*7D
$GBGSV,3,1,11,02,00,102,,05,16,124,38,08,20,077,43,10,04,073,33,1*77
$GBGSV,3,2,11,13,19,085,41,14,02,330,,17,12,129,,26,20,307,39,1*75
$GNRMC,130057.00,A,4843.25987,N,00920.55621,E,0.009,,080225,,,A,V*14
$GNGGA,130057.00,4843.25987,N,00920.55621,E,1,12,0.51,248.6,M,47.6,M,,*4C
$GPGSV,3,1,12,04,04,341,,05,06,101,,11,21,043,44,12,21,103,46,1*64
$GPGSV,3,2,12,18,20,178,42,20,15,068,44,25,60,103,43,26,22,293,41,1*60
$GPGSV,3,3,12,28,58,266,,29,86,220,39,31,43,299,38,32,05,232,,1*66
$GLGSV,3,1,09,68,12,303,39,69,11,350,46,76,47,120,49,77,79,350,,1*7B
$GLGSV,3,2,09,78,20,313,38,85,03,029,11,86,55,049,43,87,65,172,45,1*7F
$GLGSV,3,3,09,88,10,202,42,1*46
$GAGSV,3,1,1202,15,287,,03,20,260,,05,03,214,,08,18,312,,7*7C
$GAGSV,3,2,12,10,49,123,46,11,35,158,42,12,48,084,38,16,82,050,24,7*75
$GAGSV,3,3,12,24,56,095,43,25,66,300,36,31,06,103,42,33,14,033,34,7*7D
$GBGSV,3,1,11,02,00,102,,05,16,124,38,08,20,077,43,10,04,073,33,1*77
$GBGSV,3,2,11,13,19,085,41,14,02,330,,17,12,129,,26,20,307,39,1*75
$GNRMC,130058.00,A,4843.25987,N,00920.55621,E,0.015,,080225,,,A,V*16
$GNGGA,130058.00,4843.25987,N,00920.55621,E,1,12,0.51,248.6,M,47.6,M,,*43
$GPGSV,3,1,12,04,04,341,,05,06,101,,11,21,043,44,12,21,103,46,1*64
$GPGSV,3,2,12,18,20,178,42,20,15,068,44,25,60,103,45,26,22,293,41,1*66
$GPGSV,3,3,12,28,58,266,,29,86,220,39,31,43,299,38,32,05,232,,1*66
$GLGSV,3,1,09,68,12,303,39,69,11,350,46,76,47,120,50,77,79,350,,1*73
$GLGSV,3,2,09,78,20,313,39,85,03,029,12,86,55,049,42,87,65,172,43,1*7A
$GLGSV,3,3,09,88,10,202,42,1*46
$GAGSV,3,1,12,02,15,287,,03,20,260,,05,03,214,,08,18,312,,7*7C
$GAGSV,3,2,12,10,49,123,45,11,35,158,42,12,48,084,37,16,82,050,26,7*7B
$GAGSV,3,3,12,24,56,095,43,25,66,300,36,31,06,103,42,33,14,033,34,7*7D
$GBGSV,3,1,11,02,00,102,,05,16,124,38,08,20,077,43,10,04,073,33,1*77
$GNRMC,130059.00,A,4843.25987,N,00920.55620,E,0.013,,080225,,,A,V*10
$GNGGA,130059.00,4843.25987,N,00920.55620,E,1,12,0.51,248.5,M,47.6,M,,*40
$GPGSV,3,1,12,04,04,341,,05,06,101,,11,21,043,44,12,21,103,46,1*64
$GPGSV,3,2,12,18,20,178,42,20,15,068,44,25,60,103,43,26,22,293,41,1*60
$GPGSV,3,3,12,28,58,266,,29,86,220,41,31,43,299,38,32,05232,,1*69
$GLGSV,3,1,09,68,12,303,39,69,11,350,46,76,47,120,50,77,79,350,,1*73
$GLGSV,3,2,09,78,20,313,39,85,03,029,14,86,55,049,45,87,65,172,44,1*7C
$GLGSV,3,3,09,88,10,202,41,1*45
$GAGSV,3,1,12,02,15,287,,03,20,260,,05,03,214,,08,18,312,,7*7C
$GAGSV,3,2,12,10,49,123,45,11,35,158,42,12,48,084,38,16,82,050,26,7*74
$GNRMC,130100.00,A,4843.25987,N,00920.55621,E,0.004,,080225,,,A,V*1A
$GNGGA,130100.00,4843.25987,N,00920.55621,E,1,12,0.51,248.5,M,47.6,M,,*4C
$GPGSV,3,1,12,04,04,341,,05,06,101,,11,21,043,43,12,21,103,46,1*63
$GPGSV,3,2,12,18,20,178,43,20,15,068,45,25,60,103,44,26,22,293,41,1*67
$GPGSV,3,3,12,28,58,266,,29,86,220,40,31,43,299,38,32,05,232,,1*68
$GLGSV,3,1,09,68,12,303,40,69,11,350,46,76,47,120,50,77,79,350,,1*7D
$GLGSV,3,2,09,78,20,313,39,85,03,029,13,86,55,049,43,87,65,172,45,1*7C
$GLGSV,3,3,09,88,10,202,41,1*45
$GAGSV,3,1,12,02,15,287,,03,20,260,,05,03,214,,08,18,312,,7*7C
$GAGSV,3,2,12,10,49,123,46,11,35,158,42,12,48,084,38,16,82,050,26,7*77
$GAGSV,3,3,12,24,56,095,41,25,66,300,36,31,06,103,42,33,14,033,34,7*7F
$GBGSV,3,1,11,02,00,102,,05,16,124,38,08,20,077,43,10,04,073,32,1*76
$GBGSV,3,2,11,13,19,085,41,14,02,330,,17,12,129,,26,20,307,39,1*75
$GNRMC,130101.00,A,4843.25988,N,00920.55620,E,0.009,,080225,,,A,V*18
$GNGGA,130101.00,4843.25988,N,00920.55620,E,1,12,0.51,248.5,M,47.6,M,,*43
$GPGSV,3,1,12,04,04,341,,05,06,101,,11,21,043,43,12,21,103,46,1*63
$GPGSV,3,2,12,18,20,178,42,20,1,068,45,25,60,103,44,26,22,293,41,1*66
$GPGSV,3,3,12,28,58,266,,29,86,220,41,31,43,299,37,32,05,232,,1*66
$GLGSV,3,1,09,68,12,303,40,69,11,350,45,76,47,120,50,77,79,350,,1*7E
$GLGSV,3,2,09,78,20,313,40,85,03,029,13,86,55,049,44,87,65,172,45,1*75
$GLGSV,3,3,09,88,10,202,41,1*45
$GAGSV,3,1,12,02,15,287,,03,20,260,,05,03,214,,08,18,312,,7*7C
$GAGSV,3,2,12,10,49,123,46,11,35,158,42,12,48,084,38,16,82,050,28,7*79
$GAGSV,3,3,12,24,56,095,41,25,66,300,37,31,06,103,42,33,14,033,35,7*7F
$GBGSV,3,1,11,02,00,102,,05,16,124,38,08,20,077,43,10,04,073,32,1*76
$GBGSV,3,2,11,13,19,085,41,14,02,330,,17,12,129,,26,20,307,39,1*75
$GNRMC,130102.00,A,4843.25988,N,00920.55619,E,0.008,,080225,,,A,V*10
$GNGGA,130102.00,4843.25988,N,00920.55619,E,1,12,0.51,248.5,M,47.6,M,,*4A
$GPGSV,3,1,12,04,04,341,,05,06,101,,11,20,042,43,12,21,103,45,1*60
$GPGSV,3,2,12,18,20,178,41,20,15,068,45,25,60,103,45,26,22,293,41,1*64
$GPGSV,3,3,12,28,58,266,,29,86,220,40,31,43,299,37,32,05,232,,1*67
$GLGSV,3,1,09,68,12,303,35,69,11,350,46,76,47,120,50,77,79,350,,1*7F
$GLGSV,3,2,09,78,20,313,40,85,03,029,13,86,55,049,43,87,65,172,45,1*72
$GLGSV,3,3,09,88,10,202,40,1*44
$GAGSV,3,1,12,02,15,287,,03,20,260,,05,03,214,,08,18,312,,7*7C
$GAGSV,3,2,12,10,49,123,44,11,35,158,42,12,48,084,38,16,82,050,28,7*7B
$GAGSV,3,3,12,24,56,095,42,25,66,300,37,31,06,103,42,33,14,033,35,7*7C
$GBGSV,3,1,11,02,00,102,,05,16,124,38,08,20,077,43,10,04,073,32,1*76
$GNRMC,130103.00,A,4843.25988,N,00920.55620,E,0.005,,080225,,,A,V*16
$GNGGA,130103.00,4843.25988,N,00920.55620,E,1,12,0.51,248.5,M,47.6,M,,*41
$GPGSV,3,1,12,04,04,341,,05,06,101,,11,20,042,43,12,21,103,45,1*60
$GPGSV,3,2,12,18,20,178,41,20,15,068,45,25,60,103,43,26,22,293,42,1*61
$GPGSV,3,3,12,28,58,266,,29,86,220,40,31,43,299,38,32,05,232,,1*68
$GLGSV,3,1,09,68,12,303,40,69,11,350,44,76,47,120,49,77,79,350,,1*77
$GLGSV,3,2,09,78,20,313,40,5,03,029,09,86,55,049,42,87,65,172,43,1*7E
$GLGSV,3,3,09,88,10,202,40,1*44
$GAGSV,3,1,12,02,15,287,,03,20,260,,05,03,214,,08,18,312,,7*7C
$GAGSV,3,2,12,10,49,123,44,11,35,158,42,12,48,084,38,16,82,050,27,7*74
$GAGSV,3,3,12,24,56,095,42,25,66,300,37,31,06,103,42,33,14,033,34,7*7D
$GBGSV,3,2,11,13,19,085,41,14,02,330,,17,12,129,,26,20,307,40,1*7B
$GNRMC,130104.00,A,4843.25988,N,00920.55620,E,0.009,,080225,,,A,V*1D
$GNGGA,130104.00,4843.25988,N,00920.55620,E,1,12,0.51,248.5,M,47.6,M,,*46
$GPGSV,3,1,12,04,04,341,,05,06,101,,11,20,042,43,12,21,103,45,1*60
$GPGSV,3,2,12,18,20,178,41,20,15,068,44,25,60,103,44,26,22,293,41,1*64
$GPGSV,3,3,12,28,58,266,,29,86,220,40,31,43,299,37,32,05,232,,1*67
$GLGSV,3,1,09,68,12,303,39,69,11,350,45,76,47,120,50,77,79,350,,1*70
$GLGSV,3,2,09,78,20,313,40,85,03,029,12,86,55,049,43,87,65,172,43,1*75
$GLGSV,3,3,09,88,10,202,40,1*44
$GAGSV,3,1,12,02,15,287,,03,20,260,,05,03,214,,08,18,312,,7*7C
$GAGSV,3,2,12,10,49,123,45,11,35,158,41,12,48,084,38,16,82,050,28,7*79
$GAGSV,3,3,12,2456,095,41,25,66,300,37,31,06,103,42,33,14,033,34,7*7E
$GBGSV,3,1,11,02,00,102,,05,16,124,39,08,20,077,43,10,04,073,32,1*77
$GNRMC,130105.00,A,4843.25988,N,00920.55619,E,0.004,,080225,,,A,V*1B
$GNGGA,130105.00,4843.25988,N,00920.55619,E,1,12,0.51,248.5,M,47.6,M,,*4D
$GPGSV,3,1,12,04,04,341,,05,06,101,,11,20,042,43,12,21,103,45,1*60
$GPGSV,3,2,12,18,20,178,41,20,15,068,44,25,60,103,44,26,22,293,42,1*67
$GPGSV,3,3,12,28,58,266,,29,86,220,40,31,43,299,37,32,05,232,,1*67
$GLGSV,3,1,09,68,12,303,39,69,11,350,44,76,47,120,49,77,79,350,,1*79
$GLGSV,3,2,09,78,20,313,39,85,03,029,12,86,55,049,43,87,65,172,43,1*7B
$GLGSV,3,3,09,88,10,202,39,1*4A
$GAGSV,3,1,12,02,15,287,,03,20,260,,05,03,214,,08,18,312,,7*7C
$GAGSV,3,2,12,10,49,123,44,11,35,158,42,12,48,084,38,16,82,050,34,7*76
$GAGSV,3,3,12,24,56,095,41,25,66,300,37,31,06,103,41,33,14,033,33,7*7A
$GBGSV,3,1,11,02,00,102,,05,16,124,39,08,20,077,43,10,04,073,32,1*77
$GBGSV,3,2,11,13,19,085,41,14,02,330,,17,12,129,,26,20,307,40,1*7B
$GBGSV,3,3,11,27,04,044,,29,64,189,46,30,50,061,47,1*4E
$GNRMC,130106.00,A,4843.25988,N,00920.55619,E,0.021,,080225,,,A,V*1F
$GNGGA,130106.00,4843.25988,N,00920.55619,E,1,12,0.51,248.5,M,47.6,M,,*4E
$GPGSV,3,1,12,04,04,341,,05,06,101,,11,20,042,43,12,21,103,45,1*60
$GPGSV,3,2,12,18,20,178,43,20,15,068,44,25,60,103,46,26,22,293,41,1*64
$GPGSV,3,3,12,28,58,266,,29,86,220,40,31,43,299,36,32,05,232,,1*66
$GLGSV,3,1,09,68,12,303,39,69,11,350,45,76,47,120,49,77,79,350,,1*78
$GLGSV,3,2,09,78,20,313,40,85,03,029,14,86,55,049,43,87,65,172,42,1*72
$GLGSV,3,3,09,88,10,202,39,1*4A
$GAGSV,3,1,12,02,15,287,,03,20,260,,05,03,214,,08,18,312,,7*7C
$GAGSV,3,2,12,10,49,123,44,11,35,158,41,12,48,084,38,16,82,050,28,7*78
$GAGSV,3,3,12,24,56,095,41,25,66,300,37,31,06,103,41,33,14,033,33,7*7A
$GBGSV,3,1,11,02,00,102,,05,16,124,39,08,20,077,43,10,04,073,32,1*77
$GBGSV,3,2,11,13,19,085,4114,02,330,,17,12,129,,26,20,307,40,1*7B
$GNRMC,130107.00,A,484325989,N,00920.55619,E,0.016,,080225,,,A,V*1B
$GNGGA,130107.00,4843.25989,N,00920.55619,E,1,12,0.51,248.5,M,47.6,M,,*4E
$GPGSV,3,1,12,04,04,341,,05,06,101,,11,20,042,43,12,21,103,46,1*63
$GPGSV,3,2,12,18,20,178,41,20,15,068,44,25,60,103,46,26,22,293,42,1*65
$GPGSV,3,3,12,28,58,266,,29,86,220,38,31,43,299,37,32,05,232,,1*68
$GLGSV,3,1,09,68,12,303,39,69,11,350,45,76,47,120,49,77,79,350,,1*78
$GLGSV,3,2,09,78,20,313,40,85,03,029,11,86,55,049,43,87,65,172,43,1*76
$GLGSV,3,3,09,88,10,202,39,1*4A
$GAGSV,3,1,12,02,15,287,,03,20,260,,05,03,214,,08,18,312,,7*7C
$GAGSV,3,2,12,10,49,123,44,11,35,158,42,12,48,084,38,16,82,050,28,7*7B
$GAGSV,3,3,12,24,56,095,43,25,66,300,37,31,06,103,41,33,14,033,34,7*7F
$GBGSV,3,1,11,02,00,102,05,16,124,38,08,20,077,43,10,04,073,32,1*76
$GPGSV,3,2,12,18,20,178,40,20,15,068,44,25,60,103,46,26,22,293,41,1*67
$GPGSV,3,3,12,28,58,266,,29,86,220,40,31,43,299,37,32,05,232,,1*67
$GLGSV,3,1,09,68,12,303,39,69,11,350,45,76,47,120,50,77,79,350,,1*70
$GLGSV,3,2,09,78,20,313,40,85,03,029,13,86,55,049,46,87,65,172,43,1*71
$GLGSV,3,3,09,88,10,202,39,1*4A
$GAGSV,3,1,12,02,15,287,,03,20,260,,05,03,214,,08,18,312,,7*7C
$GNRMC,130109.00,A,4843.25989,N,00920.55618,E,0.022,,080225,,,A,V*13
$GNGGA,130109.00,4843.25989,N,00920.55618,E,1,12,0.51,248.4,M,47.6,M,,*40
$GPGSV,3,1,12,04,04,341,,05,06,101,,11,20,042,43,12,21,103,45,1*60
$GPGSV,3,2,12,18,21,178,40,20,15,068,44,25,60,103,46,26,22,293,41,1*66
$GPGSV,3,3,12,28,58,266,,29,86,220,40,31,43,299,37,32,05,232,,1*67
$GLGSV,3,1,09,68,12,303,39,69,11,350,45,76,47,120,50,77,79,350,,1*70
$GLGSV,3,2,09,78,20,313,39,85,03,029,11,86,55,049,42,87,65,172,44,1*7E
$GLGSV,3,3,09,88,10,202,39,1*4A
$GAGSV,3,1,12,02,15,287,,03,20,260,,05,03,214,,08,18,312,,7*7C
$GAGSV,3,2,12,10,49,123,44,11,35,158,42,12,48,084,38,16,82,050,29,7*7A
$GAGSV,3,3,12,24,56,095,41,25,66,300,36,31,06,103,41,33,14,033,34,7*7C
$GBGSV,3,1,11,02,00,102,,05,16,124,38,08,20,077,43,10,04,073,32,1*76
$GNRMC,130110.00,A,4843.25989,N,00920.55618,E,0.005,,080225,,,A,V*1E
$GNGGA,130110.00,4843.25989,N,00920.55618,E,1,12,0.51,248.4,M,47.6,M,,*48
$GPGSV,3,1,12,04,04,341,,05,06,101,,11,20,042,43,12,21,103,46,1*63
$GPGSV,3,2,12,18,21,178,40,20,15,068,44,25,60,103,46,26,22,293,42,1*65
$GPGSV,3,3,12,28,58,266,,29,86,220,37,31,43,299,37,32,05,232,,1*67
$GLGSV,3,1,09,68,12,303,39,69,11,350,45,76,47,120,50,77,79,350,,1*70
$GLGSV,3,2,09,78,20,313,39,85,03,029,13,86,55,049,47,87,65,172,44,1*79
$GLGSV,3,3,09,88,10,202,39,1*4A
$GAGSV,3,1,12,02,15,287,,03,20,260,,05,03,214,,08,18,312,,7*7C
$GAGSV,3,2,12,10,49,123,43,11,35,158,43,12,48,084,38,16,82,050,33,7*77
$GAGSV,3,3,12,24,56,095,41,25,66,300,36,31,06,103,40,33,14,033,34,7*7D
$GBGSV,3,1,11,02,00,102,,05,16,124,38,08,20,077,42,10,04,073,32,1*77
$GBGSV,3,2,11,13,19,085,41,14,02,330,,17,12,129,,26,20,307,40,1*7B
$GNRMC,130111.00,A,4843.25990,N,00920.55619,E,0.019,,080225,,,A,V*1B
$GNGGA,130111.00,4843.25990,N,00920.55619,E,1,12,0.51,248.4,M,47.6,M,,*40
$GPGSV,3,1,12,04,04,341,,05,06,101,,11,20,042,43,12,21,103,46,1*63
$GPGSV,3,2,12,18,21,178,39,20,15,068,43,25,60,103,46,26,22,293,42,1*6C
$GPGSV,3,3,12,28,58,266,,29,86,220,37,31,43,299,38,32,05,232,,1*68
$GLGSV,3,1,09,68,12,303,40,69,11,350,45,76,47,120,49,77,79,350,,1*76
$GLGSV,3,2,09,78,20,313,39,85,03,029,15,86,55,049,45,87,65,172,44,1*7D
$GLGSV,3,3,09,88,10,202,39,1*4A
$GAGSV,3,1,12,02,15,287,,03,20,260,,05,03,214,,08,18,312,,7*7C
$GAGSV,3,2,12,10,49,123,44,11,35,158,41,12,48,084,38,16,82,050,24,7*74
$GAGSV,3,3,12,24,56,095,42,25,66,300,36,31,06,103,40,33,14,033,34,7*7E
$GBGSV,3,1,11,02,00,102,,05,16,124,38,08,20,077,42,10,04,073,32,1*77
$GBGSV,3,2,11,13,19,085,41,14,02,330,,17,12,129,,26,20,307,40,1*7B
$GNRMC,130112.00,A,4843.25990,N,00920.55619,E,0.011,,080225,,,A,V*10
