$GNRMC,230000.00,A,4843.25995,N,00920.55558,E,0.015,,070225,,,A,V*19
$GNGGA,230000.00,4843.25995,N,00920.55558,E,1,12,0.50,252.4,M,47.6,M,,*4B
$GPGSV,3,1,11,01,50,135,47,02,45,146,42,03,77,035,40,04,53,191,40,1*6E
$GPGSV,3,2,11,06,14,309,,09,25,211,38,12,01,347,,17,43,260,,1*6C
$GPGSV,3,3,11,19,35,297,42,28,23,056,43,31,27,083,47,1*50
$GLGSV,3,1,10,66,02,046,13,67,53,039,38,68,70,247,37,69,20,231,43,1*79
$GLGSV,3,2,10,75,04,342,31,76,11,036,,77,03,078,,82,39,159,45,1*7D
$GLGSV,3,3,10,83,81,213,34,84,25,325,34,1*74
$GAGSV,3,1,11,07,57,070,43,08,10,042,30,12,13,307,29,13,07,129,43,7*7E
$GAGSV,3,2,11,16,04,335,,19,12,208,25,24,04,311,,25,01,357,,7*74
$GAGSV,3,3,11,26,58,132,46,29,54,186,43,33,67,303,35,7*4D
$GBGSV,2,1,08,02,03,100,32,05,19,122,44,06,29,059,41,09,32,076,42,1*7B
$GBGSV,2,2,08,16,28,055,41,26,09,073,43,27,33,308,39,28,62,250,30,1*76
$GNGGA,230001.00,4843.25996,N,00920.55554,E,1,12,0.52,252.4,M,47.6,M,,*47
$GPGSV,3,1,11,01,50,135,47,02,45,146,42,03,77,035,40,04,54,191,40,1*69
$GPGSV,3,2,11,06,14,309,,09,25,211,38,12,01,347,,17,43,260,,1*6C
$GPGSV,3,3,11,19,35,297,42,28,23,056,43,31,27,083,47,1*50
$GLGSV,3,1,10,66,02,046,13,67,53,039,37,68,70,247,37,69,20,231,43,1*76
$GLGSV,3,2,10,75,04,342,32,76,11,036,,77,03,078,,82,39,159,45,1*7E
$GLGSV,3,3,10,83,81,213,34,84,25,325,34,1*74
$GAGSV,3,1,11,07,57,070,43,08,10,042,30,12,13,307,29,13,07,129,43,7*7E
$GAGSV,3,2,11,16,04,335,,19,12,208,25,24,04,311,,25,01,357,,7*74
$GAGSV,3,3,11,26,58,132,46,29,54,186,43,33,67,303,35,7*4D
$GBGSV,2,1,08,02,03,100,32,05,19,122,43,06,29,059,41,09,32,076,42,1*7C
$GBGSV,2,2,08,16,28,055,41,26,09,073,43,27,33,308,39,28,62,250,30,1*76
$GNRMC,230002.00,A,4843.25990,N,00920.55547,E,0.023,,070225,,,A,V*15
$GNGGA,230002.00,4843.25990,N,00920.55547,E,1,12,0.53,252.3,M,47.6,M,,*46
$GPGSV,3,1,11,01,50,135,47,02,45,146,42,03,77,035,41,04,54,191,40,1*68
$GPGSV,3,2,11,06,14,309,,09,25,211,38,12,01,347,,17,43,260,,1*6C
$GPGSV,3,3,11,19,35,297,42,28,23,056,43,31,27,083,47,1*50
$GLGSV,3,1,10,66,02,046,13,67,53,039,37,68,70,247,38,69,20,231,43,1*79
$GLGSV,3,2,10,75,04,342,31,76,11,036,,77,03,078,,82,39,159,46,1*7E
$GLGSV,3,3,10,83,81,213,33,84,25,325,34,1*73
$GAGSV,3,1,11,07,57,070,43,08,10,042,30,12,13,307,29,13,07,129,43,7*7E
$GAGSV,3,2,11,16,04,335,,19,12,208,26,24,04,311,,25,01,357,,7*77
$GAGSV,3,3,11,26,58,132,46,29,54,186,43,33,67,303,35,7*4D
$GBGSV,2,1,08,02,03,100,32,05,19,122,43,06,29,059,41,09,32,076,41,1*7F
$GBGSV,2,2,08,16,28,055,41,26,09,073,43,27,33,308,39,28,62,250,30,1*76
$GNRMC,230003.00,A,4843.25986,N,00920.55542,E,0.014,,070225,,,A,V*12
$GNGGA,230003.00,4843.25986,N,00920.55542,E,1,12,0.53,252.3,M,47.6,M,,*45
$GPGSV,3,1,11,01,50,135,47,02,45,146,42,03,77,035,41,04,54,191,41,1*69
$GPGSV,3,2,11,06,15,309,,09,25,211,38,12,01,347,,17,43,260,,1*6D
$GPGSV,3,3,11,19,35,297,42,28,23,056,43,31,27,083,47,1*50
$GLGSV,3,1,10,66,02,046,11,67,53,039,37,68,70,247,38,69,20,231,43,1*7B
$GLGSV,3,2,10,75,04,342,32,76,11,036,,77,03,078,,82,39,159,46,1*7D
$GLGSV,3,3,10,83,81,213,34,84,25,325,34,1*74
$GAGSV,3,1,11,07,57,070,43,08,10,042,30,12,13,307,29,13,07,129,44,7*79
$GAGSV,3,2,11,16,04,335,,19,12,208,26,24,04,311,,25,01,357,,7*77
$GAGSV,3,3,11,26,58,132,46,29,54,186,43,33,67,303,35,7*4D
$GBGSV,2,1,08,02,03,100,32,05,19,122,43,06,29,059,41,09,32,076,41,1*7F
$GBGSV,2,2,08,16,28,055,41,26,09,073,42,27,33,308,39,28,62,250,30,1*77
$GNRMC,230004.00,A,4843.25983,N,00920.55538,E,0.027,,070225,,,A,V*1D
$GNGGA,230004.00,4843.25983,N,00920.55538,E,1,12,0.54,252.3,M,47.6,M,,*4D
$GPGSV,3,1,11,01,50,135,47,02,45,146,42,03,77,035,41,04,54,191,41,1*69
$GPGSV,3,2,11,06,15,309,,09,25,211,38,12,01,347,,17,43,260,,1*6D
$GPGSV,3,3,11,19,35,297,42,28,23,056,43,31,27,083,47,1*50
$GLGSV,3,1,10,66,02,046,12,67,53,039,37,68,70,247,37,69,20,231,43,1*77
$GLGSV,3,2,10,75,04,342,33,76,11,036,,77,03,078,,82,39,159,46,1*7C
$GLGSV,3,3,10,83,81,213,34,84,25,325,34,1*74
$GAGSV,3,1,11,07,57,070,43,08,10,042,30,12,13,307,29,13,07,129,44,7*79
$GAGSV,3,2,11,16,04,335,,19,12,208,26,24,04,311,,25,01,357,,7*77
$GAGSV,3,3,11,26,58,132,46,29,54,186,43,33,67,303,35,7*4D
$GBGSV,2,1,08,02,03,100,32,05,19,122,43,06,29,059,41,09,32,076,42,1*7C
$GBGSV,2,2,08,16,28,055,41,26,09,073,42,27,33,308,39,28,62,250,30,1*77
$GNRMC,230005.00,A,4843.25980,N,00920.55533,E,0.009,,070225,,,A,V*18
$GNGGA,230005.00,4843.25980,N,00920.55533,E,1,12,0.53,252.2,M,47.6,M,,*42
$GPGSV,3,1,11,01,50,135,47,02,45,146,42,03,77,035,41,04,54,191,41,1*69
$GPGSV,3,2,11,06,15,309,,09,25,211,38,12,01,347,,17,43,260,,1*6D
$GPGSV,3,3,11,19,35,297,42,28,23,056,43,31,27,083,46,1*51
$GLGSV,3,1,10,66,02,046,13,67,53,039,37,68,70,247,37,69,20,231,43,1*76
$GLGSV,3,2,10,75,04,342,34,76,11,036,,77,03,078,,82,39,159,46,1*7B
$GLGSV,3,3,10,83,81,213,33,84,25,325,34,1*73
$GAGSV,3,1,11,07,57,070,43,08,10,042,29,12,13,307,29,13,07,129,44,7*71
$GAGSV,3,2,11,16,04,335,,19,12,208,26,24,04,311,,25,01,357,,7*77
$GAGSV,3,3,11,26,58,132,46,29,54,186,43,33,67,303,35,7*4D
$GBGSV,2,1,08,02,03,100,32,05,19,122,43,06,29,059,41,09,32,076,42,1*7C
$GBGSV,2,2,08,16,28,055,41,26,09,073,41,27,33,308,39,28,62,250,30,1*74
$GNRMC,230006.00,A,4843.25978,N,00920.55527,E,0.029,,070225,,,A,V*1B
$GNGGA,230006.00,4843.25978,N,00920.55527,E,1,12,0.56,252.1,M,47.6,M,,*45
$GPGSV,3,1,11,01,50,135,47,02,45,146,42,03,77,035,41,04,54,191,41,1*69
$GPGSV,3,2,11,06,15,309,,09,26,211,38,12,01,347,,17,43,260,,1*6E
$GPGSV,3,3,11,19,35,297,42,28,23,056,42,31,27,083,46,1*50
$GLGSV,3,1,10,66,02,046,12,67,53,039,37,68,70,247,37,69,20,231,43,1*77
$GLGSV,3,2,10,75,04,342,34,76,11,036,,77,03,078,,82,39,159,46,1*7B
$GLGSV,3,3,10,83,81,213,33,84,25,325,34,1*73
$GAGSV,3,1,11,07,57,070,43,08,10,042,29,12,13,307,29,13,07,129,43,7*76
$GAGSV,3,2,11,16,04,335,,19,12,208,27,24,04,311,,25,01,357,,7*76
$GAGSV,3,3,11,26,58,132,46,29,54,186,43,33,67,303,35,7*4D
$GBGSV,2,1,08,02,03,100,32,05,19,122,43,06,29,059,41,09,32,076,42,1*7C
$GBGSV,2,2,08,16,28,055,41,26,09,073,41,27,33,308,39,28,62,250,30,1*74
$GNRMC,230007.00,A,4843.25976,N,00920.55523,E,0.013,,070225,,,A,V*19
$GNGGA,230007.00,4843.25976,N,00920.55523,E,1,12,0.53,252.0,M,47.6,M,,*4A
$GPGSV,3,1,11,01,50,135,47,02,45,146,42,03,77,035,41,04,54,191,41,1*69
$GPGSV,3,2,11,06,15,309,,09,26,211,38,12,01,347,,17,43,260,,1*6E
$GPGSV,3,3,11,19,35,297,41,28,23,056,42,31,27,083,46,1*53
$GLGSV,3,1,10,66,02,046,13,67,53,039,37,68,70,247,38,69,20,231,42,1*78
$GLGSV,3,2,10,75,04,342,35,76,11,036,,77,03,078,,82,39,159,46,1*7A
$GLGSV,3,3,10,83,81,213,33,84,25,325,34,1*73
$GAGSV,3,1,11,07,57,070,43,08,10,042,29,12,13,307,29,13,07,129,43,7*76
$GAGSV,3,2,11,16,04,335,,19,12,208,27,24,04,311,,25,01,357,,7*76
$GAGSV,3,3,11,26,58,132,46,29,54,186,43,33,67,303,34,7*4C
$GBGSV,2,1,08,02,03,100,32,05,19,122,43,06,29,059,41,09,32,076,41,1*7F
$GBGSV,2,2,08,16,28,055,42,26,09,073,41,27,33,308,39,28,62,250,29,1*7F
$GNRMC,230008.00,A,4843.25974,N,00920.55520,E,0.021,,070225,,,A,V*16
$GNGGA,230008.00,4843.25974,N,00920.55520,E,1,12,0.53,252.0,M,47.6,M,,*44
$GPGSV,3,1,11,01,50,135,47,02,45,146,43,03,77,035,41,04,54,191,41,1*68
$GPGSV,3,2,11,06,15,309,,09,26,211,39,12,01,347,,17,43,260,,1*6F
$GPGSV,3,3,11,19,35,297,41,28,23,056,42,31,27,083,45,1*50
$GLGSV,3,1,10,66,02,046,11,67,53,039,38,68,70,247,38,69,20,231,42,1*75
$GLGSV,3,2,10,75,04,342,35,76,11,036,,77,03,078,,82,39,159,46,1*7A
$GLGSV,3,3,10,83,81,213,33,84,25,325,34,1*73
$GAGSV,3,1,11,07,57,070,43,08,10,042,29,12,13,307,29,13,07,129,43,7*76
$GAGSV,3,2,11,16,04,335,,19,12,208,27,24,04,311,,25,01,357,,7*76
$GAGSV,3,3,11,26,58,132,46,29,54,186,43,33,67,303,34,7*4C
$GBGSV,2,1,08,02,03,100,32,05,19,122,43,06,29,059,41,09,32,076,41,1*7F
$GBGSV,2,2,08,16,28,055,42,26,09,073,40,27,33,308,39,28,62,250,29,1*7E
$GNRMC,230009.00,A,4843.25971,N,00920.55516,E,0.055,,070225,,,A,V*14
$GNGGA,230009.00,4843.25971,N,00920.55516,E,1,12,0.54,251.9,M,47.6,M,,*48
$GPGSV,3,1,11,01,50,135,47,02,45,146,43,03,77,035,41,04,54,191,41,1*68
$GPGSV,3,2,11,06,15,309,,09,26,211,39,12,01,347,,17,43,260,,1*6F
$GPGSV,3,3,11,19,35,297,41,28,23,056,42,31,27,083,45,1*50
$GLGSV,3,1,10,66,02,046,13,67,53,039,38,68,70,247,38,69,20,231,42,1*77
$GLGSV,3,2,10,75,04,342,35,76,11,036,,77,03,078,,82,39,159,46,1*7A
$GLGSV,3,3,10,83,81,213,33,84,25,325,34,1*73
$GAGSV,3,1,11,07,57,070,43,08,10,042,28,12,13,307,29,13,07,129,43,7*77
$GAGSV,3,2,11,16,04,335,,19,12,208,27,24,04,311,,25,01,357,,7*76
$GAGSV,3,3,11,26,58,132,46,29,54,186,43,33,67,303,34,7*4C
$GBGSV,2,1,08,02,03,100,32,05,19,122,43,06,29,059,41,09,32,076,42,1*7C
$GBGSV,2,2,08,16,28,055,42,26,09,073,40,27,33,308,38,28,62,250,29,1*7F
$GNRMC,230010.00,A,4843.25971,N,00920.55516,E,0.012,,070225,,,A,V*1F
$GNGGA,230010.00,4843.25971,N,00920.55516,E,1,12,0.55,251.9,M,47.6,M,,*41
$GPGSV,3,1,11,01,50,135,47,02,45,146,43,03,77,035,41,04,54,191,42,1*6B
$GPGSV,3,2,11,06,15,309,,09,26,211,39,12,01,347,,17,43,260,,1*6F
$GPGSV,3,3,11,19,35,297,41,28,23,056,42,31,27,083,45,1*50
$GLGSV,3,1,10,66,02,046,11,67,53,039,39,68,70,248,38,69,20,231,42,1*7B
$GLGSV,3,2,10,75,04,342,34,76,11,036,,77,03,078,,82,39,159,46,1*7B
$GLGSV,3,3,10,83,81,212,33,84,25,325,34,1*72
$GAGSV,3,1,11,07,57,070,43,08,10,042,27,12,13,307,29,13,07,129,43,7*78
$GAGSV,3,2,11,16,04,335,,19,12,208,27,24,04,311,,25,01,357,,7*76
$GAGSV,3,3,11,26,58,132,46,29,54,186,43,33,67,303,34,7*4C
$GBGSV,2,1,08,02,03,100,32,05,19,122,43,06,29,059,41,09,32,076,42,1*7C
$GBGSV,2,2,08,16,28,055,42,26,09,073,39,27,33,308,39,28,62,250,28,1*71
$GNRMC,230011.00,A,4843.25971,N,00920.55519,E,0.043,,070225,,,A,V*15
$GNGGA,230011.00,4843.25971,N,00920.55519,E,1,12,0.54,252.0,M,47.6,M,,*44
$GPGSV,3,1,11,01,50,135,47,02,45,146,43,03,77,035,41,04,54,191,42,1*6B
$GPGSV,3,2,11,06,15,309,,09,26,211,39,12,01,347,,17,43,260,,1*6F
$GPGSV,3,3,11,19,35,297,41,28,23,056,42,31,27,083,46,1*53
$GLGSV,3,1,10,66,02,046,10,67,53,039,40,68,70,248,38,69,20,231,42,1*74
$GLGSV,3,2,10,75,04,342,34,76,11,036,,77,03,078,,82,39,159,46,*7B
$GLGSV,3,3,10,83,81,212,32,84,25,325,35,1*72
$GAGSV,3,1,11,07,57,070,43,08,10,042,27,12,13,307,29,13,07,129,43,7*78
$GAGSV,3,2,11,16,04,335,,19,12,208,27,24,04,311,,25,01,357,,7*76
$GAGSV,3,3,11,26,58,132,46,29,54,186,43,33,67,303,34,7*4C
$GBGSV,2,1,08,02,03,100,32,05,19,122,43,06,29,059,41,09,32,076,42,1*7C
$GBGSV,2,2,08,16,28,055,42,26,09,073,39,27,33,308,39,28,62,250,28,1*71
$GNRMC,230012.00,A,4843.25970,N,00920.55518,E,0.008,,070225,,,A,V*19
$GNGGA,230012.00,4843.25970,N,00920.55518,E,1,12,0.57,251.9,M,47.6,M,,*4E
$GPGSV,3,1,11,01,50,135,47,02,45,146,43,03,77,035,42,04,54,191,42,1*68
$GPGSV,,2,11,06,15,309,,09,26,211,39,12,01,347,,17,43,260,,1*6F
$GPGSV,3,3,11,19,35,297,41,28,23,056,42,31,27,083,46,1*53
$GLGSV,3,1,10,66,02,046,11,67,53,039,40,68,70,248,37,69,20,231,42,1*7A
$GLGSV,3,2,10,75,04,342,34,76,11,036,,77,03,078,,82,39,159,46,1*7B
$GLGSV,3,3,10,83,81,212,32,84,25,325,35,1*72
$GAGSV,3,1,11,07,57,070,43,08,10,042,26,12,13,307,28,13,07,129,43,7*78
$GAGSV,3,2,11,16,04,335,,19,12,208,27,24,04,311,,25,01,357,,7*76
$GAGSV,3,3,11,26,58,132,46,29,54,186,43,33,67,303,34,7*4C
$GBGSV,2,1,08,02,03,100,33,05,19,122,43,06,29,059,41,09,32,076,42,1*7D
$GBGSV,2,2,08,16,28,055,42,26,09,073,39,27,33,308,39,28,62,250,29,1*70
$GNRMC,230013.00,A,4843.25970,N,00920.55518,E,0.062,,070225,,,A,V*14
$GNGGA,230013.00,4843.25970,N,00920.55518,E,1,12,0.54,251.8,M,47.6,M,,*4D
$GPGSV,3,1,11,01,50,135,47,02,45,146,44,03,77,035,42,04,54,191,42,1*6F
$GPGSV,3,2,11,06,15,309,,09,26,211,9,12,01,347,,17,43,260,,1*6F
$GPGSV,3,3,11,19,35,297,41,28,23,056,42,31,27,083,46,1*53
$GLGSV,3,1,10,66,02,046,13,67,53,039,41,68,70,248,36,69,20,231,42,1*78
$GLGSV,3,2,10,75,04,342,34,76,11,036,,77,03,078,,82,39,159,46,1*7B
$GLGSV,3,3,10,83,81,212,32,84,25,325,35,1*72
$GAGSV,3,1,11,07,57,070,43,08,10,042,26,12,13,307,29,13,07,129,44,7*7E
$GAGSV,3,2,11,16,04,335,,19,12,208,27,24,04,311,,25,01,357,,7*76
$GAGSV,3,3,11,26,58,132,47,29,54,186,42,33,67,303,33,7*4B
$GBGSV,2,1,08,02,03,100,33,05,19,122,43,06,29,059,41,09,32,076,42,1*7D
$GBGSV,2,2,08,16,28,055,42,26,09,073,39,27,33,308,39,28,62,250,30,1*78
$GNRMC,230014.00,A,4843.25970,N,00920.55517,E,0.066,,070225,,,A,V*18
$GNGGA,230014.00,4843.25970,N,00920.55517,E,1,12,0.54,251.8,M,47.6,M,,*45
$GPGSV,3,1,11,01,50,135,47,02,45,146,44,03,77,035,42,04,54,191,42,1*6F
$GPGSV,3,2,11,06,15,309,,09,26,211,39,12,01,347,,17,42,259,,1*64
$GPGSV,3,3,11,19,35,297,41,28,23,056,2,31,27,083,46,1*53
$GLGSV,3,1,10,66,02,046,12,67,53,039,41,68,70,248,36,69,20,231,42,1*79
$GLGSV,3,2,10,75,04,342,35,76,11,036,,77,03,078,,82,39,159,46,1*7A
$GLGSV,3,3,10,83,81,212,32,84,25,325,35,1*72
$GAGSV,3,1,11,07,57,070,43,08,10,042,26,12,13,307,29,13,07,129,44,7*7E
$GAGSV,3,2,11,16,04,335,,19,12,208,26,24,04,311,,25,01,357,,7*77
$GAGSV,3,3,11,26,58,132,47,29,54,186,42,33,67,303,33,7*4B
$GBGSV,2,1,08,02,03,100,32,05,19,122,43,06,2,059,41,09,32,076,42,1*7C
$GBGSV,2,2,08,16,28,055,41,26,09,73,40,27,33,308,39,28,62,250,30,1*75
$GNRMC,230015.00,A,4843.25971,N,00920.55516,E,0.057,,070225,,,A,V*1B
$GNGGA,230015.00,4843.25971,N,00920.55516,E,1,12,0.54,251.6,M,47.6,M,,*4A
$GPGSV,3,1,11,01,50,135,47,02,45,146,44,03,77,035,42,04,54,191,42,1*6F
$GPGSV,3,2,11,06,15,309,,09,26,211,39,12,01,347,,17,42,259,,1*64
$GPGSV,3,3,11,19,35,297,41,28,23,056,42,31,27,083,47,1*52
$GLGSV,3,1,10,66,02,046,12,67,53,039,41,68,70,248,37,69,20,231,42,1*78
$GLGSV,3,2,10,75,04,342,35,76,11,036,,77,03,078,,82,39,159,45,*79
$GLGSV,3,3,10,83,81,212,32,84,25,325,35,1*72
$GAGSV,3,1,11,07,57,070,42,08,10,042,26,12,13,307,29,13,07,129,44,7*7F
$GAGSV,3,2,11,16,04,335,,19,12,208,27,24,04,311,,25,01,357,,7*76
$GAGSV,3,3,11,26,58,132,47,29,54,186,42,33,67,303,33,7*4B
$GBGSV,2,1,08,02,03,100,32,05,19,122,43,06,29,059,41,09,32,076,41,1*7F
$GBGSV,2,2,08,16,28,055,41,26,09,073,40,27,33,308,39,28,62,250,31,1*74
$GNRMC,230016.00,A,4843.25974,N,00920.55519,E,0.013,,070225,,,A,V*12
$GNGGA,230016.00,4843.25974,N,00920.55519,E,1,12,0.55,251.7,M,47.6,M,,*43
$GPGSV,3,1,11,01,50,135,47,02,45,146,44,03,77,035,42,04,54,191,42,1*6F
$GPGSV,3,2,11,06,15,309,,09,26,211,40,12,01,347,,17,42,259,,1*6A
$GPGSV,3,3,11,19,35,297,40,28,23,056,41,31,27,083,47,1*50
$GLGSV,3,1,10,66,02,046,08,67,53,039,42,68,70,248,37,69,20,231,42,1*70
$GLGSV,3,2,10,75,04,342,35,76,11,036,,77,03,078,,82,39,159,45,1*79
$GLGSV,3,3,10,83,81,212,33,84,25,325,35,1*73
$GAGSV,3,1,11,07,57,070,41,08,10,042,26,12,13,307,28,13,07,129,44,7*7D
$GAGSV,3,2,11,16,04,335,,19,12,208,27,24,04,311,,25,01,357,,7*76
$GAGSV,3,3,11,26,58,132,47,29,54,186,42,33,67,303,33,7*4B
$GBGSV,2,1,08,02,03,100,32,05,19,122,43,06,29,059,41,09,32,076,41,1*7F
$GBGSV,2,2,08,16,28,054,42,26,09,073,40,27,33,308,38,28,62,250,31,1*77
$GNRMC,230017.00,A,4843.25978,N,00920.55524,E,0.039,,070225,,,A,V*19
$GNGGA,230017.00,4843.25978,N,00920.55524,E,1,12,0.54,251.7,M,47.6,M,,*41
$GPGSV,3,1,11,01,50,135,47,02,45,146,44,03,77,035,42,04,54,191,42,1*6F
$GPGSV,3,2,11,06,15,309,,09,26,211,40,12,01,347,,17,42,259,,1*6A
$GPGSV,3,3,11,19,35,297,40,28,23,056,41,31,27,083,47,1*50
$GLGSV,3,1,10,66,02,046,15,67,53,039,42,68,70,248,37,69,20,231,42,1*7C
$GLGSV,3,2,10,75,04,342,34,76,11,036,,77,03,078,,82,39,159,45,1*78
$GLGSV,3,3,10,83,81,212,33,84,25,325,35,1*73
$GAGSV,3,1,11,07,57,070,42,08,10,042,26,12,13,307,29,13,07,129,44,7*7F
$GAGSV,3,2,11,16,04,335,,19,12,208,27,24,04,311,,25,01,357,,7*76
$GAGSV,3,3,11,26,58,132,47,29,54,186,42,33,67,303,33,7*4B
$GBGSV,2,1,08,02,03,100,32,05,19,122,44,06,29,059,41,09,32,076,42,1*7B
$GBGSV,2,2,08,16,28,054,42,26,09,073,41,27,33,308,39,28,62,250,32,1*74
$GNRMC,230018.00,A,4843.25981,N,00920.55526,E,0.027,,070225,,,A,V*1D
$GNGGA,230018.00,4843.25981,N,00920.55526,E,1,12,0.57,251.7,M,47.6,M,,*49
$GPGSV,3,1,11,01,50,135,46,02,45,146,44,03,77,035,42,04,54,191,42,1*6E
$GPGSV,3,2,11,06,15,309,,09,26,211,40,12,01,347,,17,42,259,,1*6A
$GPGSV,3,3,11,19,35,297,40,28,23,056,41,31,27,083,47,1*50
$GLGSV,3,1,10,66,02,046,13,67,53,039,42,68,70,248,37,69,20,231,43,1*7B
$GLGSV,3,2,10,75,04,342,33,76,11,036,,77,03,078,,82,39,159,45,1*7F
$GLGSV,3,3,10,83,81,212,33,84,25,325,35,1*73
$GAGSV,3,1,11,07,57,070,42,08,10,042,26,12,13,307,28,13,07,129,44,7*7E
$GAGSV,3,2,11,16,04,335,,19,12,208,27,24,04,311,,25,01,357,,7*76
$GAGSV,3,3,11,26,58,132,47,29,54,186,41,33,67,303,33,7*48
$GBGSV,2,2,08,16,28,054,41,26,09,073,41,27,33,308,39,28,62,250,33,1*76
$GNRMC,230019.00,A,4843.25981,N,00920.55527,E,0.039,,070225,,,A,V*12
$GNGGA,230019.00,4843.25981,N,00920.55527,E,1,12,0.54,251.7,M,47.6,M,,*4A
$GPGSV,3,1,11,01,50,135,46,02,45,146,44,03,77,035,42,04,54,191,41,1*6D
$GPGSV,3,2,11,06,15,309,,09,26,211,40,12,01,347,,17,42,259,,1*6A
$GPGSV,3,3,11,19,35,297,40,28,23,056,41,31,27,083,47,1*50
$GLGSV,3,1,10,66,02,046,11,67,53,039,42,68,70,248,38,69,20,231,43,1*76
$GLGSV,3,2,10,75,04,342,32,76,11,036,,77,03,078,,82,39,159,46,1*7D
$GLGSV,3,3,10,83,81,212,33,84,25,325,35,1*73
$GAGSV,3,1,11,07,57,070,42,08,10,042,26,12,13,307,28,13,07,129,44,7*7E
$GAGSV,3,2,11,16,04,335,,19,12,208,28,24,04,311,,25,01,357,,7*79
$GAGSV,3,3,11,26,58,132,47,29,54,186,41,33,67,303,33,7*48
$GBGSV,2,1,08,02,03,100,32,05,19,122,43,06,29,059,41,09,32,076,42,1*7C
$GBGSV,2,2,08,16,28,054,41,26,09,073,42,27,33,308,39,28,62,250,33,1*75
$GNRMC,230020.00,A,4843.25981,N,00920.55528,E,0.049,,070225,,,A,V*10
$GNGGA,230020.00,4843.25981,N,00920.55528,E,1,12,0.54,251.6,M,47.6,M,,*4E
$GPGSV,3,1,11,01,50,135,46,02,45,146,44,03,77,035,42,04,54,191,41,1*6D
$GPGSV,3,2,11,06,15,309,,09,26,211,40,12,01,347,,17,42,259,,1*6A
$GPGSV,3,3,11,19,35,297,40,28,23,056,41,31,27,083,47,1*50
$GLGSV,3,1,10,66,02,046,10,67,53,039,42,68,70,248,38,69,20,231,43,1*77
$GLGSV,3,2,10,75,04,342,32,76,11,036,,77,03,078,,82,39,159,46,1*7D
$GLGSV,3,3,10,83,81,212,33,84,25,325,35,1*73
$GAGSV,3,1,11,07,57,070,42,08,10,042,26,12,13,307,29,13,07,129,44,7*7F
$GAGSV,3,2,11,16,04,335,,19,12,208,28,24,04,311,,25,01,357,,7*79
$GAGSV,3,3,11,26,58,132,47,29,54,186,41,33,67,303,33,7*48
$GBGSV,2,1,08,02,03,100,32,05,19,122,43,06,29,059,41,09,32,076,42,1*7C
$GBGSV,2,2,08,16,28,054,41,26,09,073,42,27,33,308,38,28,62,250,34,1*73
$GNRMC,230021.00,A,4843.25979,N,00920.55530,E,0.020,,070225,,,A,V*10
$GNGGA,230021.00,4843.25979,N,00920.55530,E,1,12,0.54,251.6,M,47.6,M,,*41
$GPGSV,3,1,11,01,50,135,46,02,45,146,44,03,77,035,41,04,54,191,41,1*6E
$GPGSV,3,2,11,06,15,309,,09,26,211,40,12,01,347,,17,42,259,,1*6A
$GPGSV,3,3,11,19,35,297,40,28,23,056,41,31,27,083,47,1*50
$GLGSV,3,1,10,66,02,046,13,67,53,039,43,68,70,248,38,69,20,231,43,1*75
$GLGSV,3,2,10,75,04,342,31,76,11,036,,77,03,078,,82,39,159,46,1*7E
$GLGSV,3,3,10,83,81,212,32,84,25,325,35,1*72
$GAGSV,3,1,11,07,57,070,42,08,10,042,26,12,13,307,28,13,07,129,43,7*79
$GAGSV,3,2,11,16,04,335,,19,12,208,28,24,04,311,,25,01,357,,7*79
$GAGSV,3,3,11,26,58,132,47,29,54,186,41,33,67,303,33,7*48
$GBGSV,2,1,08,02,03,100,32,05,19,122,43,06,29,059,41,09,32,076,42,1*7C
$GBGSV,2,2,08,16,28,054,41,26,09,073,43,27,33,308,38,28,62,250,34,1*72
$GNRMC,230022.00,A,4843.25979,N,00920.55532,E,0.010,,070225,,,A,V*12
$GNGGA,230022.00,4843.25979,N,00920.55532,E,1,12,0.55,251.6,M,47.6,M,,*41
$GPGSV,3,1,11,01,50,135,46,02,45,146,44,03,77,035,41,04,54,191,41,1*6E
$GPGSV,3,2,11,06,15,309,,09,26,211,40,12,01,347,,17,42,259,,1*6A
$GPGSV,3,3,11,19,35,297,40,28,23,056,41,31,27,083,47,1*50
$GLGSV,3,1,10,66,02,046,12,67,53,039,43,68,70,248,38,69,20,231,44,1*73
$GLGSV,3,2,10,75,04,342,31,76,11,036,,77,03,078,,82,39,159,47,1*7F
$GLGSV,3,3,10,83,81,212,32,84,25,325,35,1*72
$GAGSV,3,1,11,07,57,070,42,08,10,042,26,12,13,307,28,13,07,129,43,7*79
$GAGSV,3,2,11,16,04,335,,19,12,208,28,24,04,311,,25,01,357,,7*79
$GAGSV,3,3,11,26,58,132,48,29,54,186,41,33,67,303,34,7*40
$GBGSV,2,1,08,02,03,100,32,05,19,122,43,06,29,059,41,09,32,076,42,1*7C
$GBGSV,2,2,08,16,28,054,41,26,09,073,43,27,33,308,38,28,62,250,34,1*72
$GNRMC,230023.00,A,4843.25979,N,00920.55536,E,0.024,,070225,,,A,V*10
$GNGGA,230023.00,4843.25979,N,00920.55536,E,1,12,0.51,251.6,M,47.6,M,,*40
$GPGSV,3,1,11,01,50,135,46,02,45,146,44,03,77,035,41,04,54,191,41,1*6E
$GPGSV,3,2,11,06,15,309,,09,26,211,40,12,01,347,,17,42,259,,1*6A
$GPGSV,3,3,11,19,35,297,40,28,23,056,41,31,27,083,47,1*50
$GLGSV,3,1,10,66,02,046,14,67,53,039,43,68,70,248,38,69,20,231,44,1*75
$GLGSV,3,2,10,75,04,342,30,76,11,036,,77,03,078,,82,39,159,46,1*7F
$GLGSV,3,3,10,83,81,212,32,84,25,325,35,1*72
$GAGSV,3,1,11,07,57,070,42,08,10,042,26,12,13,307,28,13,07,129,44,7*7E
$GAGSV,3,2,11,16,04,335,,19,12,208,27,24,04,311,,25,01,357,,7*76
$GAGSV,3,3,11,26,58,132,48,29,54,186,41,33,67,303,34,7*40
$GBGSV,2,1,08,02,03,100,32,05,19,122,43,06,29,059,41,09,32,076,42,1*7C
$GBGSV,2,2,08,16,28,054,41,26,09,073,43,27,33,308,38,28,62,250,34,1*72
$GNRMC,230024.00,A,4843.25980,N,00920.55537,E,0.009,,070225,,,A,V*1F
$GNGGA,230024.00,4843.25980,N,00920.55537,E,1,12,0.57,251.7,M,47.6,M,,*47
$GPGSV,3,1,11,01,50,135,46,02,45,146,44,03,77,035,41,04,54,191,40,1*6F
$GPGSV,3,2,11,06,15,309,,09,26,211,40,12,01,347,,17,42,259,,1*6A
$GPGSV,3,3,11,19,35,297,40,28,23,055,40,31,27,083,46,1*53
$GLGSV,3,1,10,66,02,046,12,67,53,039,43,68,70,248,38,69,20,231,44,1*73
$GLGSV,3,2,10,75,04,342,29,76,11,036,,77,03,078,,82,39,159,46,1*77
$GLGSV,3,3,10,83,81,212,32,84,25,325,34,1*73
$GAGSV,3,1,11,07,57,070,42,08,10,042,26,12,13,307,28,13,07,129,44,7*7E
$GAGSV,3,2,11,16,04,335,,19,12,208,27,24,04,311,,25,01,357,,7*76
$GAGSV,3,3,11,26,58,132,48,29,54,186,40,33,67,303,34,7*41
$GBGSV,2,1,08,02,03,100,32,05,19,122,43,06,29,059,41,09,32,076,42,1*7C
$GBGSV,2,2,08,16,28,054,41,26,09,073,43,27,33,308,38,28,62,250,34,1*72
$GNRMC,230025.00,A,4843.25978,N,00920.55537,E,0.009,,070225,,,A,V*19
$GNGGA,230025.00,4843.25978,N,00920.55537,E,1,12,0.51,251.7,M,47.6,M,,*47
$GPGSV,3,1,11,01,50,135,46,02,45,146,44,03,77,035,41,04,54,191,40,1*6F
$GPGSV,3,2,11,06,15,309,,09,26,211,40,12,01,347,,17,42,259,,1*6A
$GPGSV,3,3,11,19,35,297,40,28,23,055,40,31,27,083,47,1*52
$GLGSV,3,1,10,66,02,046,12,67,53,039,42,68,70,248,38,69,20,231,43,1*75
$GLGSV,3,2,10,75,04,342,28,76,11,036,,77,03,078,,82,39,159,47,1*77
$GLGSV,3,3,10,83,81,212,31,84,25,325,35,1*71
$GAGSV,3,1,11,07,57,070,42,08,10,042,26,12,13,307,28,13,07,129,44,7*7E
$GAGSV,3,2,11,16,04,335,,19,12,208,27,24,04,311,,25,01,357,,7*76
$GAGSV,3,3,11,26,58,132,48,29,54,186,40,33,67,303,34,7*41
$GBGSV,2,1,08,02,03,100,32,05,19,122,43,06,29,059,41,09,32,076,42,1*7C
$GBGSV,2,2,08,16,28,054,41,26,09,073,43,27,33,308,38,28,62,250,34,1*72
$GNRMC,230026.00,A,4843.25978,N,00920.55540,E,0.019,,070225,,,A,V*1B
$GNGGA,230026.00,4843.25978,N,00920.55540,E,1,12,0.51,251.8,M,47.6,M,,*4B
$GPGSV,3,1,11,01,50,135,46,02,45,146,44,03,77,035,41,04,54,191,40,1*6F
$GPGSV,3,2,11,06,15,309,,09,26,211,41,12,01,347,,17,42,259,,1*6B
$GPGSV,3,3,11,19,35,297,40,28,23,055,40,31,27,083,46,1*53
$GLGSV,3,1,10,66,02,046,11,67,53,039,42,68,70,248,37,69,20,231,43,1*79
$GLGSV,3,2,10,75,04,342,26,76,11,036,,77,03,078,,82,39,159,46,1*78
$GLGSV,3,3,10,83,81,212,31,84,25,325,34,1*70
$GAGSV,3,1,11,07,57,070,42,08,10,042,26,12,13,307,28,13,07,129,44,7*7E
$GAGSV,3,2,11,16,04,335,,19,12,208,28,24,04,311,,25,01,357,,7*79
$GAGSV,3,3,11,26,58,132,48,29,54,186,40,33,67,303,34,7*41
$GBGSV,2,1,08,02,03,100,32,05,19,122,43,06,29,059,41,09,32,076,42,1*7C
$GBGSV,2,2,08,16,28,054,41,26,09,073,44,27,33,308,38,28,62,25,33,1*72
$GNRMC,230027.00,A,4843.25976,N,00920.55539,E,0.022,,070225,,,A,V*12
$GNGGA,230027.00,4843.25976,N,00920.55539,E,1,12,0.51,251.8,M,47.6,M,,*4A
$GPGSV,3,1,11,01,50,135,46,02,45,146,44,03,77,035,41,04,54,191,40,1*6F
$GPGSV,3,2,11,06,15,309,,09,26,211,40,12,01,347,,17,42,259,,1*6A
$GPGSV,3,3,11,19,35,297,40,28,23,055,39,31,27,082,46,1*5C
$GLGSV,3,1,10,66,02,046,13,67,53,039,42,68,70,248,37,69,20,231,42,1*7A
$GLGSV,3,2,10,75,04,342,24,76,11,036,,77,03,078,,82,39,159,46,1*7A
$GLGSV,3,3,10,83,81,212,31,84,25,325,34,1*70
$GAGSV,3,1,11,07,57,070,42,08,10,042,25,12,13,307,28,13,07,129,43,7*7A
$GAGSV,3,2,11,16,04,335,,19,12,208,27,24,04,311,,25,01,357,,7*76
$GAGSV,3,3,11,26,58,132,48,29,54,186,40,33,67,303,35,7*40
$GBGSV,2,1,08,02,03,100,32,05,19,122,43,06,29,059,41,09,32,076,41,1*7F
$GBGSV,2,2,08,16,28,054,41,26,09,073,44,27,33,308,38,28,62,250,33,1*72
$GNRMC,230028.00,A,4843.25975,N,00920.55541,E,0.016,,070225,,,A,V*16
$GNGGA,230028.00,4843.25975,N,00920.55541,E,1,12,0.51,251.9,M,47.6,M,,*48
$GPGSV,3,1,11,01,50,135,46,02,45,146,45,03,77,035,41,04,54,191,40,1*6E
$GPGSV,3,2,11,06,15,309,,09,26,211,40,12,01,347,,17,42,259,,1*6A
$GPGSV,3,3,11,19,35,297,40,28,23,055,39,31,27,082,47,1*5D
$GLGSV,3,1,10,66,02,046,10,67,53,039,42,68,70,248,37,69,20,231,42,1*79
$GLGSV,3,2,10,75,04,342,24,76,11,036,,77,03,078,,82,39,159,46,1*7A
$GLGSV,3,3,10,83,81,212,31,84,25,325,34,1*70
$GAGSV,3,1,11,07,57,070,42,08,10,042,25,12,13,307,28,13,07,129,43,7*7A
$GAGSV,3,2,11,16,04,335,,19,12,208,28,24,04,311,,25,01,357,,7*79
$GAGSV,3,3,11,26,58,132,48,29,54,186,40,33,67,303,35,7*40
$GBGSV,2,1,08,02,03,100,32,05,19,122,43,06,29,059,41,09,32,076,41,1*7F
$GBGSV,2,2,08,16,28,054,41,26,09,073,44,27,33,308,38,28,62,250,33,1*72
$GNRMC,230029.00,A,4843.25974,N,00920.55545,E,0.012,,070225,,,A,V*16
$GNGGA,230029.00,4843.25974,N,00920.55545,E,1,12,0.51,252.1,M,47.6,M,,*47
$GPGSV,3,1,11,01,50,135,46,02,45,146,45,03,77,035,41,04,54,191,39,1*60
$GPGSV,3,2,11,06,15,309,,09,26,211,40,12,01,347,,17,42,259,,1*6A
$GPGSV,3,3,11,19,35,297,40,28,23,055,39,31,27,082,47,1*5D
$GLGSV,3,1,10,66,02,046,09,67,53,039,43,68,70,248,37,69,20,231,43,1*71
$GLGSV,3,2,10,75,04,342,23,76,11,036,,77,03,078,,82,39,159,46,1*7D
$GLGSV,3,3,10,83,81,212,32,84,25,325,34,1*73
$GAGSV,3,1,11,07,57,070,42,08,10,042,26,12,13,307,28,13,07,129,43,7*79
$GAGSV,32,11,16,04,335,,19,12,208,28,24,04,311,,25,01,357,,7*79
$GAGSV,3,3,11,26,58,132,48,29,54,186,40,33,67,303,35,7*40
$GBGSV,2,1,08,02,03,100,32,05,19,122,43,06,29,059,41,09,32,076,41,1*7F
$GBGSV,2,2,08,16,28,054,41,26,09,073,44,27,33,308,38,28,62,250,33,1*72
$GNRMC,230030.00,A,4843.25973,N,00920.55545,E,0.020,,070225,,,A,V*18
$GNGGA,230030.00,4843.25973,N,00920.55545,E,1,12,0.53,252.1,M,47.6,M,,*4A
$GPGSV,3,1,11,01,50,135,46,02,45,146,45,03,77,035,41,04,54,191,39,1*60
$GPGSV,3,2,11,06,15,309,,09,26,211,40,12,01,347,,17,42,259,,1*6A
$GPGSV,3,3,11,19,35,297,40,28,23,055,39,31,27,082,47,1*5D
$GLGSV,3,1,10,66,02,046,12,67,53,039,43,68,70,248,37,69,20,231,43,1*7B
$GLGSV,3,2,10,75,04,342,23,76,11,036,,77,03,078,,82,39,159,46,1*7D
$GLGSV,3,3,10,83,81,212,32,84,25,325,34,1*73
$GAGSV,3,1,11,07,57,070,42,08,10,042,26,12,13,307,28,13,07,129,43,7*79
$GAGSV,3,2,11,16,04,335,,19,12,208,28,24,04,311,,25,01,357,,7*79
$GAGSV,3,3,11,26,58,132,47,29,54,186,40,33,67,303,35,7*4F
$GBGSV,2,1,08,02,03,100,32,05,19,122,43,06,29,059,41,09,32,076,41,1*7F
$GBGSV,2,2,08,16,28,054,41,26,09,073,44,27,33,308,38,28,62,250,33,1*72
$GNRMC,230031.00,A,4843.25973,N,00920.55545,E,0.017,,070225,,,A,V*1D
$GNGGA,230031.00,4843.25973,N,00920.55545,E,1,12,0.51,252.2,M,47.6,M,,*4A
$GPGSV,3,1,11,01,50,135,46,02,45,146,45,03,77,035,41,04,54,191,39,1*60
$GPGSV,3,2,11,06,15,309,,09,26,211,40,12,01,347,,17,42,259,,1*6A
$GPGSV,3,3,11,19,35,297,40,28,23,055,40,31,27,082,47,1*53
$GLGSV,3,1,10,66,02,046,13,67,53,039,43,68,70,248,36,69,20,231,43,1*7B
$GLGSV,3,2,10,75,04,342,22,76,11,036,,77,03,078,,82,39,159,45,1*7F
$GLGSV,3,3,10,83,81,212,32,84,25,325,34,1*73
$GAGSV,3,1,11,07,57,070,42,08,10,042,26,12,13,307,28,13,07,129,43,7*79
$GAGSV,3,2,11,16,04,335,,19,12,208,28,24,04,311,,25,01,357,,7*79
$GAGSV,3,3,11,26,58,132,47,29,54,186,40,33,67,303,35,7*4F
$GBGSV,2,1,08,02,03,100,32,05,19,122,43,06,29,059,41,09,32,076,42,1*7C
$GBGSV,2,2,08,16,28,054,41,26,09,073,44,27,33,308,38,28,62,250,32,1*73
$GNRMC,230032.00,A,4843.25974,N,00920.55546,E,0.028,,070225,,,A,V*16
$GNGGA,230032.00,4843.25974,N,00920.55546,E,1,12,0.51,252.3,M,47.6,M,,*4C
$GPGSV,3,1,11,01,50,135,46,02,45,146,45,03,77,035,41,04,54,191,38,1*61
$GPGSV,3,2,11,06,15,309,,09,26,211,40,12,01,347,,17,42,259,,1*6A
$GPGSV,3,3,11,19,35,297,40,28,23,055,41,31,27,082,46,1*53
$GLGSV,3,1,10,66,02,046,11,67,53,039,44,68,70,248,35,69,20,231,43,1*7D
$GLGSV,3,2,10,75,04,342,22,76,11,036,,77,03,078,,82,39,159,45,1*7F
$GLGSV,3,3,10,83,81,212,32,84,25,325,33,1*74
$GAGSV,3,1,11,07,57,070,42,08,10,042,25,12,13,307,28,13,07,129,43,7*7A
$GAGSV,3,2,11,16,04,335,,19,12,208,28,24,04,311,,25,01,357,,7*79
$GAGSV,3,3,11,26,58,132,47,29,54,186,40,33,67,303,35,7*4F
$GBGSV,2,1,08,02,03,100,32,05,19,122,43,06,29,059,41,09,32,076,42,1*7C
$GBGSV,2,2,08,16,28,054,41,26,09,073,44,27,33,308,38,28,62,250,32,1*73
$GNRMC,230033.00,A,4843.25976,N,00920.55547,E,0.015,,070225,,,A,V*1A
$GNGGA,230033.00,4843.25976,N,00920.55547,E,1,12,0.51,252.3,M,47.6,M,,*4E
$GPGSV,3,1,11,01,50,135,46,02,45,146,46,03,77,035,41,04,54,191,38,1*62
$GPGSV,3,2,11,06,15,309,,09,26,211,40,12,01,347,,17,42,259,,1*6A
$GPGSV,3,3,11,19,35,297,40,28,23,055,41,31,27,082,46,1*53
$GLGSV,3,1,10,66,02,046,12,67,53,039,44,68,70,248,35,69,20,231,43,1*7E
$GLGSV,3,3,10,83,81,212,33,84,25,325,33,1*75
$GAGSV,3,1,11,07,57,070,42,08,10,042,25,12,13,307,28,13,07,129,43,7*7A
$GAGSV,3,2,11,16,04,335,,19,12,208,27,24,04,311,,25,01,357,,7*76
$GAGSV,3,3,11,26,58,132,47,29,54,186,40,33,67,303,35,7*4F
$GBGSV,2,1,08,02,03,100,32,05,19,122,43,06,29,059,41,09,32,076,41,1*7F
$GBGSV,2,2,08,16,28,054,41,26,09,073,44,27,33,308,38,28,62,250,32,1*73
$GNRMC,230034.00,A,4843.25980,N,00920.55549,E,0.039,,070225,,,A,V*14
$GNGGA,230034.00,4843.25980,N,00920.55549,E,1,12,0.51,252.4,M,47.6,M,,*49
$GPGSV,3,1,11,01,50,135,46,02,45,146,46,03,77,035,41,04,54,191,38,1*62
$GPGSV,3,2,11,06,15,309,,09,26,211,40,12,01,347,,17,42,259,,1*6A
$GPGSV,3,3,11,19,35,297,40,28,23,055,42,31,27,082,46,1*50
$GLGSV,3,2,10,75,04,342,19,76,11,036,,77,03,078,,82,39,159,45,1*77
$GLGSV,3,3,10,83,81,212,33,84,25,325,33,1*75
$GAGSV,3,1,11,07,57,070,42,08,10,042,26,12,13,307,28,13,07,129,44,7*7E
$GAGSV,3,2,11,16,04,335,,19,12,208,27,24,04,311,,25,01,357,,7*76
$GAGSV,3,3,11,26,58,132,47,29,54,186,40,33,67,303,35,7*4F
$GBGSV,2,1,08,02,03,100,32,05,19,122,43,06,29,059,41,09,32,076,42,1*7C
$GBGSV,2,2,08,16,28,054,41,26,09,073,44,27,33,308,38,28,62,250,32,1*73
$GNRMC,230035.00,A,4843.25983,N,00920.55549,E,0.014,,070225,,,A,V*19
$GNGGA,230035.00,4843.25983,N,00920.55549,E,1,12,0.53,252.4,M,47.6,M,,*49
$GPGSV,3,1,11,01,50,135,46,02,45,146,46,03,77,035,41,04,54,191,38,1*62
$GPGSV,3,2,11,06,15,309,,09,26,211,40,12,01,347,,17,42,259,,1*6A
$GPGSV,3,3,11,19,35,297,40,28,23,055,42,31,27,082,46,1*50
$GLGSV,3,1,10,66,02,046,11,67,53,039,44,68,70,248,35,69,20,231,42,1*7C
$GLGSV,3,2,10,75,04,342,17,76,11,036,,77,03,078,,82,39,159,44,1*78
$GLGSV,3,3,10,83,81,212,34,84,25,325,33,1*72
$GAGSV,3,1,11,07,57,070,42,08,10,042,27,12,13,307,28,13,07,129,44,7*7F
$GAGSV,3,2,11,16,04,335,,19,12,208,26,24,04,311,,25,01,357,,7*77
$GAGSV,3,3,11,26,58,132,47,29,54,186,40,33,67,303,35,7*4F
$GBGSV,2,1,08,02,03,100,32,05,19,122,43,06,29,059,41,09,32,076,42,1*7C
$GBGSV,2,2,08,16,28,054,41,26,09,073,44,27,33,308,38,28,62,250,31,1*70
$GNRMC,230036.00,A,4843.25987,N,00920.55550,E,0.007,,070225,,,A,V*14
$GNGGA,230036.00,4843.25987,N,00920.55550,E,1,12,0.51,252.5,M,47.6,M,,*45
$GPGSV,3,1,11,01,50,135,46,02,45,146,46,03,77,035,41,04,54,191,38,1*62
$GPGSV,3,2,11,06,15,309,,09,26,211,40,12,01,347,,17,42,259,,1*6A
$GPGSV,3,3,11,19,35,297,40,28,23,055,42,31,27,082,46,1*50
$GLGSV,3,1,10,66,02,046,13,67,53,039,44,68,70,248,35,69,20,231,42,1*7E
$GLGSV,3,2,10,75,04,342,20,76,11,036,,77,03,078,,82,39,159,44,1*7C
$GLGSV,3,3,10,83,81,212,34,84,25,325,33,1*72
$GAGSV,3,1,11,07,57,069,42,08,10,042,26,12,13,307,28,13,07,129,43,7*71
$GAGSV,3,2,11,16,04,335,,19,12,208,25,24,04,311,,25,01,357,,7*74
$GAGSV,3,3,11,26,58,132,47,29,54,186,40,33,67,303,35,7*4F
$GBGSV,2,1,08,02,03,100,32,05,19,122,43,06,29,059,41,09,32,076,42,1*7C
$GBGSV,2,2,08,16,28,054,41,26,09,073,44,27,33,308,38,28,62,250,31,1*70
$GNRMC,230037.00,A,4843.25989,N,00920.55549,E,0.004,,070225,,,A,V*10
$GNGGA,230037.00,4843.25989,N,00920.55549,E,1,12,0.51,252.5,M,47.6,M,,*42
$GPGSV,3,1,11,01,50,135,46,02,45,146,46,03,77,035,41,04,54,191,38,1*62
$GPGSV,3,2,11,06,15,309,,09,26,211,40,12,01,347,,17,42,259,,1*6A
$GPGSV,3,3,11,19,35,297,40,28,23,055,43,31,27,082,46,1*51
$GLGSV,3,1,10,66,02,046,14,67,53,039,45,68,70,248,35,69,20,231,42,1*78
$GLGSV,3,2,10,75,04,342,22,76,11,036,,77,03,078,,82,39,159,44,1*7E
$GLGSV,3,3,10,83,81,212,34,84,25,325,34,1*75
$GAGSV,3,1,11,07,57,069,42,08,10,042,26,12,13,307,28,13,07,129,44,7*76
$GAGSV,3,2,11,16,04,335,,19,12,208,25,24,04,311,,25,01,357,,7*74
$GAGSV,3,3,11,26,58,132,47,29,54,186,40,33,67,303,35,7*4F
$GBGSV,2,1,08,02,03,100,32,05,19,122,43,06,29,059,41,09,32,076,42,1*7C
$GBGSV,2,2,08,16,28,054,41,26,09,073,44,27,33,308,38,28,62,250,30,1*71
$GNRMC,230038.00,A,4843.25992,N,00920.55551,E,0.014,,070225,,,A,V*1D
$GNGGA,230038.00,4843.25992,N,00920.55551,E,1,12,0.51,252.5,M,47.6,M,,*4E
$GPGSV,3,1,11,01,50,135,46,02,45,146,46,03,77,035,41,04,54,191,38,1*62
$GPGSV,3,2,11,06,15,309,,09,26,211,40,12,01,347,,17,42,259,,1*6A
$GPGSV,3,3,11,19,35,297,40,28,23,055,43,31,27,082,46,1*51
$GLGSV,3,1,10,66,02,046,11,67,53,039,45,68,70,248,35,69,20,231,43,1*7C
$GLGSV,3,2,10,75,04,342,24,76,1,036,,77,03,078,,82,39,159,44,1*78
$GLGSV,3,3,10,83,81,212,34,84,25,325,34,1*75
$GAGSV,3,1,11,07,57,069,42,08,10,042,26,12,13,307,29,13,07,129,44,7*77
$GAGSV,3,2,11,16,04,335,,19,12,208,25,24,04,311,,25,01,357,,7*74
$GAGSV,3,3,11,26,58,132,47,29,54,186,40,33,67,303,35,7*4F
$GBGSV,2,1,08,02,03,100,32,05,19,122,43,06,29,059,41,09,32,076,42,1*7C
$GBGSV,2,2,08,16,28,054,41,26,09,073,43,27,33,308,39,28,62,250,29,1*7F
$GNRMC,230039.00,A,4843.25996,N,00920.55557,E,0.006,,070225,,,A,V*1D
$GNGGA,230039.00,4843.25996,N,00920.55557,E,1,12,0.51,252.6,M,47.6,M,,*4E
$GPGSV,3,1,11,01,50,135,46,02,45,146,46,03,77,035,41,04,54,191,39,1*63
$GPGSV,3,2,11,06,15,309,,09,26,211,41,12,01,347,,17,42,259,,1*6B
$GPGSV,3,3,11,19,35,297,40,28,23,055,43,31,27,082,46,1*51
$GLGSV,3,1,10,66,02,046,10,67,53,039,45,68,70,248,35,69,20,231,43,1*7D
$GLGSV,3,2,10,75,04,342,24,76,11,036,,77,03,078,,82,39,159,44,1*78
$GLGSV,3,3,10,83,81,212,33,84,25,325,34,1*72
$GAGSV,3,1,11,07,57,069,42,08,10,042,26,12,13,307,29,13,07,129,44,7*77
$GAGSV,3,2,11,16,04,335,,19,12,208,25,24,04,311,,25,01,357,,7*74
$GAGSV,3,3,11,26,58,132,47,29,54,186,40,33,67,303,35,7*4F
$GBGSV,2,1,08,02,03,100,32,05,19,122,43,06,29,059,41,09,32,076,41,1*7F
$GBGSV,2,2,08,16,28,054,41,26,09,073,43,27,33,308,38,28,62,250,29,1*7E
$GNRMC,230040.00,A,4843.25999,N,00920.55560,E,0.001,,070225,,,A,V*1F
$GNGGA,230040.00,4843.25999,N,00920.55560,E,1,12,0.51,252.7,M,47.6,M,,*4A
$GPGSV,3,1,11,01,50,135,46,02,45,146,46,03,77,035,41,04,54,191,39,1*63
$GPGSV,3,2,11,06,15,309,,09,26,211,40,12,01,347,,17,42,259,,1*6A
$GLGSV,3,1,10,66,02,046,13,67,53,039,45,68,70,248,35,69,20,231,43,1*7E
$GLGSV,3,2,10,75,04,342,22,76,11,036,,77,03,078,,82,39,159,44,1*7E
$GLGSV,3,3,10,83,81,212,33,84,25,325,35,1*73
$GAGSV,3,1,11,07,57,069,42,08,10,042,26,12,13,307,29,13,07,129,44,7*77
$GAGSV,3,2,11,16,04,335,,19,12,208,25,24,04,311,,25,01,357,,7*74
$GAGSV,3,3,11,26,58,132,48,29,54,186,40,33,67,303,35,7*40
$GBGSV,2,1,08,02,03,100,32,05,19,122,43,06,29,059,41,09,32,076,41,1*7F
$GBGSV,2,2,08,16,28,054,41,26,09,073,43,27,33,308,39,28,62,250,28,1*7E
$GNRMC,230041.00,A,4843.26002,N,00920.55562,E,0.007,,070225,,,A,V*12
$GNGGA,230041.00,4843.26002,N,00920.55562,E,1,12,0.53,252.8,M,47.6,M,,*4C
$GPGSV,3,1,11,01,50,135,46,02,45,146,46,03,77,035,41,04,54,191,39,1*63
$GPGSV,3,2,11,06,15,309,,09,26,211,41,12,01,347,,17,42,259,,1*6B
$GPGSV,3,3,11,19,35,297,41,28,23,055,43,31,27,082,45,1*53
$GLGSV,3,1,10,66,02,046,14,67,53,039,45,68,70,248,36,69,20,231,43,1*7A
$GLGSV,3,2,10,75,04,342,21,76,11,036,,77,03,078,,82,39,159,44,1*7D
$GLGSV,3,3,10,83,81,212,33,84,25,325,35,1*73
$GAGSV,3,1,11,07,57,069,42,08,10,042,26,12,13,308,29,13,07,129,44,7*78
$GAGSV,3,2,11,16,04,335,,19,12,208,24,24,04,311,,25,01,357,,7*75
$GAGSV,3,3,11,26,58,132,48,29,54,186,40,33,67,303,35,7*40
$GBGSV,2,1,08,02,03,100,32,05,19,122,43,06,29,059,40,09,32,076,42,1*7D
$GBGSV,2,2,08,16,28,054,41,26,09,073,42,27,33,308,38,28,62,250,28,1*7E
$GNRMC,230042.00,A,4843.26006,N,00920.55566,E,0.013,,070225,,,A,V*14
$GNGGA,230042.00,4843.26006,N,00920.55566,E,1,12,0.51,252.9,M,47.6,M,,*4C
$GPGSV,3,1,11,01,50,135,46,02,45,146,46,03,77,035,41,04,54,191,38,1*62
$GPGSV,3,2,11,06,15,309,,09,26,211,41,12,01,347,,17,42,259,,1*6B
$GPGSV,3,3,11,19,35,297,41,28,23,055,43,31,27,082,46,1*50
$GLGSV,3,1,10,66,02,046,14,67,53,039,45,68,70,248,36,69,20,231,44,1*7D
$GLGSV,3,2,10,75,04,342,20,76,11,036,,77,03,078,,82,39,159,44,1*7C
$GLGSV,3,3,10,83,81,212,32,84,25,325,35,1*72
$GAGSV,3,1,11,07,57,069,42,08,10,042,25,12,13,308,29,13,06,129,44,7*7A
$GAGSV,3,2,11,16,04,335,,19,12,208,24,24,04,311,,25,01,357,,7*75
$GAGSV,3,3,11,26,58,132,48,29,54,186,41,33,67,303,35,7*41
$GBGSV,2,1,08,02,03,100,32,05,19,122,43,06,29,059,40,09,32,076,42,1*7D
$GBGSV,2,2,08,16,28,054,41,26,09,073,42,27,33,308,38,28,62,250,27,1*71
$GNRMC,230043.00,A,4843.26009,N,00920.55571,E,0.020,,070225,,,A,V*1C
$GNGGA,230043.00,4843.26009,N,00920.55571,E,1,12,0.51,253.0,M,47.6,M,,*4C
$GPGSV,3,1,11,01,50,135,46,02,45,146,47,03,77,035,41,04,54,191,39,1*62
$GPGSV,3,2,11,06,15,309,,09,26,211,42,12,01,347,,17,42,259,,1*68
$GPGSV,3,3,11,19,35,297,41,28,23,055,43,31,27,082,46,1*50
$GLGSV,3,1,10,66,02,046,13,67,53,039,45,68,70,248,36,69,20,231,44,1*7A
$GLGSV,3,2,10,75,04,342,20,76,11,036,,77,03,078,,82,39,159,44,1*7C
$GLGSV,3,3,10,83,81,212,33,84,25,325,35,1*73
$GAGSV,3,1,11,07,57,069,42,08,10,042,25,12,13,308,30,13,06,129,44,7*72
$GAGSV,3,2,11,16,04,335,,19,12,208,23,24,04,311,,25,01,357,,7*72
$GAGSV,3,3,11,26,58,132,48,29,54,186,41,33,67,303,35,7*41
$GBGSV,2,1,08,02,03,100,32,05,19,122,43,06,9,059,40,09,32,076,41,1*7E
$GBGSV,2,2,08,16,28,054,41,26,09,073,42,27,33,308,38,28,62,250,26,1*70
$GNRMC,230044.00,A,4843.26010,N,00920.55577,E,0.023,,070225,,,A,V*16
$GNGGA,230044.00,4843.26010,N,00920.55577,E,1,12,0.51,253.1,M,47.6,M,,*44
$GPGSV,3,1,11,01,50,135,46,02,45,146,46,03,77,035,41,04,54,191,39,1*63
$GPGSV,3,2,11,06,15,309,,09,26,211,42,12,01,347,,17,42,259,,1*68
$GPGSV,3,3,11,19,35,297,40,28,23,055,43,31,27,082,46,1*51
$GLGSV,3,1,10,66,02,046,12,67,53,039,46,68,70,248,37,69,20,231,44,1*79
$GLGSV,3,2,10,75,04,342,22,76,11,036,,77,03,078,,82,39,159,44,1*7E
$GLGSV,3,3,10,83,81,212,34,84,25,325,35,1*74
$GAGSV,3,1,11,07,57,069,42,08,10,042,25,12,13,308,30,13,06,129,44,7*72
$GAGSV,3,2,11,16,04,334,,19,12,208,24,24,04,311,,25,01,357,,7*74
$GAGSV,3,3,11,26,58,132,48,29,54,186,41,33,67,303,36,7*42
$GBGSV,2,1,08,02,03,100,32,05,19,122,43,06,29,059,40,09,32,076,42,1*7D
$GBGSV,2,2,08,16,28,054,41,26,09,073,41,27,33,308,38,28,62,250,26,1*73
$GNRMC,230045.00,A,4843.26011,N,00920.55584,E,0.014,,070225,,,A,V*1E
$GNGGA,230045.00,4843.26011,N,00920.55584,E,1,12,0.51,253.2,M,47.6,M,,*4B
$GPGSV,3,1,11,01,50,135,45,02,45,146,46,03,77,035,41,04,54,191,39,1*60
$GPGSV,3,2,11,06,15,309,,09,26,211,42,12,01,347,,17,42,259,,1*68
$GPGSV,3,3,11,19,35,297,40,28,23,055,43,31,27,082,46,1*51
$GLGSV,3,1,10,66,02,046,13,67,53,039,46,68,70,248,37,69,20,231,44,1*78
$GLGSV,3,2,10,75,04,342,24,76,11,036,,77,03,078,,82,39,159,44,1*78
$GLGSV,3,3,10,83,81,212,34,84,25,325,36,1*77
$GAGSV,3,1,11,07,57,069,42,08,10,042,25,12,13,308,30,13,06,129,44,7*72
$GAGSV,3,2,11,16,04,334,,19,12,209,24,24,04,311,,25,01,357,,7*75
$GAGSV,3,3,11,26,58,132,48,29,54,186,41,33,67,303,36,7*42
$GBGSV,2,1,08,02,03,100,32,05,19,122,43,06,29,059,40,09,32,076,42,1*7D
$GBGSV,2,2,08,16,28,054,41,26,09,073,40,27,33,308,38,28,62,250,26,1*72
$GNRMC,230046.00,A,4843.26012,N,00920.55593,E,0.003,,070225,,,A,V*1E
$GNGGA,230046.00,4843.26012,N,00920.55593,E,1,12,0.51,253.3,M,47.6,M,,*4C
$GPGSV,3,1,11,01,50,135,45,02,45,146,46,03,77,035,41,04,54,191,39,1*60
$GPGSV,3,2,11,06,15,309,,09,26,211,42,12,01,347,,17,42,259,,1*68
$GPGSV,3,3,11,19,35,297,40,28,23,055,43,31,27,082,46,1*51
$GLGSV,3,1,10,66,02,046,13,67,53,039,46,68,70,248,38,69,20,231,44,1*77
$GLGSV,3,2,10,75,04,342,25,76,11,036,,77,03,078,,82,39,159,44,1*79
$GLGSV,3,3,10,83,81,212,34,84,25,325,36,1*77
$GAGSV,3,1,11,07,57,069,42,08,10,042,25,12,13,308,30,13,06,129,44,7*72
$GAGSV,3,2,11,16,04,334,,19,12,209,24,24,04,311,,25,01,357,,7*75
$GAGSV,3,3,11,26,58,132,48,29,54,186,41,33,67,303,36,7*42
$GBGSV,2,1,08,02,03,100,32,05,19,122,43,06,29,059,40,09,32,076,42,1*7D
$GBGSV,2,2,08,16,28,054,41,26,09,073,40,27,33,308,38,28,62,250,26,1*72
$GNRMC,230047.00,A,4843.26012,N,00920.55598,E,0.020,,070225,,,A,V*15
$GNGGA,230047.00,4843.26012,N,00920.55598,E,1,12,0.53,253.4,M,47.6,M,,*43
$GPGSV,3,1,11,01,50,135,45,02,45,146,46,03,77,035,41,04,54,191,39,1*60
$GPGSV,3,2,11,06,15,309,,09,26,211,42,12,01,347,,17,42,259,,1*68
$GPGSV,3,3,11,19,35,297,40,28,23,055,42,31,27,082,46,1*50
$GLGSV,3,1,10,66,02,046,10,67,53,039,46,68,70,248,37,69,20,231,44,1*7B
$GLGSV,3,2,10,75,04,342,25,76,11,036,,77,03,078,,82,39,159,44,1*79
$GLGSV,3,3,10,83,81,212,34,84,25,325,36,1*77
$GAGSV,3,1,11,07,57,069,42,08,10,042,25,12,13,308,29,13,06,129,44,7*7A
$GAGSV,3,2,11,16,04,334,,19,12,209,25,24,04,311,,25,01,357,,7*74
$GAGSV,3,3,11,26,58,132,48,29,54,186,41,33,67,303,37,7*43
$GBGSV,2,1,08,02,03,100,32,05,19,122,43,06,29,059,40,09,32,076,42,1*7D
$GBGSV,2,2,08,16,28,054,41,26,09,073,39,27,33,308,38,28,62,250,27,1*7D
$GNRMC,230048.00,A,4843.26013,N,00920.55604,E,0.020,,070225,,,A,V*1D
$GNGGA,230048.00,4843.26013,N,00920.55604,E,1,12,0.51,253.4,M,47.6,M,,*49
$GPGSV,3,1,11,01,50,135,45,02,45,146,46,03,77,035,41,04,54,191,39,1*60
$GPGSV,3,2,11,06,15,309,,09,26,211,42,12,01,347,,17,42,259,,1*68
$GPGSV,3,3,11,19,35,297,40,28,23,055,42,31,27,082,46,1*50
$GLGSV,3,1,10,66,02,046,13,67,53,039,46,68,70,248,38,69,20,231,44,1*77
$GLGSV,3,2,10,75,04,342,26,76,11,036,,77,03,078,,82,39,159,44,1*7A
$GLGSV,3,3,10,83,81,212,33,84,25,325,36,1*70
$GAGSV,3,1,11,07,57,069,42,08,10,042,25,12,13,308,30,13,06,129,44,7*72
$GAGSV,3,2,11,16,04,334,,19,12,209,25,24,04,310,,25,01,357,,7*75
$GAGSV,3,3,11,26,58,132,48,29,54,186,41,33,67,303,37,7*43
$GBGSV,2,1,08,02,03,100,32,05,19,122,43,06,29,059,40,09,32,076,42,1*7D
$GBGSV,2,2,08,16,28,054,41,26,09,073,39,27,33,308,38,28,62,250,27,1*7D
$GNRMC,230049.00,A,4843.26013,N,00920.55609,E,0.017,,070225,,,A,V*15
$GNGGA,230049.00,4843.26013,N,00920.55609,E,1,12,0.51,253.5,M,47.6,M,,*44
$GPGSV,3,1,11,01,50,135,45,02,45,146,45,03,77,035,41,04,54,191,39,1*63
$GPGSV,3,2,11,06,15,309,,09,26,211,42,12,01,347,,17,42,259,,1*68
$GPGSV,3,3,11,19,35,297,40,28,23,055,42,31,27,082,46,1*50
$GLGSV,3,1,10,66,02,046,11,67,53,039,46,68,70,248,37,69,20,231,44,1*7A
$GLGSV,3,2,10,75,04,342,26,76,11,036,,77,03,078,,82,39,159,43,1*7D
$GLGSV,3,3,10,83,81,212,33,84,25,325,36,1*70
$GAGSV,3,1,11,07,57,069,42,08,10,042,25,12,13,308,30,13,06,129,44,7*72
$GAGSV,3,2,11,16,04,334,,19,12,209,25,24,04,310,,25,01,357,,7*75
$GAGSV,3,3,11,26,58,132,48,29,54,186,41,33,67,303,37,7*43
$GBGSV,2,1,08,02,03,100,32,05,19,122,43,06,29,059,40,09,32,076,42,1*7D
$GBGSV,2,2,08,16,28,054,41,26,09,073,39,27,33,308,38,28,62,250,28,1*72
$GNRMC,230050.00,A,4843.26012,N,00920.55613,E,0.009,,070225,,,A,V*18
$GNGGA,230050.00,4843.26012,N,00920.55613,E,1,12,0.51,253.5,M,47.6,M,,*46
$GPGSV,3,1,11,01,50,135,45,02,45,146,45,03,77,035,41,04,54,191,40,1*6D
$GPGSV,3,2,11,06,15,309,,09,26,211,42,12,01,347,,17,42,259,,1*68
$GPGSV,3,3,11,19,35,297,40,28,23,055,42,31,27,082,46,1*50
$GLGSV,3,1,10,66,02,046,11,67,53,039,46,68,70,248,38,69,20,231,44,1*75
$GLGSV,3,2,10,75,04,342,27,76,11,036,,77,03,078,,82,39,159,43,1*7C
$GLGSV,3,3,10,83,81,212,33,84,25,325,36,1*70
$GAGSV,3,1,1,07,57,069,42,08,10,042,25,12,13,308,30,13,06,129,44,7*72
$GAGSV,3,2,11,16,04,334,,19,12,209,26,24,04,310,,25,01,357,,7*76
$GAGSV,3,3,11,26,58,133,48,29,54,186,41,33,67,303,37,7*42
$GBGSV,2,1,08,02,03,100,32,05,19,122,43,06,29,059,40,09,32,076,42,1*7D
$GBGSV,2,2,08,16,28,054,41,26,09,073,39,27,33,308,39,28,62,250,28,1*73
$GNRMC,230051.00,A,4843.26012,N,00920.55621,E,0.006,,070225,,,A,V*17
$GNGGA,230051.00,4843.26012,N,00920.55621,E,1,12,0.51,253.6,M,47.6,M,,*45
$GPGSV,3,1,11,01,50,135,45,02,45,146,45,03,77,035,41,04,54,191,40,1*6D
$GPGSV,3,2,11,06,15,309,,09,26,211,42,12,01,347,,17,42,259,,1*68
$GPGSV,3,3,11,19,35,297,39,28,23,055,42,31,27,082,46,1*5E
$GLGSV,3,1,10,66,02,046,10,67,53,039,46,68,70,248,38,69,20,231,44,1*74
$GLGSV,3,2,10,75,04,342,28,76,11,036,,77,03,078,,82,39,159,43,1*73
$GLGSV,3,3,10,83,81,212,33,84,25,325,36,1*70
$GAGSV,3,1,11,07,57,069,42,08,10,042,25,12,13,308,30,13,06,129,44,7*72
$GAGSV,3,2,11,16,04,334,,19,12,209,26,24,04,310,,25,01,357,,7*76
$GAGSV,3,3,11,26,58,133,48,29,54,186,41,33,67,303,37,7*42
$GBGSV,2,1,08,02,03,100,32,05,19,122,44,06,29,059,41,09,32,076,42,1*7B
$GBGSV,2,2,08,16,28,054,41,26,09,073,39,27,33,308,39,28,62,250,29,1*72
$GNRMC,230052.00,A,4843.26011,N,00920.55625,E,0.005,,070225,,,A,V*10
$GNGGA,230052.00,4843.26011,N,00920.55625,E,1,12,0.54,253.6,M,47.6,M,,*44
$GPGSV,3,1,11,01,50,135,45,02,45,146,45,03,77,035,41,04,54,191,40,1*6D
$GPGSV,3,2,11,06,15,309,,09,26,211,42,12,01,347,,17,42,259,,1*68
$GPGSV,3,3,11,19,35,297,39,28,23,055,42,31,27,082,46,1*5E
$GLGSV,3,1,10,66,02,046,14,67,53,039,46,68,70,248,38,69,20,231,43,1*77
$GLGSV,3,2,10,75,04,342,29,76,11,036,,77,03,078,,82,39,159,42,1*73
$GLGSV,3,3,10,83,81,212,33,84,25,325,36,1*70
$GAGSV,3,1,11,07,57,069,42,08,10,042,25,12,13,308,29,13,06,129,44,7*7A
$GAGSV,3,2,11,16,04,334,,19,12,209,26,24,04,310,,25,01,357,,7*76
$GAGSV,3,3,11,26,58,133,48,29,54,186,41,33,67,303,37,7*42
$GBGSV,2,1,08,02,03,100,32,05,19,122,43,06,29,059,40,09,32,076,42,1*7D
$GBGSV,2,2,08,16,28,054,41,26,09,073,38,27,33,308,39,28,62,250,29,1*73
$GNRMC,230053.00,A,4843.26011,N,00920.55629,E,0.006,,070225,,,A,V*1E
$GNGGA,230053.00,4843.26011,N,00920.55629,E,1,12,0.52,253.6,M,47.6,M,,*4F
$GPGSV,3,1,11,0,50,135,45,02,45,146,45,03,77,035,41,04,54,191,39,1*63
$GPGSV,3,2,11,06,15,309,,09,26,211,42,12,01,347,,17,42,259,,1*68
$GPGSV,3,3,11,19,35,297,39,28,23,055,42,31,27,082,46,1*5E
$GLGSV,3,1,10,66,02,046,12,67,53,039,46,68,70,248,38,69,20,231,43,1*71
$GLGSV,3,2,10,75,04,342,29,76,11,036,,77,03,078,,82,39,159,41,1*70
$GLGSV,3,3,10,83,81,212,33,84,25,325,36,1*70
$GAGSV,3,1,11,07,57,069,42,08,10,042,26,12,13,308,29,13,06,129,44,7*79
$GAGSV,3,2,11,16,04,334,,19,12,209,26,24,04,310,,25,01,357,,7*76
$GAGSV,3,3,11,26,58,133,48,29,54,186,41,33,67,303,37,7*42
$GBGSV,2,1,08,02,03,100,32,05,19,122,43,06,29,059,40,09,32,076,42,1*7D
$GBGSV,2,2,08,16,28,054,41,26,09,073,38,27,33,308,38,28,62,250,29,1*72
$GNRMC,230054.00,A,4843.26011,N,00920.55635,E,0.010,,070225,,,A,V*13
$GNGGA,230054.00,4843.26011,N,00920.55635,E,1,12,0.52,253.7,M,47.6,M,,*44
$GPGSV,3,1,11,01,50,135,45,02,45,146,45,03,77,035,41,04,54,191,39,1*63
$GPGSV,3,2,11,06,15,309,,09,26,211,42,12,01,347,,17,42,259,,1*68
$GPGSV,3,3,11,19,35,297,39,28,23,055,42,31,27,082,47,1*5F
$GLGSV,3,1,10,66,02,046,13,67,53,039,46,68,70,248,38,69,20,231,43,1*70
$GLGSV,3,2,10,75,04,342,29,76,11,036,,77,03,078,,82,39,159,41,1*70
$GLGSV,3,3,10,83,81,212,34,84,25,325,36,1*77
$GAGSV,3,1,11,07,57,069,42,08,10,042,26,12,13,308,29,13,06,129,44,7*79
$GAGSV,3,2,11,16,04,334,,19,12,209,26,24,04,310,,25,01,357,,7*76
$GAGSV,3,3,11,26,58,133,48,29,54,186,40,33,67,303,37,7*43
$GBGSV,2,1,08,02,03,100,32,05,19,122,43,06,29,059,40,09,32,076,42,1*7D
$GBGSV,2,2,08,16,28,054,41,26,09,073,38,27,33,308,38,28,62,250,30,1*7A
$GNRMC,230055.00,A,4843.26013,N,00920.55643,E,0.016,,070225,,,A,V*17
$GNGGA,230055.00,4843.26013,N,00920.55643,E,1,12,0.51,253.8,M,47.6,M,,*4A
$GPGSV,3,1,11,01,50,135,45,02,45,146,45,03,77,035,41,04,54,191,39,1*63
$GPGSV,3,2,11,06,15,309,,09,26,211,42,12,01,347,,17,42,259,,1*68
$GPGSV,3,3,11,19,35,297,39,28,23,055,42,31,27,082,47,1*5F
$GLGSV,3,1,10,66,02,046,12,67,53,039,46,68,70,248,38,69,20,231,43,1*71
$GLGSV,3,2,10,75,04,342,30,76,11,036,,77,03,078,,82,39,159,40,1*79
$GLGSV,3,3,10,83,81,212,34,84,25,325,36,1*77
$GAGSV,3,1,11,07,57,069,43,08,10,042,26,12,13,308,29,13,06,129,44,7*78
$GAGSV,3,2,11,16,04,334,,19,12,209,25,24,04,310,,25,01,357,,7*75
$GAGSV,3,3,11,26,58,133,48,29,54,186,40,33,68,303,37,7*4C
$GBGSV,2,1,08,02,03,100,32,05,19,122,44,06,29,059,41,09,32,076,42,1*7B
$GBGSV,2,2,08,16,28,054,41,26,09,073,38,27,33,308,38,28,62,250,30,1*7A
$GNRMC,230056.00,A,4843.26015,N,00920.55652,E,0.003,,070225,,,A,V*16
$GNGGA,230056.00,4843.26015,N,00920.55652,E,1,12,0.51,253.9,M,47.6,M,,*4E
$GPGSV,3,1,11,01,50,135,44,02,45,146,45,03,77,035,41,04,54,191,39,1*62
$GPGSV,3,2,11,06,15,309,,09,26,211,42,12,01,347,,17,42,259,,1*68
$GPGSV,3,3,11,19,35,297,39,28,23,055,42,31,27,082,47,1*5F
$GLGSV,3,1,10,66,02,046,12,67,53,039,46,68,70,248,38,69,20,231,43,1*71
$GLGSV,3,2,10,75,04,342,30,76,11,036,,77,03,078,,82,39,159,40,1*79
$GLGSV,3,3,10,83,81,212,34,84,25,325,35,1*74
$GAGSV,3,1,11,07,57,069,43,08,10,042,26,12,13,308,29,13,06,129,44,7*78
$GAGSV,3,2,11,16,04,334,,19,12,209,25,24,04,310,,25,01,357,,7*75
$GAGSV,3,3,11,26,58,133,48,29,54,186,40,33,68,303,37,7*4C
$GBGSV,2,1,08,02,03,100,32,05,19,122,43,06,29,059,41,09,32,076,42,1*7C
$GBGSV,2,2,08,16,28,054,41,26,09,073,38,27,33,308,38,28,62,250,30,1*7A
$GNRMC,230057.00,A,4843.26014,N,00920.55656,E,0.009,,070225,,,A,V*18
$GNGGA,230057.00,4843.26014,N,00920.55656,E,1,12,0.53,253.9,M,47.6,M,,*48
$GPGSV,3,1,11,01,50,135,44,02,45,146,45,03,77,035,41,04,54,191,39,1*62
$GPGSV,3,2,11,06,15,309,,09,26,211,42,12,01,347,,17,42,259,,1*68
$GPGSV,3,3,11,19,35,297,39,28,23,055,42,31,27,082,47,1*5F
$GLGSV,3,1,10,66,02,046,12,67,53,039,46,68,70,248,38,69,20,231,43,1*71
$GLGSV,3,2,10,75,04,342,30,76,11,036,,77,03,078,,82,39,159,40,1*79
$GLGSV,3,3,10,83,81,212,34,84,25,325,35,1*74
$GAGSV,3,1,11,07,57,069,43,08,10,042,26,12,13,308,29,13,06,129,44,7*78
$GAGSV,3,2,11,16,04,334,,19,12,209,24,24,04,310,,25,01,357,,7*74
$GAGSV,3,3,11,26,58,133,48,29,54,186,40,33,68,303,37,7*4C
$GBGSV,2,1,08,02,03,100,32,05,19,122,43,06,29,059,41,09,32,076,42,1*7C
$GBGSV,2,2,08,16,28,054,41,26,09,073,38,27,33,308,38,28,62,250,31,1*7B
$GNRMC,230058.00,A,4843.26014,N,00920.55662,E,0.004,,070225,,,A,V*1D
$GNGGA,230058.00,4843.26014,N,00920.55662,E,1,12,0.51,253.9,M,47.6,M,,*42
$GPGSV,3,1,11,01,50,135,44,02,45,146,45,03,77,035,41,04,54,191,39,1*62
$GPGSV,3,2,11,06,15,309,,09,26,211,42,12,01,347,,17,42,259,,1*68
$GPGSV,3,3,11,19,35,297,39,28,23,055,42,31,27,082,47,1*5F
$GLGSV,3,1,10,66,02,046,13,67,53,039,46,68,70,248,38,69,20,231,43,1*70
$GLGSV,3,2,10,75,04,342,30,76,11,036,,77,03,078,,82,39,159,39,1*77
$GLGSV,3,3,10,83,81,212,34,84,25,325,35,1*74
$GAGSV,3,1,11,07,57,069,42,08,10,042,26,12,13,308,29,13,06,129,44,7*79
$GAGSV,3,2,11,16,04,334,,19,12,209,24,24,04,310,,25,01,357,,7*74
$GAGSV,3,3,11,26,58,133,48,29,54,186,40,33,68,303,36,7*4D
$GBGSV,2,1,08,02,03,100,32,05,19,122,43,06,29,059,41,09,32,076,42,1*7C
$GBGSV,2,2,08,16,28,054,41,26,09,073,38,27,33,308,38,28,62,250,31,1*7B
$GNRMC,230059.00,A,4843.26015,N,00920.55668,E,0.015,,070225,,,A,V*17
$GNGGA,230059.00,4843.26015,N,00920.55668,E,1,12,0.51,254.0,M,47.6,M,,*46
$GPGSV,3,1,11,01,50,135,44,02,45,146,45,03,77,035,41,04,54,191,38,1*63
$GPGSV,3,2,11,06,15,309,,09,26,211,42,12,01,347,,17,42,259,,1*68
$GPGSV,3,3,11,19,35,297,39,28,23,055,42,31,27,082,47,1*5F
$GLGSV,3,1,10,66,02,046,14,67,53,039,46,68,70,248,37,69,20,231,42,1*79
$GLGSV,3,2,10,75,04,342,30,76,11,036,,77,03,078,,82,39,159,38,1*76
$GLGSV,3,3,10,83,81,212,35,84,25,325,36,1*76
$GAGSV,3,1,11,07,57,069,43,08,10,042,26,12,13,308,29,13,06,129,44,7*78
$GAGSV,32,11,16,04,334,,19,12,209,24,24,04,310,,25,01,357,,7*74
$GAGSV,3,3,11,26,58,133,48,29,54,186,40,33,68,303,36,7*4D
$GBGSV,2,1,08,02,03,100,32,05,19,122,43,06,29,059,41,09,32,076,42,1*7C
$GBGSV,2,2,08,16,28,054,41,26,09,073,38,27,33,308,38,28,62,250,31,1*7B
$GNRMC,230100.00,A,4843.26016,N,00920.55677,E,0.011,,070225,,,A,V*13
$GNGGA,230100.00,4843.26016,N,00920.55677,E,1,12,0.51,254.0,M,47.6,M,,*46
$GPGSV,3,1,11,01,50,135,44,02,45,146,45,03,77,035,41,04,54,191,38,1*63
$GPGSV,3,2,11,06,15,309,,09,26,211,42,12,01,347,,17,42,259,,1*68
$GPGSV,3,3,11,19,35,297,39,28,23,055,43,31,27,082,47,1*5E
$GLGSV,3,1,10,66,02,046,14,67,53,039,45,68,70,248,38,69,20,231,42,1*75
$GLGSV,3,2,10,75,04,342,31,76,11,036,,77,03,078,,82,39,159,37,1*78
$GLGSV,3,3,10,83,81,212,34,84,25,325,5,1*74
$GAGSV,3,1,11,07,57,069,43,08,10,042,27,12,13,308,29,13,06,129,44,7*79
$GAGSV,3,2,11,16,04,334,,19,12,209,24,24,04,310,,25,01,357,,7*74
$GAGSV,3,3,11,26,58,133,48,29,54,186,40,33,68,303,36,7*4D
$GBGSV,2,1,08,02,03,100,32,05,19,122,43,06,29,059,41,09,32,076,42,1*7C
$GBGSV,2,2,08,16,28,054,41,26,09,073,38,27,33,308,38,28,62,250,31,1*7B
$GNRMC,230101.00,A,4843.26017,N,00920.55683,E,0.018,,070225,,,A,V*11
$GNGGA,230101.00,4843.26017,N,00920.55683,E,1,12,0.51,254.0,M,47.6,M,,*4D
$GPGSV,3,1,11,01,50,135,44,02,45,146,45,03,77,035,42,04,54,191,38,1*60
$GPGSV,3,2,11,06,15,309,,09,26,211,42,12,01,347,,17,42,259,,1*68
$GPGSV,3,3,11,19,35,297,39,28,23,055,43,31,27,082,47,1*5E
$GLGSV,3,1,10,66,02,046,14,67,53,039,45,68,70,248,38,69,20,231,41,1*76
$GLGSV,3,2,10,75,04,342,30,76,11,036,,77,03,078,,82,39,159,35,1*7B
$GLGSV,3,3,10,83,81,212,34,84,25,325,36,1*77
$GAGSV,3,1,11,07,57,069,43,08,10,042,27,12,13,308,29,13,06,129,44,7*79
$GAGSV,3,2,11,16,04,334,,19,12,209,24,24,04,310,,25,01,357,,7*74
$GAGSV,3,3,11,26,58,133,48,29,54,186,40,33,68,303,36,7*4D
$GBGSV,2,1,08,02,03,100,32,05,19,122,43,06,29,059,41,09,32,076,42,1*7C
$GBGSV,2,2,08,16,28,054,41,26,09,07,38,27,33,308,38,28,62,250,30,1*7A
$GNRMC,230102.00,A,4843.26018,N,00920.55684,E,0.016,,070225,,,A,V*14
$GNGGA,230102.00,4843.26018,N,00920.55684,E,1,12,0.53,254.0,M,47.6,M,,*44
$GPGSV,3,1,11,01,50,135,43,02,45,146,46,03,77,035,42,04,54,191,37,1*6B
$GPGSV,3,2,11,06,15,309,,09,26,211,42,12,01,347,,17,42,259,,1*68
$GPGSV,3,3,11,19,35,297,40,28,23,055,43,31,27,082,47,1*50
$GLGSV,3,2,10,75,04,342,31,76,11,036,,77,03,078,,82,39,159,34,1*7B
$GLGSV,3,3,10,83,81,212,33,84,25,325,35,1*73
$GAGSV,3,1,11,07,57,069,43,08,10,042,25,12,13,308,29,13,06,129,45,7*7A
$GAGSV,3,2,11,16,04,334,,19,12,209,25,24,04,310,,25,01,357,,7*75
$GAGSV,3,3,11,26,58,133,48,29,54,186,40,33,68,303,36,7*4D
$GBGSV,2,1,08,02,03,100,32,05,19,122,43,06,29,059,41,09,32,076,42,1*7C
$GBGSV,2,2,08,16,28,054,41,26,09,073,39,27,33,308,38,28,62,250,30,1*7B
$GNRMC,230103.00,A,4843.26020,N,00920.55691,E,0.015,,070225,,,A,*19
$GNGGA,230103.00,4843.26020,N,00920.55691,E,1,12,0.51,254.0,M,47.6,M,,*48
$GPGSV,3,1,11,01,50,135,43,02,45,146,45,03,77,035,42,04,54,191,37,1*68
$GPGSV,3,2,11,06,15,309,,09,26,211,42,12,01,347,,17,42,259,,1*68
$GPGSV,3,3,11,19,35,297,39,28,23,055,43,31,27,082,47,1*5E
$GLGSV,3,1,10,66,02,046,10,67,53,039,44,68,70,248,38,69,20,231,41,1*73
$GLGSV,3,2,10,75,04,342,30,76,11,036,,77,03,078,,82,39,159,34,1*7A
$GLGSV,3,3,10,83,81,212,33,84,25,325,35,1*73
$GAGSV,3,1,11,07,57,069,43,08,10,042,25,12,13,308,28,13,06,129,45,7*7B
$GAGSV,3,2,11,16,04,334,,19,12,209,25,24,04,310,,25,01,357,,7*75
$GAGSV,3,3,11,26,58,133,48,29,54,186,40,33,68,303,35,7*4E
$GBGSV,2,1,08,02,03,100,33,05,19,122,43,06,29,059,41,09,32,076,42,1*7D
$GBGSV,2,2,08,16,28,054,41,26,09,073,39,27,33,308,38,28,62,250,30,1*7B
$GNRMC,230104.00,A,4843.26021,N,00920.55694,E,0.016,,070225,,,A,V*19
$GNGGA,230104.00,4843.26021,N,00920.55694,E,1,12,0.54,254.1,M,47.6,M,,*4F
$GPGSV,3,1,11,01,50,135,43,02,45,146,45,03,77,035,42,04,54,191,37,1*68
$GPGSV,3,3,11,19,35,297,40,28,23,055,43,31,27,082,46,1*51
$GLGSV,3,1,10,66,02,046,11,67,53,039,44,68,70,248,38,69,20,231,38,1*7C
$GLGSV,3,2,10,75,04,342,31,76,11,036,,77,03,078,,82,39,159,29,1*77
$GLGSV,3,3,10,83,81,212,33,84,25,325,35,1*73
$GAGSV,3,1,11,07,57,069,42,08,10,042,25,12,13,308,28,13,06,129,45,7*7A
$GAGSV,3,2,11,16,04,334,,19,12,209,25,24,04,310,,25,01,357,,7*75
$GAGSV,3,3,11,26,58,133,48,29,54,186,40,33,68,303,35,7*4E
$GBGSV,2,1,08,02,03,100,32,05,19,122,43,06,29,059,41,09,32,076,42,1*7C
$GBGSV,2,2,08,16,28,054,41,26,09,073,39,27,33,308,38,28,62,250,30,1*7B
$GNRMC,230105.00,A,4843.26023,N,00920.55698,E,0.024,,070225,,,A,V*17
$GNGGA,230105.00,4843.26023,N,00920.55698,E,1,12,0.54,254.1,M,47.6,M,,*40
$GPGSV,3,1,11,01,50,135,43,02,45,146,46,03,77,035,42,04,54,191,37,1*6B
$GPGSV,3,2,11,06,15,309,,09,26,211,42,12,01,347,,17,42,259,,1*68
$GPGSV,3,3,11,19,35,297,40,28,23,055,43,31,27,082,46,1*51
$GLGSV,3,1,10,66,02,046,12,67,53,039,44,68,70,248,38,69,20,231,41,1*71
$GLGSV,3,2,10,75,04,342,31,76,11,036,,77,03,078,,82,39,159,30,1*7F
$GLGSV,3,3,10,83,81,212,32,84,25,325,35,1*72
$GAGSV,3,1,11,07,57,069,42,08,10,042,26,12,13,308,28,13,06,129,45,7*79
$GAGSV,3,2,11,16,04,334,,19,12,209,25,24,04,310,,25,01,357,,7*75
$GAGSV,3,3,11,26,58,133,48,29,54,186,40,33,68,303,36,7*4D
$GBGSV,2,1,08,02,03,100,33,05,19,122,43,06,29,059,41,09,32,075,42,1*7E
$GBGSV,2,2,08,16,28,054,41,26,09,073,40,27,33,308,38,28,62,250,29,1*7D
$GNRMC,230106.00,A,4843.26025,N,00920.55705,E,0.009,,070225,,,A,V*18
$GNGGA,230106.00,4843.26025,N,00920.55705,E,1,12,0.54,254.2,M,47.6,M,,*43
$GPGSV,3,1,11,01,50,135,43,02,45,146,46,03,77,035,42,04,54,191,36,1*6A
$GPGSV,3,2,11,06,15,309,,09,26,211,2,12,01,347,,17,42,259,,1*68
$GPGSV,3,3,11,19,35,297,40,28,23,055,43,31,27,082,46,1*51
$GLGSV,3,1,10,66,02,046,11,67,53,039,44,68,70,248,37,69,20,231,41,1*7D
$GLGSV,3,2,10,75,04,342,33,76,11,036,,77,03,078,,82,39,159,31,1*7C
$GLGSV,3,3,10,83,81,212,32,84,25,325,35,1*72
$GAGSV,3,1,11,07,57,069,42,08,10,42,26,12,13,308,28,13,06,129,45,7*79
$GAGSV,3,2,11,16,04,334,,19,12,209,26,24,04,310,,25,01,357,,7*76
$GAGSV,3,3,11,26,58,133,48,29,54,186,40,33,68,303,36,7*4D
$GBGSV,2,1,08,02,03,100,32,05,19,122,43,06,29,059,41,09,32,075,42,1*7F
$GBGSV,2,2,08,16,28,054,41,26,09,073,40,27,33,308,38,28,62,250,29,1*7D
$GNRMC,230107.00,A,4843.26026,N,00920.55709,E,0.014,,070225,,,A,V*1A
$GNGGA,230107.00,4843.26026,N,00920.55709,E,1,12,0.57,254.2,M,47.6,M,,*4E
$GPGSV,3,1,11,01,50,135,43,02,45,146,46,03,77,035,42,04,54,191,36,1*6A
$GPGSV,3,2,11,06,15,309,,09,26,211,42,1,01,347,,17,42,259,,1*68
$GPGSV,3,3,11,19,35,297,40,28,23,055,43,31,27,082,46,1*51
$GLGSV,3,1,10,66,02,046,12,67,53,039,44,68,70,248,37,69,20,231,41,1*7E
$GLGSV,3,2,10,75,04,342,33,76,11,036,,77,03,078,,82,39,159,31,1*7C
$GLGSV,3,3,10,83,81,212,33,84,25,325,35,1*73
$GAGSV,3,1,11,07,57,069,42,08,10,042,26,12,13,308,28,13,06,129,45,7*79
$GAGSV,3,2,11,16,04,334,,19,12,209,26,24,04,310,,25,01,357,,7*76
$GAGSV,3,3,11,26,58,133,48,29,54,186,40,33,68,303,36,7*4D
$GBGSV,2,1,08,02,03,100,33,05,19,122,43,06,29,059,42,09,32,075,42,1*7D
$GBGSV,2,2,08,16,28,054,41,26,09,073,40,27,33,308,38,28,62,250,29,1*7D
$GNRMC,230108.00,A,4843.26028,N,00920.55709,E,0.012,,070225,,,A,V*1D
$GNGGA,230108.00,4843.26028,N,00920.55709,E,1,12,0.54,254.1,M,47.6,M,,*4F
$GPGSV,3,1,11,01,50,135,43,02,45,146,46,03,77,035,42,04,54,191,36,1*6A
$GPGSV,3,2,11,06,15,309,,09,26,211,42,12,01,347,,17,42,259,,1*68
$GPGSV,3,3,11,19,35,297,41,28,23,055,43,31,27,082,46,1*50
$GLGSV,3,1,10,66,02,046,11,67,53,039,44,68,70,248,37,69,20,231,41,1*7D
$GLGSV,3,2,10,75,04,342,33,76,11,036,,77,03,078,,82,39,159,33,1*7E
$GLGSV,3,3,10,83,81,212,34,84,25,325,35,1*74
$GAGSV,3,1,11,07,57,069,42,08,10,042,26,12,13,308,28,13,06,129,45,7*79
$GAGSV,3,2,11,16,04,334,,19,12,209,26,24,04,310,,25,01,357,,7*76
$GAGSV,3,3,11,26,58,133,48,29,54,186,40,33,68,303,36,7*4D
$GBGSV,2,1,08,02,03,100,32,05,19,122,43,06,29,059,42,09,32,075,42,1*7C
$GBGSV,2,2,08,16,28,054,41,26,09,073,40,27,33,308,38,28,62,250,28,1*7C
$GNRMC,230109.00,A,4843.26031,N,00920.55711,E,0.030,,070225,,,A,V*1D
$GNGGA,230109.00,4843.26031,N,00920.55711,E,1,12,0.54,254.1,M,47.6,M,,*4F
$GPGSV,3,1,11,01,50,135,42,02,45,146,46,03,77,035,42,04,54,191,36,1*6B
$GPGSV,3,2,11,06,15,309,,09,26,211,42,12,01,347,,17,42,259,,1*68
$GPGSV,3,3,11,19,35,297,41,28,23,055,43,31,27,082,46,1*50
$GLGSV,3,1,10,66,02,046,09,67,53,39,44,68,70,248,37,69,20,231,40,1*75
$GLGSV,3,2,10,75,04,342,33,76,11,036,,77,03,078,,82,39,159,32,1*7F
$GLGSV,3,3,10,83,81,212,34,84,25,325,34,1*75
$GAGSV,3,1,11,07,57,069,42,08,10,042,26,12,13,308,28,13,06,129,45,7*79
$GAGSV,3,2,11,16,04,334,,19,12,209,26,24,04,310,,25,01,357,,7*76
$GAGSV,3,3,11,26,58,133,48,29,54,186,41,33,68,303,36,7*4C
$GBGSV,2,1,08,02,03,100,32,05,19,122,43,06,29,059,42,09,32,075,42,1*7C
$GBGSV,2,2,08,16,28,054,41,26,09,073,40,27,33,308,37,28,62,250,28,1*73
$GNRMC,230110.00,A,4843.26034,N,00920.55711,E,0.013,,070225,,,A,V*11
$GNGGA,230110.00,4843.26034,N,00920.55711,E,1,12,0.54,254.1,M,47.6,M,,*42
$GPGSV,3,1,11,01,50,135,42,02,45,146,46,03,77,035,41,04,54,191,36,1*68
$GPGSV,3,3,11,19,35,297,41,28,23,055,43,31,27,082,46,1*50
$GLGSV,3,1,10,66,02,046,11,67,53,039,43,68,70,248,37,69,20,231,40,1*7B
$GLGSV,3,2,10,75,04,342,32,76,11,036,,77,03,078,,82,39,159,33,1*7F
$GLGSV,3,3,10,83,81,212,34,84,25,325,34,1*75
$GAGSV,3,1,11,07,57,069,42,08,10,042,26,12,13,308,28,13,06,129,45,7*79
