$GNRMC,180000.00,A,4843.26099,N,00920.55503,E,0.006,,080225,,,A,V*14
$GNGGA,180000.00,4843.26099,N,00920.55503,E,1,12,0.53,244.5,M,47.6,M,,*4E
$GPGSV,4,1,13,01,04,250,,02,11,259,,07,07,291,,08,54,299,39,1*66
$GPGSV,4,2,13,10,64,126,51,15,08,032,30,16,35,190,41,18,12,069,42,1*63
$GPGSV,4,3,13,23,42,056,44,26,09,179,42,27,86,136,45,30,05,322,,1*6A
$GPGSV,4,4,13,32,03,139,,1*5F
$GLGSV,3,1,11,65,35,052,45,66,34,116,49,67,04,159,,72,02,008,13,1*70
$GLGSV,3,2,11,73,13,339,,79,26,221,45,80,41,285,41,81,66,023,40,1*77
$GLGSV,3,3,11,82,43,292,38,83,06,272,,88,21,077,46,1*4C
$GAGSV,3,1,11,02,42,197,42,04,14,050,42,06,16,075,45,09,14,099,44,7*70
$GAGSV,3,2,11,11,16,065,38,15,07,249,,25,02,165,,27,13,323,,7*73
$GAGSV,3,3,11,30,50,281,37,34,56,258,32,36,65,053,40,7*44
$GNRMC,180001.00,A,4843.26098,N,00920.55501,E,0.021,,080225,,,A,V*13
$GNGGA,180001.00,4843.26098,N,00920.55501,E,1,12,0.53,244.5,M,47.6,M,,*4C
$GPGSV,4,1,13,01,04,250,,02,11,259,,07,07,291,,08,54,299,39,1*66
$GPGSV,4,2,13,10,64,126,51,15,08,032,30,16,35,190,41,18,12,069,42,1*63
$GPGSV,4,3,13,23,42,056,44,26,09,179,41,27,86,136,45,30,05,322,,1*69
$GPGSV,4,4,13,32,03,139,,1*5F
$GLGSV,3,1,11,65,35,052,45,66,34,116,49,67,04,159,,72,01,008,13,1*73
$GLGSV,3,2,11,73,13,339,,79,26,221,45,80,41,285,42,81,66,023,40,1*74
$GLGSV,3,3,11,82,43,292,37,83,06,272,,88,21,077,46,1*43
$GAGSV,3,1,11,02,42,197,42,04,14,050,42,06,16,075,44,09,14,099,44,7*71
$GAGSV,3,2,11,11,16,065,38,15,07,249,,25,02,165,,27,13,323,,7*73
$GAGSV,3,3,11,30,50,281,37,34,56,258,32,36,65,053,40,7*44
$GNRMC,180002.00,A,4843.26098,N,00920.55500,E,0.021,,080225,,,A,V*11
$GNGGA,180002.00,4843.26098,N,00920.55500,E,1,12,0.53,244.5,M,47.6,M,,*4E
$GPGSV,4,1,13,01,04,250,,02,11,259,,07,07,291,,08,55,299,39,1*67
$GPGSV,4,2,13,10,65,125,51,15,08,032,30,16,34,190,41,18,12,069,43,1*61
$GPGSV,4,3,13,23,41,055,44,26,09,179,41,27,86,136,45,30,05,322,,1*69
$GPGSV,4,4,13,32,03,139,,1*5F
$GLGSV,3,1,11,65,35,052,45,66,34,116,50,67,04,159,,72,01,008,11,1*79
$GLGSV,3,2,11,73,14,338,,79,26,221,45,80,41,285,42,81,66,023,40,1*72
$GLGSV,3,3,11,82,43,292,37,83,06,272,,8,21,077,46,1*43
$GAGSV,3,1,11,02,42,197,42,04,14,050,42,06,16,075,44,09,14,099,44,7*71
$GAGSV,3,2,11,11,16,065,38,15,07,249,,5,02,165,,27,13,323,,7*73
$GAGSV,3,3,11,30,50,281,37,34,56,258,31,36,65,053,40,7*47
$GNRMC,180003.00,A,4843.26097,N,00920.55499,E,0.018,,080225,,,A,V*14
$GNGGA,180003.00,4843.26097,N,00920.55499,E,1,12,0.53,244.4,M,47.6,M,,*40
$GPGSV,4,1,13,01,04,250,,02,11,259,,07,07,291,,08,55,299,40,1*69
$GPGSV,4,2,13,10,65,125,51,15,08,032,30,16,34,190,41,18,12,069,43,1*61
$GPGSV,4,3,13,23,41,055,44,26,09,179,41,27,86,136,45,30,05,322,,1*69
$GPGSV,4,4,13,32,03,139,,1*5F
$GLGSV,3,1,11,65,35,052,45,66,34,116,50,67,04,159,,72,01,008,12,1*7A
$GLGSV,3,2,11,73,14,338,,79,26,221,46,80,41,285,42,81,66,023,41,1*70
$GLGSV,3,3,11,82,43,292,37,83,06,272,,88,21,077,47,1*42
$GAGSV,3,1,11,02,42,197,42,04,14,050,42,06,16,075,44,09,14,099,44,7*71
$GAGSV,3,2,11,11,16,065,38,15,07,249,,25,02,165,,27,13,323,,7*73
$GAGSV,3,3,11,30,50,281,37,34,56,258,31,36,65,053,40,7*47
$GNRMC,180004.00,A,4843.26097,N,00920.55499,E,0.025,,080225,,,A,V*1D
$GNGGA,180004.00,4843.26097,N,00920.55499,E,1,12,0.53,244.4,M,47.6,M,,*47
$GPGSV,4,1,13,01,04,250,,02,11,259,,07,07,291,,08,55,299,40,1*69
$GPGSV,4,2,13,10,65,125,51,15,08,032,30,16,34,190,41,18,12,069,43,1*61
$GPGSV,4,3,13,23,41,055,44,26,09,179,41,27,86,136,45,30,05,322,,1*69
$GPGSV,4,4,13,32,03,139,,1*5F
$GLGSV,3,1,11,65,35,052,45,66,34,116,50,67,04,159,,72,01,008,11,1*79
$GLGSV,3,2,11,73,14,338,,79,26,221,46,80,41,285,42,81,66,023,41,1*70
$GLGSV,3,3,11,82,43,292,36,83,06,272,,88,21,077,47,1*43
$GAGSV,3,1,11,02,42,197,42,04,14,050,42,06,16,075,44,09,14,099,44,7*71
$GNRMC,180005.00,A,4843.26096,N,00920.55500,E,0.009,,080225,,,A,V*12
$GNGGA,180005.00,4843.26096,N,00920.55500,E,1,12,.53,244.4,M,47.6,M,,*46
$GPGSV,4,1,13,01,04,250,,02,11,259,,07,07,291,,08,55,299,40,1*69
$GPGSV,4,3,13,23,41,055,44,26,09,179,41,27,86,136,45,30,05,322,,1*69
$GPGSV,4,4,13,32,03,139,,1*5F
$GLGSV,3,1,11,65,35,052,45,66,34,116,50,67,04,159,,72,01,008,12,1*7A
$GLGSV,3,2,11,73,14,338,,79,26,221,46,80,41,285,43,81,66,023,42,1*72
$GLGSV,3,3,11,82,43,292,36,83,06,272,,88,21,077,47,1*43
$GAGSV,3,1,11,02,42,197,42,04,14,050,42,06,16,075,44,09,14,099,44,7*71
$GAGSV,3,2,11,11,16,065,38,15,07,249,,25,02,165,,27,13,323,,7*73
$GNRMC,180006.00,A,4843.26095,N,00920.55501,E,0.009,,080225,,,A,V*13
$GNGGA,180006.00,4843.26095,N,00920.55501,E,1,12,0.53,244.4,M,47.6,M,,*47
$GPGSV,4,1,13,01,04,250,,02,11,259,,07,07,291,,08,55,299,40,1*69
$GPGSV,4,2,13,10,65,125,51,15,08,032,29,16,34,190,41,18,12,069,44,1*6E
$GPGSV,4,3,13,23,41,055,44,26,09,179,41,27,86,136,45,30,05,322,,1*69
$GPGSV,4,4,13,32,03,139,,1*5F
$GLGSV,3,1,11,65,35,052,45,66,34,116,50,67,04,159,,72,01,008,12,1*7A
$GLGSV,3,2,11,73,14,338,,79,26,221,46,80,41,285,43,81,66,023,42,1*72
$GLGSV,3,3,11,82,43,292,35,83,06,272,,88,21,077,48,1*4F
$GAGSV,3,1,11,02,42,197,42,04,14,050,42,06,16,075,44,09,14,099,44,7*71
$GNRMC,180007.00,A,4843.26094,N,00920.55501,E,0.017,,080225,,,A,V*1C
$GNGGA,180007.00,4843.26094,N,00920.55501,E,1,12,0.53,244.3,M,47.6,M,,*40
$GPGSV,4,1,13,01,04,250,,02,11,259,,07,07,291,,08,55,299,40,1*69
$GPGSV,4,2,13,10,65,125,51,15,08,032,29,16,34,190,41,18,12,069,44,1*6E
$GPGSV,4,3,13,23,41,055,44,26,09,179,40,27,86,136,45,30,05,322,,1*68
$GPGSV,4,4,13,32,03,139,,1*5F
$GLGSV,3,1,11,65,35,052,44,66,34,116,50,67,04,159,,72,01,008,11,1*78
$GLGSV,3,2,11,73,14,338,,79,26,221,46,80,41,285,43,81,66,023,42,1*72
$GLGSV,3,3,11,82,43,292,35,3,06,272,,88,21,077,48,1*4F
$GAGSV,3,1,11,02,42,197,42,04,14,050,42,06,16,075,44,09,14,099,44,7*71
$GAGSV,3,2,11,11,16,065,38,15,07,249,,25,02,165,,27,13,323,,7*73
$GAGSV,3,3,11,30,50,281,37,34,56,258,30,36,65,053,40,7*46
$GNRMC,180008.00,A,4843.26093,N,00920.55502,E,0.011,,080225,,,A,V*11
$GNGGA,180008.00,4843.26093,N,00920.55502,E,1,12,0.53,244.3,M,47.6,M,,*4B
$GPGSV,4,1,13,01,04,250,,02,11,259,,07,07,291,,08,55,299,40,1*69
$GPGSV,4,2,13,10,65,125,51,15,08,032,29,16,34,190,41,18,12,069,44,1*6E
$GPGSV,4,3,13,23,41,055,44,26,09,179,40,27,86,136,45,30,05,322,,1*68
$GPGSV,4,4,13,32,03,139,,1*5F
$GLGSV,3,1,11,65,35,052,44,66,34,116,51,67,04,159,,72,01,008,10,1*78
$GLGSV,3,2,11,73,14,338,,79,25,221,47,80,41,285,43,81,66,023,42,1*70
$GLGSV,3,3,11,82,43,292,35,83,06,272,,88,21,077,49,1*4E
$GAGSV,3,1,11,02,42,197,42,04,14,050,42,06,16,075,44,09,14,099,44,7*71
$GAGSV,3,2,11,11,16,065,38,15,07,249,,25,02,165,,27,13,323,,7*73
$GNRMC,180009.00,A,4843.26091,N,00920.55503,E,0.057,,080225,,,A,V*11
$GNGGA,180009.00,4843.26091,N,00920.55503,E,1,12,0.53,244.3,M,47.6,M,,*49
$GPGSV,4,1,13,01,04,250,,02,11,259,,07,07,291,,08,55,299,40,1*69
$GPGSV,4,2,13,10,65,125,51,15,08,032,28,16,34,190,41,18,12,069,44,1*6F
$GPGSV,4,3,13,23,41,055,44,26,09,179,40,27,86,136,45,30,05,322,,1*68
$GPGSV,4,4,13,32,03,139,,1*5F
$GLGSV,3,1,11,65,35,052,44,66,34,116,51,67,04,159,,72,01,008,11,1*79
$GLGSV,3,2,11,73,14,338,,79,25,221,46,80,41,284,43,81,66,023,42,1*70
$GLGSV,3,3,11,82,43,292,35,83,06,272,,88,21,077,49,1*4E
$GNRMC,180010.00,A,4843.26090,N,00920.55504,E,0.022,,080225,,,A,V*1D
$GNGGA,180010.00,4843.26090,N,00920.55504,E,1,12,0.53,244.4,M,47.6,M,,*40
$GPGSV,4,1,13,01,04,250,,02,11,259,,07,07,291,,08,55,299,39,1*67
$GPGSV,4,2,13,10,65,125,51,15,08,032,27,16,34,190,40,18,12,069,44,1*61
$GPGSV,4,3,13,23,41,055,44,26,09,179,40,27,86,136,45,30,05,322,,1*68
$GPGSV,4,4,13,32,03,139,,1*5F
$GLGSV,3,1,11,65,35,052,44,66,34,116,51,67,04,159,,72,01,008,13,1*7B
$GLGSV,3,2,11,73,14,338,,79,25,221,46,80,41,284,44,81,66,026,43,1*73
$GLGSV,3,3,11,82,44,293,35,83,06,272,,88,21,078,49,1*47
$GAGSV,3,1,11,02,42,197,42,04,14,050,42,06,16,075,44,09,14,099,44,7*71
$GAGSV,3,2,11,11,16,065,38,15,07,249,,25,02,165,,27,13,323,,7*73
$GNRMC,180011.00,A,4843.26090,N,00920.55505,E,0.016,,080225,,,A,V*1A
$GNGGA,180011.00,4843.26090,N,00920.55505,E,1,12,0.53,244.4,M,47.6,M,,*40
$GPGSV,4,1,13,01,04,250,,02,11,259,,07,07,291,,08,55,299,39,1*67
$GPGSV,4,2,13,10,65,125,51,15,08,032,26,16,34,190,40,18,12,069,45,1*61
$GPGSV,4,3,13,23,41,055,43,26,09,179,41,27,86,136,45,30,05,322,,1*6E
$GPGSV,4,4,13,32,03,139,,1*5F
$GLGSV,3,1,11,65,35,052,45,66,34,116,51,67,04,159,,72,01,008,11,1*78
$GLGSV,3,2,11,73,14,338,,79,25,221,46,80,41,284,44,81,66,026,43,1*73
$GLGSV,3,3,11,82,44,293,35,83,06,272,,88,21,078,50,1*4F
$GAGSV,3,1,11,02,42,197,42,04,14,050,42,06,16,075,44,09,14,099,43,7*76
$GAGSV,3,2,11,11,16,065,38,15,07,249,,25,02,165,,27,13,323,,7*73
$GAGSV,3,3,11,30,50,281,37,34,56,258,30,36,65,053,39,7*48
$GNRMC,180012.00,A,4843.26089,N,00920.55506,E,0.024,,080225,,,A,V*13
$GNGGA,180012.00,4843.26089,N,00920.55506,E,1,12,0.53,244.4,M,47.6,M,,*48
$GPGSV,4,1,13,01,04,250,,02,11,259,,07,07,291,,08,55,299,39,1*67
$GPGSV,4,2,13,10,65,125,51,15,08,032,26,16,34,190,40,18,12,069,45,1*61
$GPGSV,4,3,13,23,41,055,43,26,09,179,40,27,86,136,45,30,05,322,,1*6F
$GPGSV,4,4,13,32,03,139,,1*5F
$GLGSV,3,1,11,65,35,052,44,66,34,116,51,67,04,159,,72,01,008,13,1*7B
$GLGSV,3,2,11,73,14,338,,79,25,221,46,80,41,284,44,81,66,026,43,1*73
$GLGSV,3,3,11,82,44,293,35,83,06,273,,88,21,078,50,1*4E
$GAGSV,3,1,11,02,42,197,42,04,14,050,42,06,16,075,44,09,14,099,43,7*76
$GAGSV,3,2,11,11,16,065,38,15,07,249,,25,02,165,,27,13,323,,7*73
$GAGSV,3,3,11,30,50,281,36,34,56,258,30,36,65,053,39,7*49
$GNRMC,180013.00,A,4843.26087,N,00920.55509,E,0.028,,080225,,,A,V*1F
$GNGGA,180013.00,4843.26087,N,00920.55509,E,1,12,0.53,244.5,M,47.6,M,,*49
$GPGSV,4,1,13,01,04,250,,02,11,259,,07,07,291,,08,55,299,39,1*67
$GPGSV,4,2,13,10,65,125,51,15,08,032,27,16,34,190,40,18,12,069,45,1*60
$GPGSV,4,3,13,23,41,055,43,26,09,179,40,27,86,136,45,30,05,322,,1*6F
$GPGSV,4,4,13,32,03,139,,1*5F
$GLGSV,3,1,11,65,35,052,44,66,34,116,50,67,04,159,,72,01,008,15,1*7C
$GLGSV,3,2,11,73,14,338,,79,25,221,46,80,41,284,44,81,66,026,42,1*72
$GLGSV,3,3,11,82,44,293,36,83,06,273,,88,21,078,50,1*4D
$GAGSV,3,1,11,02,42,197,42,04,14,050,42,06,16,075,44,09,14,099,43,7*76
$GAGSV,3,2,11,11,16,065,38,15,07,249,,25,02,165,,27,13,323,,7*73
$GNRMC,180014.00,A,4843.26086,N,00920.55511,E,0.008,,080225,,,A,V*12
$GNGGA,180014.00,4843.26086,N,00920.55511,E,1,12,0.53,244.5,M,47.6,M,,*46
$GPGSV,4,1,13,01,04,250,,02,11,259,,07,07,291,,08,55,299,38,1*66
$GPGSV,4,2,13,10,65,125,51,15,08,032,28,16,34,190,39,18,12,069,45,1*61
$GPGSV,4,3,13,23,41,055,43,26,09,179,40,27,86,136,44,30,05,322,,1*6E
$GPGSV,4,4,13,32,03,139,,1*5F
$GLGSV,3,1,11,65,35,052,44,66,34,116,50,67,04,159,,72,01,008,12,1*7B
$GLGSV,3,2,11,73,14,338,,79,25,221,46,80,41,284,44,81,66,026,41,1*71
$GLGSV,3,3,11,82,44,293,37,83,06,273,,88,21,078,50,1*4C
$GAGSV,3,1,11,02,42,197,42,04,14,050,42,06,16,075,44,09,14,099,43,7*76
$GAGSV,3,2,11,11,16,065,38,15,07,249,,25,02,165,,27,13,323,,7*73
$GAGSV,3,3,11,30,50,281,36,34,56,258,30,36,65,053,39,7*49
$GNRMC,180015.00,A,4843.26084,N,00920.55514,E,0.019,,080225,,,A,V*14
$GNGGA,180015.00,4843.26084,N,00920.55514,E,1,12,0.53,244.6,M,47.6,M,,*43
$GPGSV,4,1,13,01,04,250,,02,11,259,,07,07,291,,08,55,299,38,1*66
$GPGSV,4,2,13,10,65,125,51,15,08,032,30,16,34,190,39,18,12,069,45,1*68
$GPGSV,4,3,13,23,41,055,43,26,09,179,40,27,86,136,44,30,05,322,,1*6E
$GPGSV,4,4,13,32,03,139,,1*5F
$GLGSV,3,1,11,65,35,052,44,66,34,116,50,67,04,159,,72,01,008,11,1*78
$GLGSV,3,2,11,73,14,338,,79,25,221,46,80,41,284,44,81,66,026,41,1*71
$GLGSV,3,3,11,82,44,293,37,83,06,273,,88,21,078,51,1*4D
$GAGSV,3,1,11,02,42,197,42,04,14,050,42,06,16,075,44,09,14,099,43,7*76
$GNRMC,180016.00,A,4843.26082,N,00920.55516,E,0.022,,080225,,,A,V*1B
$GNGGA,180016.00,4843.26082,N,00920.55516,E,1,12,0.53,244.7,M,47.6,M,,*45
$GPGSV,4,1,13,01,04,250,,02,11,259,,07,07,291,,08,55,299,38,1*66
$GPGSV,4,2,13,10,65,125,51,15,08,032,31,16,34,190,39,18,12,069,45,1*69
$GPGSV,4,3,13,23,41,055,43,26,09,179,40,27,86,136,44,30,05,322,,1*6E
$GPGSV,4,4,13,32,03,139,,1*5F
$GLGSV,3,1,11,65,35,052,44,66,34,116,50,67,04,159,,72,01,008,13,1*7A
$GLGSV,3,2,11,73,14,338,,79,25,221,46,80,41,284,44,81,66,026,41,1*71
$GLGSV,3,3,11,82,44,293,36,83,06,273,,88,21,078,50,1*4D
$GAGSV,3,1,11,02,42,197,42,04,14,050,42,06,16,075,44,09,14,099,43,7*76
$GAGSV,3,2,11,11,16,065,38,15,0,249,,25,02,165,,27,13,323,,7*73
$GNRMC,180017.00,A,4843.26080,N,00920.55518,E,0.011,,080225,,,A,V*16
$GNGGA,180017.00,4843.26080,N,00920.55518,E,1,12,0.53,244.8,M,47.6,M,,*47
$GPGSV,4,1,13,01,04,250,,02,11,259,,07,07,291,,08,55,299,37,1*69
$GPGSV,4,2,13,10,65,125,51,15,08,032,32,16,34,190,39,18,12,069,45,1*6A
$GPGSV,4,3,13,23,41,055,43,26,09,17,40,27,86,136,4,30,05,322,,1*6F
$GPGSV,4,4,13,32,03,139,,1*5F
$GLGSV,3,1,11,65,35,052,44,66,34,116,50,67,04,159,,72,01,008,14,1*7D
$GLGSV,3,2,11,73,14,338,,79,25,221,46,80,41,284,43,81,66,026,42,1*75
$GLGSV,3,3,11,82,44,293,36,83,06,273,,88,21,078,50,1*4D
$GAGSV,3,1,11,02,42,197,42,04,14,050,42,06,16,075,44,09,14,099,43,7*76
$GAGSV,3,2,11,11,16,065,38,15,07,249,,25,02,165,,27,13,323,,7*73
$GNRMC,180018.00,A,4843.26079,N,00920.55519,E,0.023,,080225,,,A,V*1F
$GNGGA,180018.00,4843.26079,N,00920.55519,E,1,12,0.53,244.8,M,47.6,M,,*4F
$GPGSV,4,1,13,01,04,250,,02,11,259,,07,07,291,,08,55,299,38,1*66
$GPGSV,4,2,13,10,65,125,51,15,08,032,32,16,34,190,39,18,12,069,44,1*6B
$GPGSV,4,3,13,23,41,055,43,26,09,179,40,27,86,136,45,30,05,322,,1*6F
$GPGSV,4,4,13,32,03,139,,1*5F
$GLGSV,3,1,11,65,35,052,45,66,34,116,51,67,04,159,,72,01,008,11,1*78
$GLGSV,3,2,11,73,14,338,,79,25,221,46,80,41,284,43,81,66,026,42,1*75
$GLGSV,3,3,11,82,44,293,36,83,06,273,,88,21,078,50,1*4D
$GAGSV,3,1,11,02,42,197,41,04,14,050,42,06,16,075,44,09,14,099,43,7*75
$GAGSV,3,2,11,11,16,065,38,15,07,249,,25,02,165,,27,13,323,,7*73
$GAGSV,3,3,11,30,50,281,36,34,56,258,31,36,65,053,39,7*48
$GNRMC,180019.00,A,4843.26077,N,00920.55521,E,0.011,,080225,,,A,V*1A
$GNGGA,180019.00,4843.26077,N,00920.55521,E,1,12,0.53,244.9,M,47.6,M,,*4A
$GPGSV,4,1,13,01,05,250,,02,11,259,,07,07,291,,08,55,299,38,1*67
$GPGSV,4,2,13,10,65,125,51,15,08,032,33,16,34,190,39,18,12,069,44,1*6A
$GPGSV,4,3,13,23,41,055,43,26,09,179,40,27,86,136,45,30,05,322,,1*6F
$GPGSV,4,4,13,32,03,139,,1*5F
$GLGSV,3,1,11,65,35,052,45,66,34,116,51,67,04,159,,72,01,008,12,1*7B
$GLGSV,3,2,11,73,14,338,,79,25,221,46,80,41,284,43,81,66,026,42,1*75
$GLGSV,3,3,11,82,44,293,36,83,06,273,,88,21,078,50,1*4D
$GAGSV,3,1,11,02,42,197,41,04,14,050,41,06,16,075,44,09,14,099,43,7*76
$GAGSV,3,2,11,11,16,065,38,15,07,249,,25,02,165,,27,13,323,,7*73
$GNRMC,180020.00,A,4843.26076,N,00920.55522,E,0.013,,080225,,,A,V*10
$GNGGA,180020.00,4843.26076,N,00920.55522,E,1,12,0.53,245.0,M,47.6,M,,*4A
$GPGSV,4,1,13,01,05,250,,02,11,259,,07,07,291,,08,55,299,38,1*67
$GPGSV,4,2,13,10,65,125,51,15,08,032,33,16,34,190,39,18,12,069,44,1*6A
$GPGSV,4,3,13,23,41,055,42,26,09,179,39,27,86,136,45,30,05,322,,1*60
$GPGSV,4,4,13,32,03,139,,1*5F
$GLGSV,3,1,11,65,35,052,45,66,34,116,51,67,04,159,,72,01,008,14,1*7D
$GLGSV,3,2,11,73,14,338,,79,25,221,46,80,41,284,43,81,66,026,42,1*75
$GLGSV,3,3,11,82,44,293,36,83,06,273,,88,21,078,50,1*4D
$GAGSV,3,1,11,02,42,197,42,04,14,050,41,06,16,075,44,09,14,099,43,7*75
$GAGSV,3,2,11,11,16,065,38,15,07,249,,25,02,165,,27,13,323,,7*73
$GAGSV,3,3,11,30,50,281,36,34,56,258,32,36,65,053,39,7*4B
$GNRMC,180021.00,A,4843.26074,N,00920.55523,E,0.004,,080225,,,A,V*14
$GNGGA,180021.00,4843.26074,N,00920.55523,E,1,12,0.53,245.1,M,47.6,M,,*49
$GPGSV,4,1,13,01,05,250,,02,11,259,,07,07,291,,08,55,299,38,1*67
$GPGSV,4,2,13,10,65,125,51,15,08,032,34,16,34,190,39,18,12,069,44,1*6D
$GPGSV,4,3,13,23,41,055,42,26,09,179,39,27,86,136,45,30,05,322,,1*60
$GPGSV,4,4,13,32,03,139,,1*5F
$GLGSV,3,2,11,73,14,338,,79,25,221,46,80,41,284,42,81,66,026,42,1*74
$GLGSV,3,3,11,82,44,293,37,83,06,273,,88,21,078,50,1*4C
$GAGSV,3,1,11,02,42,197,42,04,14,050,41,06,16,075,44,09,14,099,43,7*75
$GAGSV,3,2,11,11,16,065,38,15,07,249,,25,02,165,,27,13,323,,7*73
$GAGSV,3,3,11,30,50,281,36,34,56,258,32,36,65,053,39,7*4B
$GNRMC,180022.00,A,4843.26072,N,00920.55523,E,0.008,,080225,,,A,V*1D
$GNGGA,180022.00,4843.26072,N,00920.55523,E,1,12,0.53,245.2,M,47.6,M,,*4F
$GPGSV,4,1,13,01,05,250,,02,11,259,,07,07,291,,08,55,299,38,1*67
$GPGSV,4,2,13,10,65,125,51,15,08,032,35,16,34,190,38,18,12,069,44,1*6D
$GPGSV,4,3,13,23,41,055,42,26,09,179,39,27,86,136,45,30,05,322,,1*60
$GPGSV,4,4,13,32,03,139,,1*5F
$GLGSV,3,1,11,65,35,052,45,66,34,116,51,67,04,159,,72,01,008,12,1*7B
$GLGSV,3,2,11,73,14,338,,79,25,221,46,80,41,284,42,81,66,026,42,1*74
$GLGSV,3,3,11,82,44,293,36,83,06,273,,88,21,078,49,1*45
$GAGSV,3,1,11,02,42,197,42,04,14,050,41,06,16,075,44,09,14,099,43,7*75
$GAGSV,3,2,11,11,16,065,38,15,07,249,,25,02,165,,27,13,323,,7*73
$GAGSV,3,3,11,30,50,281,36,34,56,258,32,36,65,053,39,7*4B
$GNRMC,180023.00,A,4843.26071,N,00920.55523,E,0.012,,080225,,,A,V*14
$GNGGA,180023.00,4843.26071,N,00920.55523,E,1,12,0.53,245.3,M,47.6,M,,*4C
$GPGSV,4,1,13,01,05,250,,02,11,259,,07,07,291,,08,55,299,38,1*67
$GPGSV,4,2,13,10,65,125,51,15,08,032,35,16,34,190,38,18,12,069,44,1*6D
$GPGSV,4,3,13,23,41,055,42,26,09,179,40,27,86,136,45,30,05,322,,1*6E
$GPGSV,4,4,13,32,03,139,,1*5F
$GLGSV,3,1,11,65,35,052,45,66,34,116,51,67,04,159,,72,01,008,12,1*7B
$GLGSV,3,2,11,73,14,338,,79,25,221,46,80,41,284,41,81,66,026,43,1*76
$GLGSV,3,3,11,82,44,293,36,83,06,273,,88,21,078,49,1*45
$GAGSV,3,2,11,11,16,065,38,15,07,249,,25,02,165,,27,13,323,,7*73
$GAGSV,3,3,11,30,50,281,36,34,56,258,32,36,65,053,39,7*4B
$GNRMC,180024.00,A,4843.26070,N,00920.55522,E,0.008,,080225,,,A,V*18
$GNGGA,180024.00,4843.26070,N,00920.55522,E,1,12,0.53,245.3,M,47.6,M,,*4B
$GPGSV,4,1,13,01,05,250,,02,11,259,,07,07,291,,08,55,299,39,1*66
$GPGSV,4,2,13,10,65,125,51,15,08,032,35,16,34,190,38,18,12,069,44,1*6D
$GPGSV,4,4,13,32,03,139,,1*5F
$GLGSV,3,1,11,65,35,052,45,66,34,116,51,67,04,159,,72,01,008,12,1*7B
$GLGSV,3,2,11,73,14,338,,79,25,221,46,80,41,284,41,81,66,02643,1*76
$GLGSV,3,3,11,82,44,293,35,83,06,273,,88,21,078,49,1*46
$GAGSV,3,1,11,02,42,197,42,04,14,050,40,06,16,075,44,09,14,099,43,7*74
$GAGSV,3,2,11,11,16,065,38,15,07,249,,25,02,165,,27,13,323,,7*73
$GNRMC,180025.00,A,4843.26069,N,00920.55521,E,0.008,,080225,,,A,V*12
$GNGGA,180025.00,4843.26069,N,00920.55521,E,1,12,0.53,245.4,M,47.6,M,,*46
$GPGSV,4,1,13,01,05,250,,02,11,259,,07,06,290,,08,55,299,39,1*66
$GPGSV,4,2,13,10,65,125,51,15,08,032,35,16,34,190,38,18,12,069,43,1*6A
$GPGSV,4,3,13,23,41,055,43,26,09,179,40,27,86,136,45,30,05,322,,1*6F
$GPGSV,4,4,13,32,03,139,,1*5F
$GLGSV,3,1,11,65,35,052,45,66,34,116,51,67,04,159,,7,01,008,11,1*78
$GLGSV,3,2,11,73,14,338,,79,25,221,47,80,41,284,38,81,66,026,43,1*79
$GLGSV,3,3,11,82,44,293,35,83,06,273,,88,21,078,50,1*4E
$GAGSV,3,1,11,02,42,197,42,04,14,050,40,06,16,075,45,09,14,099,43,7*75
$GAGSV,3,2,11,11,16,065,38,15,07,249,,25,02,165,,27,13,323,,7*73
$GNRMC,180026.00,A,4843.26068,N,00920.55520,E,0.021,,080225,,,A,V*1A
$GNGGA,180026.00,4843.26068,N,00920.55520,E,1,12,0.53,245.5,M,47.6,M,,*44
$GPGSV,4,1,13,01,05,250,,02,11,259,,07,06,290,,08,55,299,39,1*66
$GPGSV,4,2,13,10,65,125,51,15,08,032,35,16,34,190,37,18,12,069,43,1*65
$GPGSV,4,3,13,23,41,055,43,26,09,179,40,27,86,136,45,30,05,322,,1*6F
$GPGSV,4,4,13,32,03,139,,1*5F
$GLGSV,3,1,11,65,35,052,45,66,34,116,51,67,04,159,,72,01,008,09,1*71
$GLGSV,3,2,11,73,14,338,,79,25,21,47,80,41,284,39,81,66,026,44,1*7F
$GLGSV,3,3,11,82,44,293,35,83,06,273,,88,21,078,49,1*46
$GAGSV,3,1,11,02,42,197,42,04,14,050,40,06,16,075,45,09,14,099,43,7*75
$GAGSV,3,2,11,11,16,065,38,15,07,249,,25,02,165,,27,13,323,,7*73
$GNRMC,180027.00,A,4843.26067,N,00920.55520,E,0.010,,080225,,,A,V*16
$GNGGA,180027.00,4843.26067,N,00920.55520,E,1,12,0.53,245.5,M,47.6,M,,*4A
$GPGSV,4,1,13,01,05,250,,02,11,259,,07,06,290,,08,55,299,40,1*68
$GPGSV,4,2,13,10,65,125,51,15,08,032,33,16,34,190,38,18,12,069,43,1*6C
$GPGSV,4,3,13,23,41,055,43,26,09,179,40,27,86,136,44,30,05,322,,1*6E
$GPGSV,4,4,13,32,03,139,,1*5F
$GLGSV,3,1,11,65,35,052,45,66,34,116,51,67,04,159,,72,01,008,14,1*7D
$GLGSV,3,2,11,73,14,338,,79,25,221,47,80,41,284,39,81,66,026,44,1*7F
$GLGSV,3,3,11,82,44,293,36,83,06,273,,88,21,078,49,1*45
$GAGSV,3,1,11,02,42,197,42,04,14,050,40,06,16,075,45,09,14,099,43,7*75
$GAGSV,3,2,11,11,16,065,38,15,07,249,,25,02,165,,27,13,323,,7*73
$GNRMC,180028.00,A,4843.26066,N,00920.55519,E,0.013,,080225,,,A,V*11
$GNGGA,180028.00,4843.26066,N,0092055519,E,1,12,0.3,245.6,M,47.6,M,,*4D
$GPGSV,4,1,13,01,05,250,,02,11,259,,07,06,290,,08,55,299,40,1*68
$GPGSV,4,2,13,10,65,124,51,15,08,032,33,16,34,190,38,18,12,069,43,1*6D
$GPGSV,4,3,13,23,41,055,43,26,09,179,40,27,86,136,44,30,05,322,,1*6E
$GPGSV,4,4,13,32,03,139,,1*5F
$GLGSV,3,1,11,65,35,052,45,66,34,116,51,67,04,159,,72,01,008,15,1*7C
$GLGSV,3,2,11,73,14,338,,79,25,221,47,80,41,284,39,81,66,026,45,1*7E
$GLGSV,3,3,11,82,44,293,36,83,06,273,,88,21,078,49,1*45
$GAGSV,3,1,11,02,42,197,42,04,14,050,39,06,16,075,45,09,14,099,43,7*7B
$GAGSV,3,2,11,11,16,065,38,15,07,249,,25,02,165,,27,13,323,,7*73
$GAGSV,3,3,11,30,50,281,37,34,56,258,34,36,65,053,39,7*4C
$GNRMC,180029.00,A,4843.26065,N,00920.55519,E,0.005,,080225,,,A,V*14
$GNGGA,180029.00,4843.26065,N,00920.55519,E,1,12,0.53,245.6,M,47.6,M,,*4F
$GPGSV,4,1,13,01,05,250,,02,11,259,,07,06,290,,08,55,299,40,1*68
$GPGSV,4,2,13,10,65,124,51,15,08,032,33,16,34,190,37,18,12,069,43,1*62
$GPGSV,4,3,13,23,41,055,43,26,09,179,40,27,86,136,44,30,05,322,,1*6E
$GPGSV,4,4,13,32,03,139,,1*5F
$GLGSV,3,1,11,65,35,052,45,66,34,116,51,67,04,159,,72,01,008,12,1*7B
$GLGSV,3,2,11,73,14,338,,79,25,221,47,80,41,284,39,81,66,026,45,1*7E
$GNRMC,180030.00,A,4843.26064,N,00920.55518,E,0.012,,080225,,,A,V*1A
$GNGGA,180030.00,4843.26064,N,00920.55518,E,1,12,0.53,245.6,M,47.6,M,,*47
$GPGSV,4,1,13,01,05,250,,02,11,259,,07,06,290,,08,55,299,40,1*68
$GPGSV,4,2,13,10,65,124,51,15,08,032,33,16,34,190,36,18,12,069,42,1*62
$GPGSV,4,3,13,23,41,055,43,26,09,179,40,27,86,136,44,30,05,322,,1*6E
$GPGSV,4,4,13,32,03,139,,1*5F
$GLGSV,3,1,11,65,35,052,45,66,34,116,51,67,04,159,,72,01,008,11,1*78
$GLGSV,3,2,11,73,14,338,,79,25,221,47,80,41,284,39,81,66,026,45,1*7E
$GLGSV,3,3,11,82,44,293,36,83,06,273,,88,21,078,49,1*45
$GAGSV,3,1,11,02,42,197,41,04,14,050,39,06,16,075,45,09,14,099,44,7*7F
$GAGSV,3,2,11,11,16,065,37,15,07,249,,25,02,165,,27,13,323,,7*7C
$GNRMC,180031.00,A,4843.26064,N,00920.55517,E,0.008,,080225,,,A,V*1F
$GNGGA,180031.00,4843.26064,N,00920.55517,E,1,12,0.53,245.6,M,47.6,M,,*49
$GPGSV,4,1,13,01,05,250,,02,11,259,,07,06,290,,08,55,299,40,1*68
$GPGSV,4,2,13,10,65,124,51,15,08,032,33,16,34,190,36,18,12,069,42,1*62
$GPGSV,4,3,13,23,41,055,44,26,09,179,40,27,86,136,45,30,05,322,,1*68
$GPGSV,4,4,13,32,03,139,,1*5F
$GLGSV,3,1,11,65,35,052,46,66,34,116,51,67,04,159,,72,01,008,13,1*79
$GLGSV,3,2,11,73,14,338,,79,25,221,48,80,41,284,38,81,66,026,45,1*70
$GLGSV,3,3,11,82,44,293,34,83,06,273,,88,21,078,49,1*47
$GAGSV,3,1,11,02,42,197,42,04,14,050,39,06,16,075,45,09,14,099,44,7*7C
$GAGSV,3,2,11,11,16,065,38,15,07,249,,25,02,165,,27,13,323,,7*73
$GAGSV,3,3,11,30,50,281,37,34,56,258,35,36,65,053,39,7*4D
$GNRMC,180032.00,A,4843.26064,N,00920.55515,E,0.014,,080225,,,A,V*13
$GNGGA,180032.00,4843.26064,N,00920.55515,E,1,12,0.53,245.6,M,47.6,M,,*48
$GPGSV,4,1,3,01,05,250,,02,11,259,,07,06,290,,08,55,299,40,1*68
$GPGSV,4,2,13,10,65,124,51,15,08,032,32,16,34,190,36,18,12,069,42,1*63
$GPGSV,4,3,13,23,41,055,43,26,09,179,40,27,86,136,45,30,05,322,,1*6F
$GPGSV,4,4,13,32,03,139,,1*5F
$GLGSV,3,1,11,65,35,052,46,66,34,116,51,67,04,159,,72,01,008,11,1*7B
$GLGSV,3,2,11,73,14,338,,79,25,221,47,80,41,284,41,81,66,026,44,1*70
$GLGSV,3,3,11,82,44,293,34,83,06,273,,88,21,078,49,1*47
$GAGSV,3,1,11,02,42,197,42,04,14,050,39,06,16,075,45,09,14,099,44,7*7C
$GAGSV,3,2,11,11,16,065,37,15,07,249,,25,02,165,,27,13,323,,7*7C
$GAGSV,3,3,11,30,50,281,37,34,56,258,36,36,65,053,38,7*4F
$GNRMC,180033.00,A,4843.26065,N,00920.55514,E,0.006,,080225,,,A,V*11
$GNGGA,180033.00,4843.26065,N,00920.55514,E,1,12,0.53,245.6,M,47.6,M,,*49
$GPGSV,4,1,13,01,05,250,,02,11,259,,07,06,290,,08,55,299,40,1*68
$GPGSV,4,2,13,10,65,124,51,15,08,031,32,16,34,190,35,18,12,069,41,1*60
$GPGSV,4,3,13,23,41,055,43,26,09,179,40,27,86,136,45,30,05,322,,1*6F
$GPGSV,4,4,13,32,03,139,,1*5F
$GLGSV,3,1,11,65,35,052,46,66,34,116,51,67,04,159,,72,01,008,12,1*78
$GLGSV,3,2,11,73,14,338,,79,25,221,48,80,41,284,40,81,66,026,44,1*7E
$GLGSV,3,3,11,82,44,293,33,83,06,273,,88,21,078,50,1*48
$GAGSV,3,1,11,02,42,197,41,04,14,050,38,06,16,075,45,09,14,099,44,7*7E
$GAGSV,3,2,11,11,16,065,37,15,07,249,,25,02,165,,27,13,323,,7*7C
$GAGSV,3,3,11,30,50,281,37,34,56,258,36,36,65,053,39,7*4E
$GNRMC,180034.00,A,4843.26065,N,00920.55513,E,0.020,,080225,,,A,V*15
$GNGGA,180034.00,4843.26065,N,00920.55513,E,1,12,0.53,245.6,M,47.6,M,,*49
$GPGSV,4,1,13,01,05,250,,02,11,259,,07,06,290,,08,55,299,40,1*68
$GPGSV,4,2,13,10,65,124,51,15,08,031,32,16,34,190,34,18,12,069,41,1*61
$GPGSV,4,3,13,23,41,055,44,26,09,179,40,27,86,136,45,30,05,322,,1*68
$GPGSV,4,4,13,32,03,139,,1*5F
$GLGSV,3,1,11,65,35,052,46,66,34,116,51,67,04,159,,72,01,008,12,1*78
$GLGSV,3,2,11,73,14,338,,79,25,221,46,80,41,284,39,81,66,026,45,1*7F
$GLGSV,3,3,11,82,44,293,34,83,06,273,,88,21,078,50,1*4F
$GAGSV,3,1,11,02,42,197,41,04,14,050,38,06,16,075,45,09,14,099,44,7*7E
$GAGSV,3,2,11,11,16,065,37,15,07,249,,25,02,165,,27,13,323,,7*7C
$GNRMC,180035.00,A,4843.26064,N,00920.55513,E,0.009,,080225,,,A,V*1E
$GNGGA,180035.00,4843.26064,N,00920.55513,E,1,12,0.53,245.6,M,47.6,M,,*49
$GPGSV,4,1,13,01,05,250,,02,11,259,,07,06,290,,08,55,299,40,1*68
$GPGSV,4,2,13,10,65,124,51,15,08,031,32,16,34,190,34,18,12,069,41,1*61
$GPGSV,4,3,13,23,41,055,43,26,09,179,40,27,86,136,45,30,05,322,,1*6F
$GPGSV,4,4,13,32,03,139,,1*5F
$GLGSV,3,1,11,65,35,052,46,66,34,116,52,67,04,159,,72,01,008,12,1*7B
$GLGSV,3,2,11,73,14,338,,79,25,221,46,80,41,284,39,81,66,026,45,1*7F
$GLGSV,3,3,11,82,44,293,33,83,06,273,,88,21,078,50,1*48
$GAGSV,3,1,11,02,42,197,42,04,14,050,38,06,16,075,45,09,14,099,44,7*7D
$GAGSV,3,2,11,11,16,065,37,15,07,249,,25,02,165,,27,13,323,,7*7C
$GAGSV,3,3,11,30,50,281,37,34,56,258,35,36,65,053,38,7*4C
$GNRMC,180036.00,A,4843.26064,N,00920.55511,E,0.011,,080225,,,A,V*16
$GNGGA,180036.00,4843.26064,N,00920.55511,E,1,12,0.53,245.6,M,47.6,M,,*48
$GPGSV,4,1,13,01,05,250,,02,11,259,,07,06,290,,08,55,299,40,1*68
$GPGSV,4,2,13,10,65,124,51,15,08,031,33,16,34,190,33,18,12,069,41,1*67
$GPGSV,4,3,13,23,41,055,4,26,09,179,41,27,86,136,46,30,05,322,,1*6B
$GPGSV,4,4,13,32,03,139,,1*5F
$GLGSV,3,1,11,65,35,052,46,66,34,116,51,67,04,159,,72,01,008,12,1*78
$GLGSV,3,2,11,73,14,338,,79,25,221,47,80,41,284,40,81,66,026,45,1*70
$GLGSV,3,3,11,82,44,293,33,83,06,273,,88,21,078,50,1*48
$GAGSV,3,1,11,02,42,197,42,04,14,050,38,06,16,075,45,09,14,099,44,7*7D
$GAGSV,3,2,11,11,16,065,37,15,07,249,,25,02,165,,27,13,323,,7*7C
$GNRMC,180037.00,A,4843.26064,N,00920.55510,E,0.010,,080225,,,A,V*17
$GNGGA,180037.00,4843.26064,N,00920.55510,E,1,12,0.53,245.5,M,47.6,M,,*4B
$GPGSV,4,1,13,01,05,250,,02,11,259,,07,06,290,,08,55,299,40,1*68
$GPGSV,4,2,13,10,65,124,51,15,08,031,33,16,34,190,33,18,12,069,41,1*67
$GPGSV,4,3,13,23,41,055,44,26,09,179,41,27,86,136,46,30,05,322,,1*6A
$GPGSV,4,4,13,32,03,139,,1*5F
$GLGSV,3,1,11,65,35,052,46,66,34,116,51,67,04,159,,72,01,008,12,1*78
$GLGSV,3,2,11,73,14,338,,79,25,221,46,80,41,284,41,81,66,026,45,1*70
$GLGSV,3,3,11,82,44,293,32,83,06,273,,88,21,078,50,1*49
$GAGSV,3,1,11,02,42,197,42,04,14,050,38,06,16,075,44,09,14,099,44,7*7C
$GNRMC,180038.00,A,4843.26065,N,00920.55509,E,0.006,,080225,,,A,V*16
$GNGGA,180038.00,4843.26065,N,00920.55509,E,1,12,0.53,245.5,M,47.6,M,,*4D
$GPGSV,4,1,13,01,05,250,,02,11,259,,07,06,290,,08,55,299,40,1*68
$GPGSV,4,2,13,10,65,124,51,15,08,031,32,16,34,190,32,18,12,069,41,1*67
$GPGSV,4,3,13,23,41,055,44,26,09,179,40,27,86,136,46,30,05,322,,1*6B
$GPGSV,4,4,13,32,03,139,,1*5F
$GLGSV,3,1,11,65,35,052,46,66,34,116,51,67,04,159,,72,01,008,10,1*7A
$GLGSV,3,2,11,73,14,338,,79,25,221,46,80,41,284,41,81,66,026,45,1*70
$GLGSV,3,3,11,82,44,293,32,83,06,273,,88,21,078,50,1*49
$GAGSV,3,1,11,02,42,197,41,04,14,050,37,06,16,075,44,09,14,099,44,7*70
$GAGSV,3,2,11,11,16,065,37,15,07,249,,25,02,165,,27,13,323,,7*7C
$GNRMC,180039.00,A,4843.26065,N,00920.55507,E,0.010,,080225,,,A,V*1E
$GNGGA,180039.00,4843.26065,N,00920.55507,E,1,12,0.53,245.4,M,47.6,M,,*43
$GPGSV,4,1,13,01,05,250,,02,11,259,,07,06,290,,08,55,299,40,1*68
$GPGSV,4,2,13,10,65,124,51,15,08,031,32,16,34,190,32,18,12,069,40,1*66
$GPGSV,4,3,13,23,41,055,44,26,09,179,41,27,86,136,46,30,05,322,,1*6A
$GPGSV,4,4,13,32,03,139,,1*5F
$GLGSV,3,1,11,65,35,052,47,66,34,116,51,67,04,159,,72,01,008,13,1*78
$GLGSV,3,2,11,73,14,338,,79,25,221,47,80,41,284,41,81,66,026,45,1*71
$GLGSV,3,3,11,82,44,293,30,83,06,273,,88,21,078,50,1*4B
$GAGSV,3,1,11,02,42,197,41,04,14,050,37,06,16,075,44,09,14,099,44,7*70
$GAGSV,3,2,11,11,16,065,36,15,07,249,,25,02,165,,27,13,323,,7*7D
$GAGSV,3,3,11,30,50,281,40,34,56,258,35,36,65,053,38,7*4C
$GNRMC,180040.00,A,4843.26065,N,00920.55507,E,0.017,,080225,,,A,V*17
$GNGGA,180040.00,4843.26065,N,00920.55507,E,1,12,0.53,245.4,M,47.6,M,,*4D
$GPGSV,4,1,13,01,05,250,,02,11,259,,07,06,290,,08,55,299,41,1*69
$GPGSV,4,2,13,10,65,124,51,15,08,031,32,16,34,190,32,18,12,069,40,1*66
$GPGSV,4,3,13,23,41,055,43,26,09,179,41,27,86,136,46,30,05,322,,1*6D
$GPGSV,4,4,13,32,03,139,,1*5F
$GLGSV,3,1,11,65,35,052,47,66,34,116,51,67,04,159,,72,01,008,10,1*7B
$GLGSV,3,2,11,73,14,338,,79,25,221,46,80,41,284,41,81,66,026,45,1*70
$GNRMC,180041.00,A,4843.26065,N,00920.55507,E,0.024,,080225,,,A,V*16
$GNGGA,180041.00,4843.26065,N,00920.55507,E,1,12,0.53,245.3,M,47.6,M,,*4B
$GPGSV,4,1,13,01,05,250,,02,11,259,,07,06,290,,08,55,299,41,1*69
$GPGSV,4,2,13,10,65,124,51,15,08,031,31,16,34,190,33,18,12,069,40,1*64
$GPGSV,4,3,13,23,41,055,43,26,09,179,41,27,86,136,46,30,05,322,,1*6D
$GPGSV,4,4,13,32,03,139,,1*5F
$GLGSV,3,1,11,65,35,052,47,66,34,116,51,67,04,159,,72,01,008,12,1*79
$GLGSV,3,2,11,73,14,338,,79,25,221,46,80,41,284,42,81,66,026,44,1*72
$GLGSV,3,3,11,82,44,293,30,83,06,273,,88,21,078,50,1*4B
$GAGSV,3,1,11,02,42,197,42,04,14,050,36,06,16,075,44,09,14,099,44,7*72
$GAGSV,3,2,11,11,16,065,36,15,07,249,,25,02,165,,27,13,323,,7*7D
$GNRMC,180042.00,A,4843.26065,N,00920.55508,E,0.035,,080225,,,A,V*1A
$GNGGA,180042.00,4843.26065,N,00920.55508,E,1,12,0.53,245.3,M,47.6,M,,*47
$GPGSV,4,1,13,01,05,250,,02,11,259,,07,06,290,,08,55,299,41,1*69
$GPGSV,4,2,13,10,65,124,51,15,08,031,31,16,34,190,33,18,12,069,39,1*6A
$GPGSV,4,3,13,23,41,055,44,26,09,179,41,27,86,136,46,30,05,322,,1*6A
$GPGSV,4,4,13,32,03,139,,1*5F
$GLGSV,3,1,11,65,35,052,47,66,34,116,51,67,04,159,,72,01,008,11,1*7A
$GLGSV,3,2,11,73,14,338,,79,25,221,46,80,41,284,41,81,66,026,44,1*71
$GLGSV,3,3,11,82,44,293,31,83,06,273,,88,21,078,50,1*4A
$GAGSV,3,1,11,02,42,197,41,04,14,050,37,06,16,075,44,09,14,099,44,7*70
$GAGSV,3,2,11,11,16,065,37,15,07,249,,25,02,165,,27,13,323,,7*7C
$GNRMC,180043.00,A,4843.26065,N,00920.55507,E,0.018,,080225,,,A,V*1B
$GNGGA,180043.00,4843.26065,N,00920.55507,E,1,12,0.55,245.2,M,47.6,M,,*4E
$GPGSV,4,1,13,01,05,250,,02,11,259,,07,06,290,,08,55,299,41,1*69
$GPGSV,4,2,13,10,65,124,51,15,08,031,31,16,34,190,34,18,12,069,39,1*6D
$GPGSV,4,3,13,23,41,055,43,26,09,179,41,27,86,136,46,30,05,322,,1*6D
$GPGSV,4,4,13,32,03,139,,1*5F
$GLGSV,3,1,11,65,35,052,46,66,34,116,51,67,04,159,,72,0,008,13,1*79
$GLGSV,3,2,11,73,14,338,,79,25,221,46,80,41,284,43,81,66,026,44,1*73
$GLGSV,3,3,11,82,44,293,36,83,06,273,,88,21,078,51,1*4C
$GAGSV,3,1,11,02,42,197,41,04,14,050,37,06,16,075,44,09,14,099,44,7*70
$GAGSV,3,2,11,11,16,065,37,15,07,249,,25,02,165,,27,13,323,,7*7C
$GAGSV,3,3,11,30,50,281,38,34,56,258,34,36,65,053,40,7*4D
$GNRMC,180044.00,A,4843.26064,N,00920.55507,E,0.003,,080225,,,A,V*17
$GNGGA,180044.00,4843.26064,N,00920.55507,E,1,12,0.53,245.1,M,47.6,M,,*4D
$GPGSV,4,1,13,01,05,250,,02,11,259,,07,06,290,,08,55,299,42,1*6A
$GPGSV,4,2,13,10,65,124,51,15,08,031,30,16,34,190,34,18,12,069,38,1*6D
$GPGSV,4,3,13,23,41,055,45,26,09,179,41,27,85,136,46,30,05,322,,1*68
$GPGSV,4,4,13,32,03,139,,1*5F
$GLGSV,3,1,11,65,35,052,46,66,34,116,51,67,04,159,,72,01,008,12,1*78
$GLGSV,3,2,11,73,14,338,,79,25,221,46,80,41,284,42,81,66,026,44,1*72
$GLGSV,3,3,11,82,44,293,35,83,06,273,,88,21,078,51,1*4F
$GAGSV,3,1,11,02,42,197,41,04,14,050,37,06,16,075,43,09,14,099,44,7*77
$GAGSV,3,2,11,11,16,065,37,15,07,249,,25,02,165,,27,13,323,,7*7C
$GAGSV,3,3,11,30,50,281,37,34,56,258,34,36,65,053,8,7*4D
$GNRMC,180045.00,A,4843.26063,N,00920.55506,E,0.011,,08025,,,A,V*13
$GNGGA,180045.00,4843.26063,N,00920.55506,E,1,12,0.53,245.0,M,47.6,M,,*4B
$GPGSV,4,1,13,01,05,250,,02,11,259,,07,06,290,,08,55,299,42,1*6A
$GPGSV,4,2,13,10,65,124,51,15,08,031,31,16,34,190,35,18,12,069,38,1*6D
$GPGSV,4,3,13,23,41,055,45,26,09,179,41,27,85,136,46,30,05,322,,1*68
$GPGSV,4,4,13,32,03,139,,1*5F
$GLGSV,3,1,11,65,35,052,46,66,34,116,52,67,04,159,,72,01,008,14,1*7D
$GLGSV,3,2,11,73,14,338,,79,25,221,46,80,41,284,43,81,66,026,44,1*73
$GLGSV,3,3,11,82,44,293,34,83,06,273,,88,21,078,50,1*4F
$GAGSV,3,1,11,02,42,197,42,04,14,050,37,06,16,075,44,09,14,099,43,7*74
$GAGSV,3,2,11,11,16,065,37,15,07,249,,25,02,165,,27,13,323,,7*7C
$GAGSV,3,3,11,30,50,281,37,34,56,258,34,36,65,053,38,7*4D
$GNGGA,180046.00,4843.26062,N,00920.55506,E,1,12,0.53,244.9,M,47.6,M,,*41
$GPGSV,4,1,13,01,05,250,,02,11,259,,07,06,290,,08,55,299,42,1*6A
$GPGSV,4,2,13,10,65,124,51,15,08,031,32,16,34,190,36,18,12,069,37,1*62
$GPGSV,4,3,13,23,41,055,45,26,09,179,41,27,8,136,46,30,05,322,,1*68
$GPGSV,4,4,13,32,03,139,,1*5F
$GLGSV,3,1,11,65,35,052,46,66,34,116,52,67,04,159,,72,01,008,11,1*78
$GLGSV,3,2,11,73,14,338,,79,25,221,45,80,41,284,43,81,66,026,43,1*77
$GLGSV,3,3,11,82,44,293,34,83,06,273,,88,21,078,50,1*4F
$GAGSV,3,1,11,02,42,197,42,04,14,050,36,06,16,075,44,09,14,099,43,7*75
$GAGSV,3,2,11,11,16,065,37,15,07,249,,25,02,165,,27,13,323,,7*7C
$GNRMC,180047.00,A,4843.26061,N,00920.55507,E,0.021,,080225,,,A,V*11
$GNGGA,180047.00,4843.26061,N,00920.55507,E,1,12,0.53,244.8,M,47.6,M,,*43
$GPGSV,4,1,13,01,05,250,,02,11,259,,07,06,290,,08,55,299,42,1*6A
$GPGSV,4,2,13,10,65,124,51,15,08,031,32,16,34,190,36,18,12,069,37,1*62
$GPGSV,4,3,13,23,41,055,45,26,09,179,41,27,85,136,46,30,05,322,,1*68
$GPGSV,4,4,13,32,03,139,,1*5F
$GLGSV,3,1,11,65,35,052,46,66,34,116,52,67,04,159,,72,01,008,13,1*7A
$GLGSV,3,2,11,73,14,338,,79,25,221,45,80,41,284,43,81,66,026,43,1*77
$GLGSV,3,3,11,82,44,293,34,83,06,273,,88,21,078,51,1*4E
$GAGSV,3,1,11,02,42,197,42,04,14,050,37,06,16,075,44,09,14,099,43,7*74
$GAGSV,3,2,11,11,16,065,37,15,07,249,,25,02,165,,27,13,323,,7*7C
$GNRMC,180048.00,A,4843.26060,N,00920.55509,E,0.011,,080225,,,A,V*12
$GNGGA,180048.00,4843.26060,N,00920.55509,E,1,12,0.53,244.7,M,47.6,M,,*4C
$GPGSV,4,1,13,01,05,250,,02,11,259,,07,06,290,,08,55,299,42,1*6A
$GPGSV,4,2,13,10,65,124,51,15,08,031,32,16,34,190,36,18,12,069,37,1*62
$GPGSV,4,3,13,23,41,055,45,26,09,179,41,27,85,136,46,30,05,322,,1*68
$GPGSV,4,4,13,32,03,139,,1*5F
$GLGSV,3,1,11,65,35,052,46,66,34,116,52,67,04,159,,72,01,008,13,1*7A
$GLGSV,3,2,11,73,14,338,,79,25,221,45,80,41,284,43,81,66,026,43,1*77
$GLGSV,3,3,11,82,44,293,35,83,06,273,,88,21,078,51,1*4F
$GAGSV,3,1,11,02,42,197,42,04,14,050,36,06,16,075,43,09,14,099,43,7*72
$GAGSV,3,2,11,11,16,065,37,15,07,249,,25,02,165,,27,13,323,,7*7C
$GNRMC,180049.00,A,4843.26059,N,00920.55508,E,0.009,,080225,,,A,V*11
$GNGGA,180049.00,4843.26059,N,00920.55508,E,1,12,0.55,244.6,M,47.6,M,,*41
$GPGSV,4,1,13,01,05,250,,02,11,259,,07,06,290,,08,55,299,41,1*69
$GPGSV,4,2,13,10,65,124,50,15,08,031,33,16,34,190,37,18,12,069,37,1*63
$GPGSV,4,3,13,23,41,055,45,26,09,179,41,27,85,136,46,30,05,322,,1*68
$GPGSV,4,4,13,32,04,139,,1*58
$GLGSV,3,1,11,65,35,052,46,66,34,116,52,67,04,159,,72,01,008,12,1*7B
$GLGSV,3,2,11,73,14,338,,79,25,221,45,80,41,284,43,81,66,026,43,1*77
$GLGSV,3,3,11,82,44,293,35,83,06,273,,88,21,078,51,1*4F
$GAGSV,3,1,11,02,42,197,42,04,14,050,36,06,16,075,43,09,14,099,43,7*72
$GAGSV,3,2,11,11,16,065,37,15,07,249,,25,02,165,,27,13,323,,7*7C
$GNRMC,180050.00,A,4843.26057,N,00920.55508,E,0.008,,080225,,,A,V*16
$GNGGA,180050.00,4843.26057,N,00920.55508,E,1,12,0.53,244.5,M,47.6,M,,*42
$GPGSV,4,1,13,01,05,250,,02,11,259,,07,06,290,,08,55,299,41,1*69
$GPGSV,4,2,13,10,65,124,51,15,08,031,33,16,34,190,38,18,12,069,37,1*6D
$GPGSV,4,3,13,23,41,055,45,26,09,179,41,27,85,136,46,30,05,322,,1*68
$GPGSV,4,4,13,32,04,139,,1*58
$GLGSV,3,1,11,65,35,052,46,66,34,116,52,67,04,159,,72,01,008,13,1*7A
$GLGSV,3,2,11,73,14,338,,79,25,221,44,80,41,284,43,81,66,026,43,1*76
$GLGSV,3,3,11,82,44,293,34,83,06,273,,88,21,078,51,1*4E
$GAGSV,3,1,11,02,42,197,42,04,14,050,36,06,16,075,43,09,14,099,43,7*72
$GAGSV,3,2,11,11,16,065,37,15,07,249,,25,02,165,,27,13,323,,7*7C
$GNRMC,180051.00,A,4843.26056,N,00920.55507,E,0.021,,080225,,,A,V*12
$GNGGA,180051.00,4843.26056,N,00920.55507,E,1,12,0.53,244.4,M,47.6,M,,*4C
$GPGSV,4,1,13,01,05,250,,02,11,259,,07,06,290,,08,55,299,41,1*69
$GPGSV,4,2,13,10,65,124,50,15,08,031,32,16,34,190,38,18,12,069,37,1*6D
$GPGSV,4,3,13,23,41,055,45,26,09,179,41,27,85,136,46,30,05,322,,1*68
$GPGSV,4,4,13,32,04,139,,1*58
$GLGSV,3,1,11,65,35,052,46,66,34,116,51,67,04,159,,72,01,008,11,1*7B
$GLGSV,3,2,11,73,14,338,,79,25,221,44,80,41,284,42,81,66,026,42,1*76
$GLGSV,3,3,11,82,44,293,34,83,06,273,,88,21,078,51,1*4E
$GAGSV,3,1,11,02,42,197,42,04,14,050,37,06,16,075,43,09,14,099,44,7*74
$GAGSV,3,2,11,11,16,065,38,15,07,249,,25,02,165,,27,13,323,,7*73
$GNRMC,180052.00,A,4843.26055,N,00920.55506,E,0.010,,080225,,,A,V*11
$GNGGA,180052.00,4843.26055,N,00920.55506,E,1,12,0.53,244.3,M,47.6,M,,*4A
$GPGSV,4,1,13,01,05,250,,02,11,259,,07,06,290,,08,55,299,41,1*69
$GPGSV,4,2,13,10,65,124,51,15,08,031,32,16,34,190,38,18,12,069,37,1*6C
$GPGSV,4,3,13,23,41,055,44,26,09,179,41,27,85,136,45,30,05,322,,1*6A
$GPGSV,4,4,13,32,04,139,,1*58
$GLGSV,3,1,11,65,35,052,46,66,34,116,51,67,04,159,,72,01,008,11,1*7B
$GLGSV,3,2,11,73,14,338,,79,25,221,44,80,41,284,42,81,66,026,42,1*76
$GLGSV,3,3,11,82,44,293,35,83,06,273,,88,21,078,50,1*4E
$GAGSV,3,1,11,02,42,197,42,04,14,050,37,06,16,075,43,09,14,099,44,7*74
$GAGSV,3,2,11,11,16,065,38,15,07,249,,25,02,165,,27,13,323,,7*73
$GAGSV,3,,11,30,50,281,37,34,56,258,33,36,65,053,39,7*4B
$GNRMC,180053.00,A,4843.26054,N,00920.55507,E,0021,,080225,,,A,V*12
$GNGGA,180053.00,4843.26054,N,00920.55507,E,1,12,0.53,244.2,M,47.6,M,,*4A
$GPGSV,4,1,13,01,05,250,,02,11,259,,07,06,290,,08,55,299,40,1*68
$GPGSV,4,2,13,10,65,124,51,15,08,031,32,16,34,190,39,18,12,069,38,1*62
$GPGSV,4,3,13,23,41,055,44,26,09,179,41,27,85,136,45,30,05,322,,1*6A
$GPGSV,4,4,13,32,04,139,,1*58
$GLGSV,3,1,11,65,35,052,46,66,34,116,51,67,04,159,,72,01,008,15,1*7F
$GLGSV,3,2,11,73,14,338,,79,25,221,43,80,41,284,41,81,66,026,42,1*72
$GLGSV,3,3,11,82,44,293,34,83,06,273,,88,21,078,51,1*4E
$GAGSV,3,1,11,02,42,197,42,04,14,050,37,06,16,075,43,09,14,099,44,7*74
$GAGSV,3,2,11,11,16,065,38,15,07,249,,25,02,165,,27,13,323,,7*73
$GAGSV,3,3,11,30,50,281,36,34,56,258,33,36,65,053,39,7*4A
$GNRMC,180054.00,A,4843.26053,N,00920.55508,E,0.013,,080225,,,A,V*1C
$GNGGA,180054.00,4843.26053,N,00920.55508,E,1,12,0.53,244.2,M,47.6,M,,*45
$GPGSV,4,1,13,01,05,250,,02,11,259,,07,06,290,,08,55,299,40,1*68
$GPGSV,4,2,13,10,65,124,51,15,08,031,32,16,34,190,39,18,12,069,38,1*62
$GPGSV,4,3,13,23,41,055,44,26,09,179,41,27,85,136,46,30,05,322,,1*69
$GPGSV,4,4,13,32,04,139,,1*58
$GLGSV,3,1,11,65,35,052,47,66,34,116,51,67,04,159,,72,01,008,10,1*7B
$GLGSV,3,2,11,73,14,338,,79,25,221,43,80,41,284,41,81,66,026,42,1*72
$GLGSV,3,3,11,82,44,293,35,83,06,273,,88,21,078,51,1*4F
$GAGSV,3,1,11,02,42,197,42,04,14,049,37,06,16,075,43,09,14,099,44,7*7C
$GAGSV,3,2,11,11,16,065,38,15,07,249,,25,02,165,,27,13,323,,7*73
$GNRMC,180055.00,A,4843.26051,N,00920.55506,E,0.014,,080225,,,A,V*16
$GNGGA,180055.00,4843.26051,N,00920.55506,E,1,12,0.55,244.1,M,47.6,M,,*4D
$GPGSV,4,1,13,01,05,250,,02,11,259,,07,06,290,,08,55,299,40,1*68
$GPGSV,4,2,13,10,65,124,51,15,08,031,31,16,34,190,39,18,12,069,38,1*61
$GPGSV,4,3,13,23,41,055,44,26,09,179,41,27,85,136,46,30,05,322,,1*69
$GPGSV,4,4,13,32,04,139,,1*58
$GLGSV,3,1,11,65,35,052,47,66,34,116,51,67,04,159,,72,01,008,13,1*78
$GLGSV,3,2,11,73,14,338,,79,25,221,43,80,41,284,41,81,66,026,42,1*72
$GLGSV,3,3,11,82,44,293,34,83,06,273,,88,21,078,51,1*4E
$GAGSV,3,1,11,02,42,197,42,04,14,049,37,06,16,075,43,09,14,099,44,7*7C
$GAGSV,3,2,11,11,16,065,38,15,07,249,,25,02,165,,27,13,323,,7*73
$GAGSV,3,3,11,30,50,281,37,34,56,258,32,36,65,053,39,7*4A
$GNRMC,180056.00,A,4843.26051,N,00920.55504,E,0.014,,080225,,,A,V*17
$GNGGA,180056.00,4843.26051,N,00920.55504,E,1,12,0.53,244.0,M,47.6,M,,*4B
$GPGSV,4,1,13,01,05,250,,02,1,259,,07,06,290,,08,55,299,39,1*66
$GPGSV,4,2,13,10,65,124,51,15,08,031,31,16,34,190,39,18,12,069,39,1*60
$GPGSV,4,3,13,23,41,055,44,26,09,179,41,27,85,136,46,30,05,322,,1*69
$GPGSV,4,4,13,32,04,139,,1*58
$GLGSV,3,1,11,65,35,052,47,66,34,116,51,67,04,159,,72,01,008,12,1*79
$GLGSV,3,2,11,73,14,338,,79,25,221,42,80,41,284,42,81,66,026,42,1*70
$GLGSV,3,3,11,82,44,293,35,83,06,273,,88,21,078,51,1*4F
$GAGSV,3,1,11,02,42,197,42,04,14,049,37,06,16,075,43,09,14,099,44,7*7C
$GAGSV,3,2,11,11,16,065,38,15,07,249,,25,02,165,,27,13,323,,7*73
$GNRMC,180057.00,A,4843.26050,N,00920.55503,E,0.016,,080225,,,A,V*12
$GNGGA,180057.00,4843.26050,N,00920.55503,E,1,12,0.53,243.9,M,47.6,M,,*42
$GPGSV,4,1,13,01,05,250,,02,11,259,,07,06,290,,08,55,299,39,1*66
$GPGSV,4,2,13,10,65,124,51,15,08,031,31,16,34,190,39,18,12,069,39,1*60
$GPGSV,4,3,13,23,41,055,44,26,09,179,41,27,85,136,46,30,05,322,,1*69
$GPGSV,4,4,13,32,04,139,,1*58
$GLGSV,3,1,11,65,35,052,47,66,34,116,51,67,04,159,,72,01,008,13,1*78
$GLGSV,3,2,11,73,14,338,,79,25,221,42,80,41,284,41,81,66,026,42,1*73
$GLGSV,3,3,11,82,44,293,35,83,06,273,,88,21,078,50,1*4E
$GAGSV,3,1,11,02,42,197,42,04,14,049,37,06,16,075,43,09,14,099,44,7*7C
$GAGSV,3,2,11,11,16,065,38,15,07,249,,25,02,165,,27,13,323,,7*73
$GNRMC,180058.00,A,4843.26048,N,00920.55501,E,0.012,,080225,,,A,V*12
$GNGGA,180058.00,4843.26048,N,00920.55501,E,1,12,0.53,243.8,M,47.6,M,,*47
$GPGSV,4,1,13,01,05,250,,02,11,259,,07,06,290,,08,55,299,39,1*66
$GPGSV,4,2,13,10,65,124,51,15,08,031,31,16,34,190,40,18,12,069,40,1*60
$GPGSV,4,3,13,23,41,055,44,26,09,179,41,27,85,136,46,30,05,322,,1*69
$GPGSV,4,4,13,32,04,139,,1*58
$GLGSV,3,1,11,65,35,052,47,66,34,116,51,67,04,159,,72,01,008,10,1*7B
$GLGSV,3,2,11,73,14,338,,79,25,221,43,80,41,284,41,81,66,026,42,1*72
$GLGSV,3,3,11,82,44,293,35,83,06,273,,88,21,078,50,1*4E
$GAGSV,3,1,11,02,42,197,42,04,14,049,38,06,16,075,43,09,14,099,44,7*73
$GAGSV,3,2,11,11,16,065,38,15,07,249,,25,02,165,,27,13,323,,7*73
$GNRMC,180059.00,A,4843.26047,N,00920.55500,E,0.008,,080225,,,A,V*16
$GNGGA,180059.00,4843.26047,N,00920.55500,E,1,12,0.53,243.8,M,47.6,M,,*48
$GPGSV,4,1,13,01,05,250,,02,11,259,,07,06,290,,08,55,299,39,1*66
$GPGSV,4,2,13,10,65,124,51,15,08,031,31,16,34,190,39,18,12,069,40,1*6E
$GPGSV,4,3,13,23,41,055,44,26,09,179,41,27,85,136,46,30,05,322,,1*69
$GPGSV,4,4,13,32,04,139,,1*58
$GLGSV,3,1,11,65,35,052,47,66,34,116,51,67,04,159,,72,01,008,12,1*79
$GLGSV,3,2,11,73,14,338,,79,25,221,43,80,41,284,40,81,66,026,42,1*73
$GLGSV,3,3,11,82,44,293,35,83,06,273,,88,21,078,50,1*4E
$GAGSV,3,1,11,02,42,197,43,04,14,049,38,06,16,075,43,09,14,098,44,7*73
$GAGSV,3,2,11,11,16,065,38,15,07,249,,25,02,165,,27,13,323,,7*73
$GNRMC,180100.00,A,4843.26047,N,00920.55500,E,0.004,,080225,,,A,V*17
$GNGGA,180100.00,4843.26047,N,00920.55500,E,1,12,0.53,243.8,M,47.6,M,,*45
$GPGSV,4,1,13,01,05,250,,02,11,259,,07,06,290,,08,55,299,38,1*67
$GPGSV,4,2,13,10,65,124,51,15,08,031,31,16,34,190,40,18,12,069,41,1*61
$GPGSV,4,3,13,23,41,055,44,26,09,179,41,27,85,136,46,30,05,322,,1*69
$GPGSV,4,4,13,32,04,139,,1*58
$GLGSV,3,1,11,65,35,052,47,66,34,116,50,67,04,159,,72,01,008,11,1*7B
$GLGSV,3,2,11,73,14,338,,79,25,221,43,80,41,284,40,81,66,026,42,1*73
$GLGSV,3,3,11,82,44,293,35,83,06,273,,88,21,078,50,1*4E
$GAGSV,3,1,11,02,42,197,43,04,14,049,38,06,16,075,43,09,14,098,44,7*73
$GAGSV,3,2,11,11,16,065,38,15,07,249,,25,02,165,,27,13,323,,7*73
$GAGSV,3,3,11,30,50,281,38,34,56,258,32,36,65,053,38,7*44
$GBGSV,3,1,11,02,03,100,34,05,18,122,44,08,21,036,38,12,46,287,,1*77
$GNRMC,180101.00,A,4843.26047,N,00920.55500,E,0.007,,080225,,,A,V*15
$GNGGA,180101.00,4843.26047,N,00920.55500,E,1,12,0.53,243.8,M,47.6,M,,*44
$GPGSV,4,1,13,01,05,250,,02,11,259,,07,06,290,,08,55,299,38,1*67
$GPGSV,4,2,13,10,65,124,51,15,08,031,31,16,34,190,40,18,12,069,41,1*61
$GPGSV,4,3,13,23,41,055,44,26,09,179,41,27,85,136,46,30,05,322,,1*69
$GPGSV,4,4,13,32,04,139,,1*58
$GLGSV,3,1,11,65,35,052,47,66,34,116,50,67,04,159,,72,01,008,13,1*79
$GLGSV,3,2,11,73,14,338,,79,25,221,42,80,41,284,40,81,66,026,42,1*72
$GLGSV,3,3,11,82,44,293,35,83,06,273,,88,21,078,50,1*4E
$GAGSV,3,1,11,02,42,197,43,04,14,049,38,06,16,075,43,09,14,098,44,7*73
$GNRMC,180102.00,A,4843.26045,N,00920.55498,E,0.010,,080225,,,A,V*12
$GNGGA,180102.00,4843.26045,N,00920.55498,E,1,12,0.55,243.7,M,47.6,M,,*4C
$GPGSV,4,1,13,01,05,250,,02,11,259,,07,06,290,,08,55,299,38,1*67
$GPGSV,4,2,13,10,65,124,51,15,08,031,31,16,34,190,40,18,12,069,42,1*62
$GPGSV,4,3,13,23,41,055,44,26,09,179,41,27,85,136,46,30,05,322,,1*69
$GPGSV,4,4,13,32,04,139,,1*58
$GLGSV,3,1,11,65,35,052,47,66,34,116,50,67,04,159,,72,01,008,14,1*7E
$GLGSV,3,2,11,73,14,338,,79,25,221,42,80,41,284,40,81,66,026,42,1*72
$GLGSV,3,3,11,82,44,293,35,83,06,273,,88,21,078,50,1*4E
$GAGSV,3,1,11,02,42,197,43,04,14,049,38,06,16,075,43,09,14,098,44,7*73
$GAGSV,3,2,11,11,15,065,38,15,07,249,,25,2,165,,27,13,323,,7*70
$GAGSV,3,3,11,30,50,281,37,34,56,258,32,36,65,053,37,7*44
$GNRMC,180103.00,A,4843.26044,N,00920.55496,E,0.012,,080225,,,A,V*1E
$GNGGA,180103.00,4843.26044,N,00920.55496,E,1,12,0.53,243.6,M,47.6,M,,*45
$GPGSV,4,1,13,01,05,250,,02,11,259,,07,06,290,,08,55,299,38,1*67
$GPGSV,4,2,13,10,65,124,51,15,08,031,31,16,34,190,40,18,12,069,42,1*62
$GPGSV,4,3,13,23,41,055,44,26,09,179,41,27,85,136,6,30,05,322,,1*69
$GPGSV,4,4,13,32,04,139,,1*58
$GLGSV,3,1,11,65,35,052,46,66,34,116,50,67,04,159,,72,01,008,12,1*79
$GLGSV,3,2,11,73,14,338,,79,25,221,42,80,41,284,40,81,66,026,42,1*72
$GLGSV,3,3,11,82,44,293,36,83,06,273,,88,21,078,50,1*4D
$GAGSV,3,1,11,02,42,197,43,04,14,049,38,06,16,075,43,09,14,098,44,7*73
$GAGSV,3,2,11,11,15,065,38,15,07,249,,25,02,165,,27,13,323,,7*70
$GAGSV,3,3,11,30,50,281,37,34,56,258,32,36,65,053,37,7*44
$GNRMC,180104.00,A,4843.26042,N,00920.55493,E,0.021,,080225,,,A,V*1A
$GNGGA,180104.00,4843.26042,N,00920.55493,E,1,12,0.53,243.5,M,47.6,M,,*42
$GPGSV,4,1,13,01,05,250,,02,11,259,,07,06,290,,08,55,299,38,1*67
$GPGSV,4,2,13,10,65,124,51,15,08,031,32,16,34,190,41,18,12,069,42,1*60
$GPGSV,4,3,13,23,41,055,44,26,09,179,41,27,85,136,46,30,05,322,,1*69
$GPGSV,4,4,13,32,04,139,,1*58
$GLGSV,3,1,11,65,35,052,46,66,34,116,51,67,04,159,,72,01,008,13,1*79
$GLGSV,3,2,11,73,14,338,,79,25,221,42,80,41,284,41,81,66,026,42,1*73
$GLGSV,3,3,11,82,44,293,36,83,06,273,,88,21,078,49,1*45
$GAGSV,3,1,11,02,42,197,43,04,14,049,38,06,16,075,43,09,14,098,44,7*73
$GAGSV,3,2,11,11,15,065,38,15,07,250,,25,02,165,,27,13,323,,7*78
$GNRMC,180105.00,A,4843.26041,N,00920.55491,E,0.012,,080225,,,A,V*1A
$GNGGA,180105.00,4843.26041,N,00920.55491,E,1,12,0.53,243.5,M,47.6,M,,*42
$GPGSV,4,1,13,01,05,250,,02,11,259,,07,06,290,,08,55,299,38,1*67
$GPGSV,4,2,13,10,65,124,51,15,08,01,32,16,34,190,41,18,12,069,42,1*60
$GPGSV,4,3,13,23,41,055,44,26,09,179,41,27,85,136,46,30,05,322,,1*69
$GPGSV,4,4,13,32,04,139,,1*58
$GLGSV,3,1,11,65,35,052,46,66,34,116,51,67,04,159,,72,01,008,13,1*79
$GLGSV,3,2,11,73,14,338,,79,25,221,42,80,41,284,41,81,66,026,42,1*73
$GLGSV,3,3,11,82,44,293,36,83,06,273,,88,21,078,49,1*45
$GAGSV,3,1,11,02,42,197,43,04,14,049,38,06,16,075,43,09,14,098,44,7*73
$GAGSV,3,2,11,11,15,065,38,15,07,250,,25,02,165,,27,13,323,,7*78
$GAGSV,3,3,11,30,50,281,37,34,56,258,33,36,65,053,37,7*45
$GNRMC,180106.00,A,4843.26040,N,00920.55488,E,0.009,,080225,,,A,V*1A
$GNGGA,180106.00,4843.26040,N,00920.55488,E,1,12,0.53,243.5,M,47.6,M,,*48
$GPGSV,4,1,13,01,05,250,,02,11,259,,07,06,290,,08,55,299,38,1*67
$GPGSV,4,2,13,10,65,124,51,15,08,031,32,16,34,190,41,18,12,069,42,1*60
$GPGSV,4,3,13,23,41,055,44,26,09,179,41,27,85,136,46,30,05,322,,1*69
$GPGSV,4,4,13,32,04,139,,1*58
$GLGSV,3,1,11,65,35,052,46,66,34,116,51,67,04,159,,72,01,008,12,1*78
$GLGSV,3,2,11,73,14,338,,79,25,221,41,80,41,284,41,81,66,026,42,1*70
$GLGSV,3,3,11,82,44,293,37,83,06,273,,88,21,078,49,1*44
$GAGSV,3,1,11,02,42,197,43,04,14,049,39,06,16,075,43,09,14,098,43,7*75
$GAGSV,3,2,11,11,15,065,38,15,07,250,,25,02,165,,27,13,323,,7*78
$GAGSV,3,3,11,30,50,281,37,34,56,258,33,36,65,053,37,7*45
$GNRMC,180107.00,A,4843.26040,N,00920.55487,E,0.015,,080225,,,A,V*19
$GNGGA,180107.00,4843.26040,N,00920.55487,E,1,12,0.53,243.4,M,7.6,M,,*47
$GPGSV,4,1,13,01,05,250,,02,11,259,,07,06,290,,08,55,299,37,1*68
$GPGSV,4,2,13,10,65,124,51,15,08,031,32,16,34,190,41,18,12,069,42,1*60
$GPGSV,4,3,13,23,41,055,44,26,09,179,41,27,85,136,46,30,05,322,,1*69
$GPGSV,4,4,13,32,04,139,,1*58
$GLGSV,3,1,11,65,35,052,46,66,34,116,51,67,04,159,,72,01,008,13,1*79
$GLGSV,3,2,11,73,14,338,,79,25,221,41,80,41,284,41,81,66,026,42,1*70
$GLGSV,3,3,11,82,44,293,37,83,06,273,,88,21,078,49,1*44
$GAGSV,3,1,11,02,42,197,43,04,14,049,39,06,16,075,43,09,14,098,43,7*75
$GAGSV,3,2,11,11,15,065,37,15,07,250,,25,02,165,,27,13,323,,7*77
$GNRMC,180108.00,A,4843.26040,N,00920.55486,E,0.011,,080225,,,A,V*13
$GNGGA,180108.00,4843.26040,N,00920.55486,E,1,12,0.53,243.4,M,47.6,M,,*49
$GPGSV,4,1,13,01,05,250,,02,11,259,,07,06,290,,08,55,299,37,1*68
$GPGSV,4,2,13,10,65,124,51,15,08,031,31,16,34,190,41,18,12,069,42,1*63
$GPGSV,4,3,13,23,41,055,44,26,09,179,41,27,85,136,46,30,05,322,,1*69
$GPGSV,4,4,13,32,04,139,,1*58
$GLGSV,3,1,11,65,35,052,46,66,34,116,51,67,04,159,,72,01,008,15,1*7F
$GLGSV,3,2,11,73,14,338,,79,25,221,41,80,41,284,1,81,66,026,42,1*70
$GLGSV,3,3,11,82,44,293,36,83,06,273,,88,21,078,50,1*4D
$GAGSV,3,1,11,02,42,197,43,04,14,049,39,06,16,075,43,09,14,098,43,7*75
$GAGSV,3,2,11,11,15,065,37,15,07,250,,25,02,165,,27,13,323,,7*77
$GNRMC,180109.00,A,4843.26040,N,00920.55485,E,0.009,,080225,,,A,V*18
$GNGGA,180109.00,4843.26040,N,00920.55485,E,1,12,0.53,243.4,M,47.6,M,,*4B
$GPGSV,4,1,13,01,05,250,,02,11,259,,07,06,290,,08,55,299,37,1*68
$GPGSV,4,2,13,10,65,124,51,15,08,031,31,16,34,190,41,18,12,069,42,1*63
$GPGSV,4,3,1323,41,055,44,26,09,179,41,27,85,136,46,30,05,322,,1*69
$GPGSV,4,4,13,32,04,139,,1*58
$GLGSV,3,1,11,65,35,052,46,66,34,116,51,67,04,159,,72,01,008,11,1*7B
$GLGSV,3,2,11,73,14,338,,79,25,221,40,80,41,284,42,81,66,026,42,1*72
$GLGSV,3,3,11,82,44,293,35,83,06,273,,88,21,078,50,1*4E
$GAGSV,3,1,11,02,42,197,43,04,14,049,39,06,16,075,43,09,14,098,43,7*75
$GAGSV,3,2,11,11,15,065,37,15,07,250,,25,02,165,,27,13,323,,7*77
$GNRMC,180110.00,A,4843.26040,N,00920.55485,E,0.004,,080225,,,A,V*1D
$GNGGA,180110.00,4843.26040,N,00920.55485,E,1,12,0.53,243.4,M,47.6,M,,*43
$GPGSV,4,1,13,01,05,250,,02,11,259,,07,06,290,,08,55,299,37,1*68
$GPGSV,4,2,13,10,65,124,51,15,08,031,31,16,34,190,42,18,12,069,41,1*63
$GPGSV,4,3,13,23,41,055,44,26,09,179,41,27,85,136,46,30,05,322,,1*69
$GPGSV,4,4,13,32,04,139,,1*58
$GLGSV,3,1,11,65,35,052,46,66,34,116,50,67,04,159,,72,01,008,12,1*79
$GLGSV,3,2,11,73,14,338,,79,25,221,40,80,41,284,42,81,66,026,42,1*72
$GNRMC,180111.00,A,4843.26040,N,00920.55484,E,0.019,,080225,,,A,V*11
$GNGGA,180111.00,4843.26040,N,00920.55484,E,1,12,0.53,243.5,M,47.6,M,,*42
$GPGSV,4,1,13,01,05,250,,02,11,259,,07,06,290,,08,55,299,36,1*69
$GPGSV,4,2,13,10,65,124,51,15,08,031,31,16,34,190,42,18,12,069,41,1*63
$GPGSV,4,3,13,23,41,055,44,26,09,179,41,27,85,136,46,30,05,322,,1*69
$GPGSV,4,4,13,32,04,139,,1*58
$GLGSV,3,1,11,65,35,052,46,66,34,116,50,67,04,159,,72,01,008,11,1*7A
$GLGSV,3,2,11,73,14,338,,79,25,221,40,80,41,284,42,81,66,026,42,1*72
$GLGSV,3,3,11,82,44,293,34,83,06,273,,88,21,078,50,1*4F
$GAGSV,3,1,11,02,42,197,43,04,14,049,40,06,16,075,43,09,14,098,43,7*7B
$GAGSV,3,2,11,11,15,065,37,15,07,250,,25,01,165,,27,13,323,,7*74
$GAGSV,3,3,11,30,50,281,37,34,57,259,34,36,65,053,37,7*42
$GNRMC,180112.00,A,4843.26041,N,00920.55483,E,0.024,,080225,,,A,V*1A
$GNGGA,180112.00,4843.26041,N,00920.55483,E,1,12,0.53,243.4,M,47.6,M,,*46
$GPGSV,4,1,13,01,05,250,,02,11,259,,07,06,290,,08,55,299,36,1*69
$GPGSV,4,2,13,10,65,124,50,15,08,031,31,16,34,190,42,18,12,069,41,1*62
$GPGSV,4,3,13,23,41,055,43,26,09,179,41,27,85,136,46,30,05,322,,1*6E
$GPGSV,4,4,13,32,04,139,,1*58
$GLGSV,3,1,11,65,35,052,46,66,34,116,50,67,04,159,,72,01,008,16,1*7D
$GLGSV,3,2,11,73,14,338,,79,25,221,39,80,41,284,42,81,66,026,42,1*7C
$GLGSV,3,3,11,82,44,293,34,83,06,273,,88,21,078,51,1*4E
$GAGSV,3,1,11,02,42,197,43,04,14,049,40,06,16,075,43,09,14,098,42,7*7A
$GAGSV,3,2,11,11,15,065,37,15,07,250,,25,01,165,,27,13,323,,7*74
$GNRMC,180113.00,A,4843.26041,N,00920.55482,E,0.016,,080225,,,A,V*1B
$GNGGA,180113.00,4843.26041,N,00920.55482,E,1,12,0.53,243.4,M,47.6,M,,*46
$GPGSV,4,1,13,01,05,250,,02,11,259,,07,06,290,,08,55,299,35,1*6A
$GPGSV,4,2,13,10,65,124,51,15,08,031,31,16,34,190,42,18,12,069,41,1*63
$GPGSV,4,3,13,23,41,055,43,26,09,179,40,27,85,136,46,30,05,322,,1*6F
$GPGSV,4,4,13,32,04,139,,1*58
$GLGSV,3,1,11,65,35,052,46,66,34,116,50,67,04,159,,72,01,008,13,1*78
$GLGSV,3,2,11,73,14,338,,79,25,221,38,80,41,284,42,81,66,026,42,1*7D
$GLGSV,3,3,11,82,44,293,34,83,06,273,,88,21,078,51,1*4E
$GAGSV,3,1,11,02,42,197,43,04,14,049,40,06,16,075,43,09,14,098,42,7*7A
$GAGSV,3,2,11,11,15,065,37,15,07,250,,25,01,165,,27,13,323,,7*74
$GAGSV,3,3,11,30,50,281,37,34,57,259,34,36,65,053,38,7*4D
$GNRMC,180114.00,A,4843.26039,N,00920.55482,E,0.014,,080225,,,A,V*11
$GNGGA,180114.00,4843.26039,N,00920.55482,E,1,12,0.53,243.4,M,47.6,M,,*4E
$GPGSV,4,1,13,01,05,250,,02,11,259,,07,06,290,,08,55,299,35,1*6A
$GPGSV,4,2,13,10,65,124,50,15,08,031,31,16,34,190,42,18,11,070,40,1*68
$GPGSV,43,13,23,41,055,43,26,09,179,40,27,85,136,46,30,05,322,,1*6F
$GPGSV,4,4,13,32,04,139,,1*58
$GLGSV,3,1,11,65,35,052,46,66,34,116,50,67,04,159,,72,01,008,11,1*7A
$GLGSV,3,2,11,73,14,338,,79,25,221,37,80,41,284,42,81,66,026,42,1*72
$GLGSV,3,3,11,82,44,293,34,83,06,273,,88,21,078,51,1*4E
$GAGSV,3,1,11,02,42,197,43,04,14,049,40,06,16,075,43,09,14,098,42,7*7A
$GAGSV,3,2,11,11,15,065,37,15,07,250,,25,01,165,,27,13,323,,7*74
$GNRMC,180115.00,A,4843.26039,N,00920.55482,E,0.006,,080225,,,A,V*13
$GNGGA,180115.00,4843.26039,N,00920.55482,E,1,12,0.53,243.4,M,47.6,M,,*4F
$GPGSV,4,1,13,01,05,250,,02,11,259,,07,06,290,,08,55,299,35,1*6A
$GPGSV,4,2,13,10,65,124,50,15,08,031,31,16,34,190,42,18,11,070,40,1*68
$GPGSV,4,3,13,23,41,055,43,26,09,179,40,27,85,136,46,30,05,322,,1*6F
$GPGSV,4,4,13,32,04,139,,1*58
$GLGSV,3,1,11,65,35,052,46,66,34,116,50,67,04,159,,72,01,008,12,1*79
$GLGSV,3,2,11,73,14,338,,79,25,221,37,80,41,284,42,81,66,026,42,1*72
$GLGSV,3,3,11,82,44,293,34,83,06,273,,88,21,078,51,1*4E
$GAGSV,3,1,11,02,42,197,43,04,14,049,40,06,16,075,43,09,14,098,42,7*7A
$GAGSV,3,2,11,11,15,065,37,15,07,250,,25,01,165,,27,13,323,,7*74
$GAGSV,3,3,11,30,50,280,36,34,57,259,34,36,65,053,38,7*4D
$GNRMC,180116.00,A,4843.26038,N,00920.55481,E,0.013,,080225,,,A,V*16
$GNGGA,180116.00,4843.26038,N,00920.55481,E,1,12,0.53,243.4,M,47.6,M,,*4E
$GPGSV,4,1,13,01,05,250,,02,11,259,,07,06,290,,08,55,299,34,1*6B
$GPGSV,4,2,13,10,65,124,50,15,08,031,31,16,34,190,42,18,11,070,40,1*68
$GPGSV,4,3,13,23,41,055,44,26,09,179,40,27,85,136,46,30,05,322,,1*68
$GPGSV,4,4,13,32,04,139,,1*58
$GLGSV,3,1,11,65,35,052,46,66,34,116,50,67,04,159,,72,01,008,12,1*79
$GLGSV,3,2,11,73,14,338,,79,25,221,36,80,41,284,42,81,66,026,42,1*73
$GLGSV,3,3,11,82,44,293,34,83,06,273,,88,21,078,51,1*4E
$GAGSV,3,1,11,02,42,197,43,04,14,049,40,06,16,075,43,09,14,098,41,7*79
$GAGSV,3,2,11,11,15,065,37,15,07,250,,25,01,165,,27,13,323,,7*74
$GAGSV,3,3,11,30,50,280,36,34,57,259,35,36,65,053,38,7*4C
$GNRMC,180117.00,A,4843.26038,N,00920.55480,E,0.013,,080225,,,A,V*16
$GNGGA,180117.00,4843.26038,N,00920.55480,E,1,12,0.53,243.4,M,47.6,M,,*4E
$GPGSV,4,1,13,01,05,250,,02,11,259,,07,06,290,,08,55,299,34,1*6B
$GPGSV,4,2,13,10,65,124,50,15,08,031,31,16,34,190,43,18,11,070,40,1*69
$GPGSV,4,3,13,23,41,055,44,26,09,179,40,27,85,136,46,30,05,321,,1*6B
$GPGSV,4,4,13,32,04,139,,1*58
$GLGSV,3,1,11,65,35,052,47,66,34,116,50,67,04,159,,72,01,008,10,1*7A
$GLGSV,3,2,11,73,14,338,,79,25,221,35,80,41,284,44,81,66,026,41,1*75
$GLGSV,3,3,11,82,44,293,34,83,06,273,,88,21,078,51,1*4E
$GAGSV,3,1,11,02,42,197,43,04,14,049,40,06,16,075,43,09,14,098,41,7*79
$GAGSV,3,2,11,11,15,065,37,15,07,250,,25,01,165,,27,13,323,,7*74
$GNRMC,180118.00,A,4843.26037,N,00920.55479,E,0.020,,080225,,,A,V*10
$GNGGA,180118.00,4843.26037,N,00920.55479,E,1,12,0.53,243.4,M,47.6,M,,*48
$GPGSV,4,1,13,01,05,251,,02,12,259,,07,06,290,,08,55,299,33,1*6E
$GPGSV,4,2,13,10,65,124,50,15,08,031,31,16,34,190,43,18,11,070,40,1*69
$GPGSV,4,3,13,23,41,055,44,26,09,179,40,27,85,136,46,30,05,321,,1*6B
$GPGSV,4,4,13,32,04,139,,1*58
$GLGSV,3,1,11,65,35,052,47,66,34,116,50,67,04,159,72,01,008,10,1*7A
$GLGSV,3,2,11,73,14,338,,79,25,221,33,80,41,284,42,81,66,026,41,1*75
$GLGSV,3,3,11,82,44,293,34,83,06,273,,88,21,078,51,1*4E
$GAGSV,3,1,11,02,42,197,43,04,14,049,40,06,16,075,43,09,14,098,40,7*78
$GAGSV,3,2,11,11,15,065,37,15,07,250,,25,01,165,,27,13,323,,7*74
$GNRMC,180119.00,A,4843.26037,N,00920.55478,E,0.034,,080225,,,A,V*15
$GNGGA,180119.00,4843.26037,N,00920.55478,E,1,12,0.53,243.3,M,47.6,M,,*4F
$GPGSV,4,1,13,01,05,251,,02,12,259,,07,06,290,,08,55,299,33,1*6E
$GPGSV,4,2,13,10,65,124,50,15,08,031,31,16,34,190,43,18,11,070,40,1*69
$GPGSV,4,3,13,23,41,055,44,26,09,179,40,27,85,136,46,30,05,321,,1*6B
$GPGSV,4,4,13,32,04,139,,1*58
$GLGSV,3,1,11,65,35,052,47,66,34,116,50,67,04,159,,72,01,008,12,1*78
$GLGSV,3,2,11,73,14,338,,79,25,221,32,80,41,284,43,81,66,026,41,1*75
$GLGSV,3,3,11,82,44,293,33,83,06,273,,88,21,078,50,1*48
$GAGSV,3,1,11,02,42,197,43,04,14,049,40,06,16,075,43,09,14,098,40,7*78
$GAGSV,3,2,11,11,15,065,37,15,07,250,,25,01,165,,27,13,323,,7*74
$GNRMC,180120.00,A,4843.26036,N,00920.55475,E,0.028,,080225,,,A,V*1E
$GNGGA,180120.00,4843.26036,N,00920.55475,E,1,12,0.53,243.3,M,47.6,M,,*49
$GPGSV,4,1,13,01,05,251,,02,12,259,,07,06,290,,08,55,299,33,1*6E
$GPGSV,4,2,13,10,65,124,50,15,08,031,31,16,34,190,43,18,11,070,39,1*67
$GPGSV,4,3,13,23,41,055,44,26,09,179,40,27,85,136,46,30,05,321,,1*6B
$GPGSV,4,4,13,32,04,139,,1*58
$GLGSV,3,1,11,65,35,052,47,66,34,116,50,67,04,159,,72,01,008,11,1*7B
$GLGSV,3,2,11,73,14,338,,79,25,221,31,80,41,284,42,81,66,026,41,1*77
$GLGSV,3,3,11,82,44,293,33,83,06,273,,88,21,078,50,1*48
$GAGSV,3,1,11,02,42,197,43,04,14,049,40,06,16,075,43,09,14,098,40,7*78
$GAGSV,3,2,11,11,15,065,37,15,07,250,,25,01,165,,27,13,323,,7*74
$GNRMC,180121.00,A,4843.26035,N,00920.55474,E,0.007,,080225,,,A,V*10
$GNGGA,180121.00,4843.26035,N,00920.55474,E,1,12,0.53,243.3,M,47.6,M,,*4A
$GPGSV,4,1,13,01,05,251,,02,12,259,,07,06,290,,08,55,299,33,1*6E
$GPGSV,4,2,13,10,65,124,50,15,08,031,31,16,34,190,43,18,11,070,39,1*67
$GPGSV,4,3,13,23,41,055,44,26,09,179,40,27,85,136,46,30,05,321,,1*6B
$GPGSV,4,4,13,32,04,139,,1*58
$GLGSV,3,1,11,65,35,052,47,66,34,116,50,67,04,159,,72,01,008,15,1*7F
$GNRMC,180122.00,A,4843.26035,N,00920.55472,E,0.012,,080225,,,A,V*11
$GNGGA,180122.00,4843.26035,N,00920.55472,E,1,12,0.53,243.2,M,47.6,M,,*4E
$GPGSV,4,1,13,01,05,251,,02,12,259,,07,06,290,,08,55,299,33,1*6E
$GPGSV,4,2,13,10,65,124,50,15,08,031,31,16,34,190,43,18,11,070,39,1*67
$GPGSV,4,3,13,23,41,055,44,26,09,179,40,27,85,136,46,30,05,321,,1*6B
$GPGSV,4,4,13,32,04,139,,1*58
$GLGSV,3,1,11,65,35,052,46,66,34,116,50,67,04,159,,72,01,008,11,1*7A
$GLGSV,3,2,11,73,14,338,,79,25,221,31,80,41,284,41,81,66,026,42,1*77
$GLGSV,3,3,11,82,44,293,32,83,06,273,,88,21,078,50,1*49
$GAGSV,3,1,11,02,42,197,42,04,14,049,40,06,16,075,43,09,14,098,39,*77
$GAGSV,3,2,11,11,15,065,37,15,07,250,,25,01,165,,27,13,323,,7*74
$GAGSV,3,3,11,30,50,280,37,34,57,259,34,36,65,053,39,7*4D
$GNRMC,180123.00,A,4843.26034,N,00920.55470,E,0.018,,080225,,,A,V*19
$GNGGA,180123.00,4843.26034,N,00920.55470,E,1,12,0.53,243.1,M,47.6,M,,*4F
$GPGSV,4,1,13,01,05,251,,02,12,259,,07,06,290,,08,55,299,33,1*6E
$GPGSV,4,2,13,10,65,124,50,15,08,031,32,16,34,190,43,18,11,070,39,1*64
$GPGSV,4,3,13,23,41,055,45,26,09,179,40,27,85,136,46,30,05,321,,1*6A
$GPGSV,4,4,13,32,04,139,,1*58
$GLGSV,3,1,11,65,35,052,46,66,34,116,50,67,04,159,,72,01,008,10,1*7B
$GLGSV,3,2,11,73,14,338,,79,25,221,31,80,41,284,41,81,66,026,42,1*77
$GLGSV,3,3,11,82,44,293,32,83,06,273,,88,21,078,49,1*41
$GAGSV,3,1,11,02,42,197,42,04,14,049,40,06,16,075,43,09,14,098,39,7*77
$GAGSV,3,2,11,11,15,065,37,15,07,250,,25,01,165,,27,13,323,,7*74
$GNRMC,180124.00,A,4843.26034,N,00920.55469,E,0.015,,080225,,,A,V*1B
