$GNRMC,020000.00,A,4843.26111,N,00920.55462,E,0.028,,080225,,,A,V*14
$GNGGA,020000.00,4843.26111,N,00920.55462,E,1,12,0.49,248.8,M,47.6,M,,*48
$GPGSV,3,1,11,03,08,120,46,04,38,066,46,06,51,229,,07,53,164,46,1*6A
$GPGSV,3,2,11,09,70,057,46,11,46,286,,16,13,060,44,20,31,304,32,1*60
$GPGSV,3,3,11,26,08,032,32,29,03,344,,30,23,194,40,1*59
$GLGSV,3,1,09,68,21,075,47,69,64,032,43,70,31,286,28,78,32,049,47,1*77
$GLGSV,3,2,09,79,35,113,50,80,05,158,,84,30,219,15,85,43,286,42,1*7E
$GLGSV,3,3,09,86,13,340,35,1*4C
$GAGSV,3,1,11,04,17,250,40,07,02,067,,10,45,299,38,11,23,320,,7*7D
$GAGSV,3,2,11,12,57,263,30,19,75,264,28,21,02,134,,27,15,087,46,7*7C
$GAGSV,3,3,11,29,54,063,47,30,11,037,37,33,32,185,43,7*46
$GBGSV,3,1,12,02,02,101,38,05,18,122,41,06,19,042,40,09,33,049,42,1*7A
$GBGSV,3,2,12,14,05,094,45,16,16,040,36,23,14,167,,24,26,053,43,1*7E
$GBGSV,3,3,12,25,40,118,48,27,21,230,,29,07,334,,30,26,284,,1*74
$GNRMC,020001.00,A,4843.26110,N,00920.55463,E,0.030,,080225,,,A,V*1C
$GNGGA,020001.00,4843.26110,N,00920.55463,E,1,12,0.49,248.7,M,47.6,M,,*46
$GPGSV,3,1,11,03,08,120,47,04,38,066,46,06,51,229,,07,53,164,46,1*6B
$GPGSV,3,2,11,09,70,057,45,11,46,286,,16,13,060,45,20,31,304,31,1*61
$GPGSV,3,3,11,26,08,032,32,29,03,344,,30,23,194,39,1*57
$GLGSV,3,1,09,68,21,075,48,69,64,032,43,70,31,286,28,78,32,049,48,1*77
$GLGSV,3,2,09,79,35,113,51,80,05,158,,84,30,219,14,85,43,286,42,1*7E
$GLGSV,3,3,09,86,13,340,35,1*4C
$GAGSV,3,1,11,04,17,250,40,07,02,067,,10,45,299,37,11,23,320,,7*72
$GAGSV,3,2,11,12,57,263,30,19,75,264,28,21,02,134,,27,15,087,46,7*7C
$GAGSV,3,3,11,29,54,063,47,30,11,037,37,33,32,185,43,7*46
$GBGSV,3,1,12,02,02,101,38,05,18,122,41,06,19,042,40,09,33,049,42,1*7A
$GBGSV,3,2,12,14,05,094,45,16,16,040,37,23,14,167,,24,26,053,43,1*7F
$GBGSV,3,3,12,25,40,118,48,27,21,230,,29,07,334,,30,26,284,,1*74
$GNRMC,020002.00,A,4843.26109,N,00920.55465,E,0.018,,080225,,,A,V*1B
$GNGGA,020002.00,4843.26109,N,00920.55465,E,1,12,0.49,248.7,M,47.6,M,,*4B
$GPGSV,3,1,11,03,08,120,47,04,38,066,45,06,51,229,,07,54,164,46,1*6F
$GPGSV,3,2,11,09,70,057,45,11,46,286,,16,14,059,45,20,32,304,31,1*6F
$GPGSV,3,3,11,26,08,032,32,29,03,344,,30,24,194,39,1*50
$GLGSV,3,1,09,68,21,075,48,69,64,032,43,70,31,286,28,78,32,049,48,1*77
$GLGSV,3,2,09,79,35,113,51,80,05,158,,84,30,219,13,85,43,286,43,1*78
$GLGSV,3,3,09,86,13,340,35,1*4C
$GAGSV,3,1,11,04,17,250,40,07,02,067,,10,45,299,37,11,23,320,,7*72
$GAGSV,3,2,11,12,57,263,31,19,5,264,28,21,02,134,,27,15,087,45,7*7E
$GAGSV,3,3,11,29,54,063,47,30,11,037,37,33,32,185,43,7*46
$GBGSV,3,1,12,02,02,101,38,05,18,122,41,06,19,042,40,09,33,049,42,1*7A
$GBGSV,3,2,12,14,04,095,45,16,16,040,36,23,14,167,,24,26,053,43,1*7E
$GBGSV,3,3,12,25,40,118,48,27,21,230,,29,07,334,,30,26,284,,1*74
$GNRMC,020003.00,A,4843.26108,N,00920.55468,E,0.028,,080225,,,A,V*15
$GNGGA,020003.00,4843.26108,N,00920.55468,E,1,12,0.50,248.6,M,47.6,M,,*4F
$GPGSV,3,1,11,03,08,120,46,04,38,066,45,06,51,229,,07,54,164,46,1*6E
$GPGSV,3,2,11,09,70,057,45,11,46,286,,16,14,059,45,20,32,304,30,1*6E
$GPGSV,3,3,11,26,08,032,32,29,03,344,,30,24,194,39,1*50
$GLGSV,3,1,09,68,21,075,48,69,64,032,43,70,31,286,28,78,32,049,48,1*77
$GLGSV,3,2,09,79,35,113,51,80,05,158,,84,30,219,12,85,43,286,43,1*79
$GLGSV,3,3,09,86,13,340,35,1*4C
$GAGSV,3,1,11,04,17,250,40,07,02,067,,10,45,299,37,11,23,320,,7*72
$GAGSV,3,2,11,12,57,263,31,19,75,264,28,21,02,134,,27,15,087,45,7*7E
$GAGSV,3,3,11,29,54,063,47,30,11,037,37,33,32,185,43,7*46
$GBGSV,3,1,12,02,02,101,38,05,18,122,41,06,19,042,40,09,33,049,42,1*7A
$GBGSV,3,2,12,14,04,095,45,16,16,040,36,23,14,167,,24,26,053,43,1*7E
$GBGSV,3,3,12,25,40,118,48,27,21,230,,29,07,334,,30,26,284,,1*74
$GNRMC,020004.00,A,4843.26108,N,00920.55470,E,0.028,,080225,,,A,V*1B
$GNGGA,020004.00,4843.26108,N,00920.55470,E,1,12,0.50,248.7,M,47.6,M,,*40
$GPGSV,3,1,11,03,08,120,45,04,38,066,45,06,51,229,,07,54,164,46,1*6D
$GPGSV,3,2,11,09,70,057,45,11,46,286,,16,14,059,45,20,32,304,30,1*6E
$GPGSV,3,3,11,26,08,032,33,29,03,344,,30,24,194,40,1*5F
$GLGSV,3,1,09,68,21,075,49,69,64,032,43,70,31,286,28,78,32,049,48,1*76
$GLGSV,3,2,09,79,35,113,51,80,05,158,,84,30,219,11,85,43,286,43,1*7A
$GLGSV,3,3,09,86,13,340,35,1*4C
$GAGSV,3,1,11,04,17,250,40,07,02,067,,10,45,299,37,11,23,320,,7*72
$GAGSV,3,2,11,12,57,263,31,19,75,264,28,21,02,134,,27,15,087,45,7*7E
$GAGSV,3,3,11,29,54,063,47,30,11,037,37,33,32,185,44,7*41
$GBGSV,3,1,12,02,02,101,38,05,18,122,41,06,19,042,40,09,33,049,42,1*7A
$GBGSV,3,2,12,14,04,095,44,16,16,040,36,23,14,167,,24,26,053,42,1*7E
$GBGSV,3,3,12,25,40,118,48,27,21,230,,29,07,334,,30,26,284,,1*74
$GNRMC,020005.00,A,4843.26107,N,00920.55473,E,0.014,,080225,,,A,V*19
$GNGGA,020005.00,4843.26107,N,00920.55473,E,1,12,0.50,248.7,M,47.6,M,,*4D
$GPGSV,3,1,11,03,08,120,43,04,38,066,45,06,51,229,,07,54,164,46,1*6B
$GPGSV,3,2,11,09,70,057,45,11,46,286,,16,14,059,45,20,32,304,30,1*6E
$GPGSV,3,3,11,26,08,032,34,29,03,344,,30,24,194,40,1*58
$GLGSV,3,1,09,68,21,075,49,69,64,032,43,70,31,286,28,78,32,049,48,1*76
$GLGSV,3,2,09,79,35,113,51,80,05,158,,84,30,219,14,85,43,286,43,1*7F
$GLGSV,3,3,09,86,13,340,35,1*4C
$GAGSV,3,1,11,04,17,250,40,07,02,067,,10,45,299,37,11,23,320,,7*72
$GAGSV,3,2,11,12,57,263,31,19,75,264,28,21,02,134,,27,15,087,45,7*7E
$GAGSV,3,3,11,29,54,063,47,30,11,037,37,33,32,185,44,7*41
$GBGSV,3,1,12,02,02,101,38,05,18,122,41,06,19,042,40,09,33,049,42,1*7A
$GBGSV,3,2,12,14,04,095,44,16,16,040,36,23,14,167,,24,26,053,42,1*7E
$GBGSV,3,3,12,25,40,118,48,27,21,230,,29,07,334,,30,26,284,,1*74
$GNRMC,020006.00,A,4843.26107,N,00920.55476,E,0.013,,080225,,,A,V*18
$GNGGA,020006.00,4843.26107,N,00920.55476,E,1,12,0.50,248.6,M,47.6,M,,*4A
$GPGSV,3,1,11,03,08,120,43,04,38,066,45,06,51,229,,07,54,164,46,1*6B
$GPGSV,3,2,11,09,70,057,45,11,46,286,,16,14,059,45,20,32,304,30,1*6E
$GPGSV,3,3,11,26,08,032,34,29,03,344,,30,24,194,40,1*58
$GLGSV,3,1,09,68,21,075,49,69,64,032,43,70,31,286,27,78,32,049,48,1*79
$GLGSV,3,2,09,79,35,113,51,80,05,158,,84,30,219,15,85,43,286,43,1*7E
$GLGSV,3,3,09,86,13,340,35,1*4C
$GAGSV,3,1,11,04,17,250,40,07,02,067,,10,45,299,37,11,23,320,,7*72
$GAGSV,3,2,11,12,57,263,31,19,75,264,28,21,02,134,,27,15,087,45,7*7E
$GAGSV,3,3,11,29,54,063,47,30,11,037,37,33,32,185,44,7*41
$GBGSV,3,1,12,02,02,101,38,05,18,122,41,06,19,042,41,09,33,049,42,1*7B
$GBGSV,3,2,12,14,04,095,44,16,16,040,36,23,14,167,,24,26,053,42,1*7E
$GBGSV,3,3,12,25,40,118,48,27,21,230,,29,07,334,,30,26,284,,1*74
$GNRMC,020007.00,A,4843.26107,N,00920.55478,E,0.029,,080225,,,A,V*1E
$GNGGA,020007.00,4843.26107,N,00920.55478,E,1,12,0.50,248.6,M,47.6,M,,*45
$GPGSV,3,1,11,03,08,120,45,04,38,066,45,06,51,229,,07,54,164,46,1*6D
$GPGSV,3,2,11,09,70,057,45,11,46,286,,16,14,059,45,20,32,304,30,1*6E
$GPGSV,3,3,11,26,08,032,35,29,0,344,,30,24,194,40,1*59
$GLGSV,3,1,09,68,21,075,49,69,64,032,44,70,31,286,27,78,32,049,48,1*7E
$GLGSV,3,2,09,79,35,113,51,80,05,158,,84,30,219,16,85,43,286,43,1*7D
$GLGSV,3,3,09,86,13,340,35,1*4C
$GAGSV,3,1,11,04,17,250,40,07,02,067,,10,45,299,37,11,23,320,,7*72
$GAGSV,3,2,11,12,57,263,31,19,75,264,28,21,02,134,,27,15,087,45,7*7E
$GAGSV,3,3,11,29,54,063,46,30,11,037,37,33,32,185,44,7*40
$GBGSV,3,1,12,02,02,101,38,05,18,122,41,06,19,042,41,09,33,049,42,1*7B
$GBGSV,3,2,12,14,04,095,44,16,16,040,36,23,14,167,,24,26,053,42,1*7E
$GBGSV,3,3,12,25,40,118,48,27,21,230,,29,07,334,,30,26,284,,1*74
$GNRMC,020008.00,A,4843.26108,N,00920.55482,E,0.041,,080225,,,A,V*15
$GNGGA,020008.00,4843.26108,N,00920.55482,E,1,12,0.49,248.6,M,47.6,M,,*48
$GPGSV,3,1,11,03,08,120,46,04,38,066,45,06,51,229,,07,54,164,46,1*6E
$GPGSV,3,2,11,09,70,057,45,11,46,286,,16,14,059,45,20,32,304,30,1*6E
$GPGSV,3,3,11,26,08,032,35,29,03,344,,30,24,194,40,1*59
$GLGSV,3,1,09,68,21,075,48,69,64,032,44,70,31,286,27,78,32,049,47,1*70
$GLGSV,3,2,09,79,35,113,51,80,05,158,,84,30,219,14,85,43,286,43,1*7F
$GLGSV,3,3,09,86,13,340,35,1*4C
$GAGSV,3,1,11,04,17,250,40,07,02,067,,10,45,299,37,11,23,320,,7*72
$GAGSV,3,2,11,12,57,263,31,19,75,264,28,21,02,134,,27,15,087,45,7*7E
$GAGSV,3,3,11,29,54,063,46,30,11,037,37,33,32,185,44,7*40
$GBGSV,3,1,12,02,02,101,38,05,18,122,41,06,19,042,40,09,33,049,42,1*7A
$GBGSV,3,2,12,14,04,095,44,16,16,040,36,23,15,167,,24,26,053,42,1*7F
$GBGSV,3,3,12,25,40,118,48,27,21,230,,29,07,334,,30,26,284,,1*74
$GNRMC,020009.00,A,4843.26109,N,00920.55486,E,0.053,,080225,,,A,V*12
$GNGGA,020009.00,4843.26109,N,00920.55486,E,1,12,0.49,248.7,M,47.6,M,,*4D
$GPGSV,3,1,11,03,08,120,47,04,38,066,46,06,51,229,,07,54,164,46,1*6C
$GPGSV,3,2,11,09,70,057,45,11,46,286,,16,14,059,45,20,32,304,30,1*6E
$GPGSV,3,3,11,26,08,032,34,29,03,344,,30,24,194,40,1*58
$GLGSV,3,1,09,68,21,075,48,69,64,032,44,70,31,286,27,78,32,049,47,1*70
$GLGSV,3,2,09,79,35,113,51,80,05,158,,84,30,219,18,85,43,286,42,1*72
$GLGSV,3,3,09,86,13,340,35,1*4C
$GAGSV,3,1,11,04,17,250,40,07,02,067,,10,45,299,37,11,23,320,,7*72
$GAGSV,3,2,11,12,57,263,32,19,75,264,28,21,02,134,,27,15,087,45,7*7D
$GAGSV,3,3,11,29,54,063,46,30,11,037,37,33,32,185,44,7*40
$GBGSV,3,1,12,02,02,101,38,05,18,122,41,06,19,042,41,09,33,049,42,1*7B
$GBGSV,3,2,12,14,04,095,44,16,16,040,36,23,15,167,,24,26,052,43,1*7F
$GBGSV,3,3,12,25,40,118,48,27,21,230,,29,07,334,,30,26,284,,1*74
$GNRMC,020010.00,A,4843.26110,N,00920.55489,E,0.016,,080225,,,A,V*1C
$GNGGA,020010.00,4843.26110,N,00920.55489,E,1,12,0.49,248.8,M,47.6,M,,*4D
$GPGSV,3,1,11,03,08,120,47,04,38,066,46,06,51,229,,07,54,164,45,1*6F
$GPGSV,3,2,11,09,70,057,45,11,46,286,,16,14,059,45,20,32,304,31,1*6F
$GPGSV,3,3,11,26,08,032,35,29,03,344,,30,24,194,40,1*59
$GLGSV,3,1,09,68,21,076,48,69,63,034,44,70,31,286,27,78,32,048,47,1*73
$GLGSV,3,2,09,79,35,113,51,80,05,158,,84,30,219,18,85,43,285,42,1*71
$GLGSV,3,3,09,86,13,339,34,1*43
$GAGSV,3,1,11,04,17,250,40,07,02,067,,10,45,299,37,11,23,320,,7*72
$GAGSV,3,2,11,12,57,263,31,19,75,264,28,21,02,134,,27,15,087,45,7*7E
$GAGSV,3,3,11,29,54,063,46,30,11,037,37,33,32,185,44,7*40
$GBGSV,3,1,12,02,02,101,38,05,18,122,41,06,19,042,40,09,33,049,42,1*7A
$GBGSV,3,2,12,14,04,095,44,16,16,040,36,23,15,167,,24,26,052,43,1*7F
$GBGSV,3,3,12,25,41,117,48,27,21,230,,29,07,334,,30,26,284,,1*7A
$GNRMC,020011.00,A,4843.26111,N,00920.55492,E,0.026,,080225,,,A,V*15
$GNGGA,020011.00,4843.26111,N,00920.55492,E,1,12,0.49,248.8,M,47.6,M,,*47
$GPGSV,3,1,11,03,08,120,45,04,38,066,46,06,51,229,,07,54,164,45,1*6D
$GPGSV,3,2,11,09,70,057,45,11,46,286,,16,14,059,45,20,32,34,31,1*6F
$GPGSV,3,3,11,26,08,032,35,29,03,344,,30,24,194,40,1*59
$GLGSV,3,1,09,68,21,076,48,69,63,034,44,70,31,286,28,78,32,048,47,1*7C
$GLGSV,3,2,09,79,35,113,51,80,05,158,,84,30,219,16,85,43,285,43,1*7E
$GLGSV,3,3,09,86,13,339,34,1*43
$GAGSV,3,1,11,04,17,250,40,07,02,067,,10,45,299,36,11,23,320,,7*73
$GAGSV,3,2,11,12,57,263,31,19,75,264,28,21,02,134,,27,15,087,45,7*7E
$GAGSV,3,3,11,29,54,063,46,30,11,037,37,33,32,185,45,7*41
$GBGSV,3,1,12,02,02,101,38,05,18,122,41,06,19,042,41,09,33,049,42,1*7B
$GBGSV,3,2,12,14,04,095,44,16,16,040,36,23,15,167,,24,26,052,43,1*7F
$GBGSV,3,3,12,25,41,117,48,27,21,230,,29,07,334,,30,26,284,,1*7A
$GNRMC,020012.00,A,4843.26111,N,00920.55494,E,0.013,,080225,,,A,V*16
$GNGGA,020012.00,4843.26111,N,00920.55494,E,1,12,0.49,248.8,M,47.6,M,,*42
$GPGSV,3,1,11,03,08,120,42,04,38,066,46,06,51,229,,07,54,164,45,1*6A
$GPGSV,3,2,11,09,70,057,45,11,46,286,,16,14,059,45,20,32,304,31,1*6F
$GPGSV,3,3,11,26,08,032,35,29,03,344,,30,24,194,40,1*59
$GLGSV,3,1,09,68,21,076,48,69,63,034,44,70,31,286,28,78,32,048,47,1*7C
$GLGSV,3,2,09,79,35,113,51,80,05,158,,84,30,219,18,85,43,285,43,1*70
$GLGSV,3,3,09,86,13,339,34,1*43
$GAGSV,3,1,11,04,17,250,40,07,02,067,,10,45,299,36,11,23,320,,7*73
$GAGSV,3,2,11,12,57,263,31,19,75,264,28,21,02,134,,27,15,087,45,7*7E
$GAGSV,3,3,11,29,54,063,46,30,11,037,37,33,32,185,45,7*41
$GBGSV,3,1,12,02,02,101,38,05,18,122,41,06,19,042,41,09,33,049,42,1*7B
$GBGSV,3,2,12,14,04,095,43,16,16,040,36,23,15,167,,24,26,052,43,1*78
$GBGSV,3,3,12,25,41,117,48,27,20,230,,29,07,334,,30,26,284,,1*7B
$GNRMC,020013.00,A,4843.26111,N,00920.55496,E,0.031,,080225,,,A,V*15
$GNGGA,020013.00,4843.26111,N,00920.55496,E,1,12,0.49,248.9,M,47.6,M,,*40
$GPGSV,3,1,11,03,08,120,43,04,38,066,46,06,51,229,,07,54,164,45,1*6B
$GPGSV,3,2,11,09,70,057,45,11,46,286,,16,14,059,44,20,32,304,32,1*6D
$GPGSV,3,3,11,26,08,032,35,29,03,344,,30,24,194,39,1*57
$GLGSV,3,1,09,68,21,076,48,69,63,034,44,70,31,286,28,78,32,048,47,1*7C
$GLGSV,3,2,09,79,35,113,51,80,05,158,,84,30,219,18,85,43,285,42,1*71
$GLGSV,3,3,09,86,13,339,33,*44
$GAGSV,3,1,11,04,17,250,40,07,02,067,,10,45,299,36,11,23,320,,7*73
$GAGSV,3,2,11,12,57,263,31,19,75,264,28,21,02,134,,27,15,087,45,7*7E
$GAGSV,3,3,11,29,54,063,46,30,11,037,36,33,32,185,45,7*40
$GBGSV,3,1,12,02,02,101,38,05,18,122,41,06,19,042,41,09,33,049,42,1*7B
$GBGSV,3,2,12,14,04,095,43,16,16,040,36,23,15,167,,24,26,052,42,1*79
$GBGSV,3,3,12,25,41,117,48,27,20,230,,29,07,334,,30,26,284,,1*7B
$GNRMC,020014.00,A,4843.26112,N,00920.55497,E,0.033,,080225,,,A,V*12
$GNGGA,020014.00,4843.26112,N,00920.55497,E,1,12,0.49,248.9,M,47.6,M,,*45
$GPGSV,3,1,11,03,08,120,46,04,38,066,46,06,51,229,,07,54,164,45,1*6E
$GPGSV,3,2,11,09,70,057,45,11,46,286,,16,14,059,44,20,32,304,32,1*6D
$GPGSV,3,3,11,26,08,032,35,29,03,344,,30,24,194,40,1*59
$GLGSV,3,1,09,68,21,076,47,69,63,034,45,70,31,286,28,78,32,048,47,1*72
$GLGSV,3,2,09,79,35,113,51,80,05,158,,84,30,219,20,85,43,285,42,1*7A
$GLGSV,3,3,09,86,13,339,33,1*44
$GAGSV,3,1,11,04,17,250,40,07,02,067,,10,45,299,36,11,23,320,,7*73
$GAGSV,3,2,11,12,57,263,31,19,75,264,29,21,02,134,,27,15,087,45,7*7F
$GAGSV,3,3,11,29,54,063,46,30,11,037,36,33,32,185,45,7*40
$GBGSV,3,1,12,02,02,101,38,05,18,122,41,06,19,042,41,09,33,049,42,1*7B
$GBGSV,3,2,12,14,04,095,43,16,16,040,36,23,15,167,,24,26,052,42,1*79
$GBGSV,3,3,12,25,41,117,48,27,20,230,,29,07,333,,30,26,284,,1*7C
$GNRMC,020015.00,A,4843.26112,N,00920.55499,E,0.040,,080225,,,A,V*19
$GNGGA,020015.00,4843.26112,N,00920.55499,E,1,12,0.49,248.9,M,47.6,M,,*4A
$GPGSV,3,1,11,03,08,120,47,04,38,066,46,06,51,229,,07,54,164,45,1*6F
$GPGSV,3,2,11,09,70,057,45,11,46,286,,16,14,059,43,20,32,304,32,1*6A
$GPGSV,3,3,11,26,08,032,36,29,03,344,,30,24,194,40,1*5A
$GLGSV,3,1,09,68,21,076,47,69,63,034,45,70,31,286,29,78,32,048,48,1*7C
$GLGSV,3,2,09,79,35,113,51,80,05,158,,84,30,219,20,85,43,285,42,1*7A
$GLGSV,3,3,09,86,13,339,33,1*44
$GAGSV,3,1,11,04,17,250,40,07,02,067,,10,45,299,36,11,23,320,,7*73
$GAGSV,3,2,11,12,57,263,31,19,75,264,29,21,02,134,,27,15,087,45,7*7F
$GAGSV,3,3,11,29,54,063,46,30,11,037,36,33,32,18545,7*40
$GBGSV,3,1,12,02,02,101,38,05,18,122,41,06,19,042,41,09,33,049,42,1*7B
$GBGSV,3,2,12,14,04,095,43,16,16,040,36,23,15,167,,24,26,052,42,1*79
$GBGSV,3,3,12,25,41,117,48,27,20,230,,29,07,333,,30,26,283,,1*7B
$GNRMC,020016.00,A,4843.26114,N,00920.55500,E,0.011,,080225,,,A,V*19
$GNGGA,020016.00,4843.26114,N,00920.55500,E,1,12,0.50,248.9,M,47.6,M,,*46
$GPGSV,3,1,11,03,08,120,48,04,38,066,47,06,51,229,,07,54,164,45,1*61
$GPGSV,3,2,11,09,70,057,44,11,46,286,,16,14,059,43,20,32,304,32,1*6B
$GPGSV,3,3,11,26,08,032,35,29,03,344,,30,24,194,40,1*59
$GLGSV,3,1,09,68,21,076,47,69,63,034,45,70,31,286,29,78,32,048,48,1*7C
$GLGSV,3,2,09,79,35,113,51,80,05,158,,84,30,219,08,85,43,285,42,1*70
$GLGSV,3,3,09,86,13,339,33,1*44
$GAGSV,3,1,11,04,17,250,40,07,02,067,,10,45,299,36,11,2,320,,7*73
$GAGSV,3,2,11,12,57,263,30,19,75,264,29,21,02,134,,27,15,087,45,7*7E
$GAGSV,3,3,11,29,54,063,46,30,11,037,36,33,32,185,45,7*40
$GBGSV,3,1,12,02,02,101,38,05,18,122,41,06,19,043,41,09,33,049,42,1*7A
$GBGSV,3,2,12,14,04,095,43,16,16,040,35,23,15,167,,24,26,052,42,1*7A
$GBGSV,3,3,12,25,41,117,48,27,20,230,,29,07,333,,30,26,283,,1*7B
$GNGGA,020017.00,4843.26116,N,00920.55499,E,1,12,0.49,248.9,M,47.6,M,,*4C
$GPGSV,3,1,11,03,08,120,47,04,38,066,47,06,51,229,,07,54,164,45,1*6E
$GPGSV,3,2,11,09,70,057,44,11,46,286,,16,14,059,43,20,32,304,33,1*6A
$GPGSV,3,3,11,26,08,032,35,29,03,344,,30,24,194,40,1*59
$GLGSV,3,1,09,68,21,076,47,69,63,034,44,70,31,286,29,78,32,048,48,1*7D
$GLGSV,3,2,09,79,35,113,51,80,05,158,,84,30,219,14,85,43,285,42,1*7D
$GLGSV,3,3,09,86,13,339,34,1*43
$GAGSV,3,1,11,04,17,250,40,07,02,067,,10,45,299,36,11,23,320,,7*73
$GAGSV,3,2,11,12,57,263,30,19,75,264,30,21,02,134,,27,15,087,45,7*76
$GAGSV,3,3,11,29,54,063,46,30,11,037,36,33,32,185,45,7*40
$GBGSV,3,1,12,02,02,101,38,05,18,122,41,06,19,043,41,09,33,049,42,1*7A
$GBGSV,3,2,12,14,04,095,42,16,16,040,35,23,15,167,,24,26,052,43,1*7A
$GBGSV,3,3,12,25,41,117,48,27,20,230,,29,07,333,,30,26,283,,1*7B
$GNRMC,020018.00,A,4843.26118,N,00920.55498,E,0.018,,080225,,,A,V*12
$GNGGA,020018.00,4843.26118,N,00920.55498,E,1,12,0.49,248.8,M,47.6,M,,*4D
$GPGSV,3,1,11,03,08,120,45,04,38,066,47,06,51,229,,07,54,164,45,1*6C
$GPGSV,3,2,11,09,70,057,44,11,46,286,,16,14,059,42,20,32,304,33,1*6B
$GPGSV,3,3,11,26,08,032,35,29,03,344,,30,24,194,40,1*59
$GLGSV,3,1,09,68,21,076,47,69,63,034,44,70,31,286,29,78,32,048,48,1*7D
$GLGSV,3,2,09,79,35,113,51,80,05,158,,84,30,219,19,85,43,285,42,1*70
$GLGSV,3,3,09,86,13,339,34,1*43
$GAGSV,3,1,11,04,17,250,40,07,02,067,,10,45,299,36,11,23,320,,7*73
$GAGSV,3,2,11,12,57,263,30,19,75,264,30,21,02,134,,27,15,087,45,7*76
$GAGSV,3,3,11,29,54,063,46,30,11,037,35,33,32,185,45,7*43
$GBGSV,3,1,12,02,02,101,38,05,18,122,41,06,19,043,41,09,33,049,42,1*7A
$GBGSV,3,2,12,14,04,095,42,16,16,040,35,23,15,167,,24,26,052,43,1*7A
$GBGSV,3,3,12,25,41,117,48,27,20,230,,29,07,333,,30,26,283,,1*7B
$GNRMC,020019.00,A,4843.26119,N,00920.55497,E,0.029,,080225,,,A,V*1F
$GNGGA,020019.00,4843.26119,N,00920.55497,E,1,12,0.49,248.7,M,47.6,M,,*4D
$GPGSV,3,1,11,03,08,120,42,04,38,066,47,06,51,229,,07,54,164,45,1*6B
$GPGSV,3,3,11,26,08,032,35,29,03,344,,30,24,194,40,1*59
$GLGSV,3,1,09,68,21,076,47,69,63,034,44,70,31,286,29,78,32,048,48,1*7D
$GLGSV,3,2,09,79,35,113,51,80,05,158,,84,30,219,21,85,43,285,42,1*7B
$GLGSV,3,3,09,86,13,339,35,1*42
$GAGSV,3,1,11,04,17,250,40,07,02,067,,10,45,299,36,11,23320,,7*73
$GAGSV,3,2,11,12,57,263,30,19,75,264,30,21,02,134,,27,15,087,45,7*76
$GAGSV,3,3,11,29,54,063,46,30,11,037,35,33,32,185,45,7*43
$GBGSV,3,1,12,02,02,101,38,05,18,122,41,06,19,043,41,09,33,049,42,1*7A
$GBGSV,3,2,12,14,04,095,42,16,16,040,35,23,15,167,,24,26,052,43,1*7A
$GBGSV,3,3,12,25,41,117,48,27,20,230,,29,07,333,,30,26,283,,1*7B
$GNRMC,020020.00,A,4843.26119,N,00920.55497,E,0.020,,080225,,,A,V*1C
$GNGGA,020020.00,4843.26119,N,00920.55497,E,1,12,0.49,248.5,M,47.6,M,,*45
$GPGSV,3,1,11,03,08,120,42,04,38,066,47,06,51,229,,07,54,164,45,1*6B
$GLGSV,3,3,09,86,13,339,35,1*42
$GAGSV,3,1,11,04,17,250,40,07,02,067,,10,45,299,36,11,23,320,,7*73
$GAGSV,3,2,11,12,57,263,30,19,75,264,30,21,02,134,,27,15,087,45,7*76
$GAGSV,3,3,11,29,54,063,46,30,11,037,35,33,32,185,45,7*43
$GBGSV,3,1,12,02,02,101,38,05,18,122,41,06,19,043,41,09,33,049,42,1*7A
$GBGSV,3,2,12,14,04,095,42,16,16,040,35,23,15,167,,24,26,052,43,1*7A
$GBGSV,3,3,12,25,41,117,48,27,20,230,,29,07,333,,30,26,283,,1*7B
$GNRMC,020021.00,A,4843.26119,N,00920.55495,E,0.021,,080225,,,A,V*1E
$GNGGA,020021.00,4843.26119,N,00920.55495,E,1,12,0.49,248.4,M,47.6,M,,*47
$GPGSV,3,1,11,03,08,120,46,04,38,066,47,06,51,229,,07,54,164,45,1*6F
$GPGSV,3,2,11,09,70,057,44,11,46,286,,16,14,059,41,20,32,304,33,1*68
$GPGSV,3,3,11,26,08,032,35,29,03,344,,30,24,194,40,1*59
$GLGSV,3,1,09,68,21,076,48,69,63,034,43,70,31,286,30,78,32,048,48,1*7D
$GLGSV,3,2,09,79,35,113,50,80,05,158,,84,30,219,20,85,43,285,42,1*7B
$GLGSV,3,3,09,86,13,339,36,1*41
$GAGSV,3,1,11,04,17,250,40,07,02,067,,10,45,299,36,11,23,320,,7*73
$GAGSV,3,2,11,12,57,263,30,19,75,264,30,21,02,134,,27,15,087,45,7*76
$GAGSV,3,3,11,29,54,063,46,30,11,037,35,33,32,185,46,7*40
$GBGSV,3,1,12,02,02,101,38,05,18,122,41,06,19,043,41,09,33,049,42,1*7A
$GBGSV,3,2,12,14,04,095,42,16,16,040,35,23,15,167,,24,26,052,43,1*7A
$GBGSV,3,3,12,25,41,117,48,27,20,230,,29,07,333,,30,26,283,,1*7B
$GNRMC,020022.00,A,4843.26119,N,00920.55493,E,0.013,,080225,,,A,V*1A
$GNGGA,020022.00,4843.26119,N,00920.55493,E,1,12,0.49,248.3,M,47.6,M,,*45
$GPGSV,3,1,11,03,08,120,47,04,38,066,47,06,51,229,,07,54,164,45,1*6E
$GPGSV,3,2,11,09,70,057,43,11,46,286,,16,14,059,41,20,32,304,33,1*6F
$GPGSV,3,3,11,26,08,032,35,29,03,344,,30,24,194,40,1*59
$GLGSV,3,1,09,68,21,076,48,69,63,034,43,70,32,286,31,78,32,048,48,1*7F
$GLGSV,3,2,09,79,35,113,50,80,05,158,,84,30,219,20,85,43,285,42,1*7B
$GLGSV,3,3,09,86,13,339,35,1*42
$GAGSV,3,1,11,04,17,250,40,07,02,067,,10,45,299,36,11,23,320,,7*73
$GAGSV,3,2,11,12,57,263,30,19,75,264,30,21,02,134,,27,15,087,45,7*76
$GAGSV,3,3,11,29,54,063,46,30,11,037,35,33,32,185,46,7*40
$GBGSV,3,1,12,02,02,101,38,05,18,122,41,06,19,043,41,09,33,049,42,1*7A
$GBGSV,3,2,12,14,04,095,42,16,16,040,35,23,15,167,,24,26,052,43,1*7A
$GBGSV,3,3,12,25,41,117,48,27,20,230,,29,07,333,,30,26,283,,1*7B
$GNRMC,020023.00,A,4843.26120,N,00920.55492,E,0.017,,080225,,,A,V*14
$GNGGA,020023.00,4843.26120,N,00920.55492,E,1,12,0.49,248.3,M,47.6,M,,*4F
$GPGSV,3,1,11,03,08,120,48,04,38,066,47,06,51,229,,07,54,164,45,1*61
$GPGSV,3,2,11,09,70,057,43,11,46,286,,16,14,059,41,20,32,304,33,1*6F
$GPGSV,3,3,11,26,08,032,35,29,03,344,,30,24,194,39,1*57
$GLGSV,3,1,09,68,21,076,48,69,63,034,43,70,32,286,31,78,32,048,48,1*7F
$GLGSV,3,2,09,79,35,113,50,80,05,158,,84,30,219,20,85,43,285,42,1*7B
$GLGSV,3,3,09,86,13,339,35,1*42
$GAGSV,3,1,11,04,17,250,40,07,02,067,,10,45,299,36,11,23,320,,7*73
$GAGSV,3,2,11,12,57,263,30,19,75,264,30,21,02,134,,27,15,087,45,7*76
$GAGSV,3,3,11,29,54,063,46,30,11,037,35,33,32,185,45,7*43
$GBGSV,3,1,12,02,02,101,38,05,18,122,41,06,19,043,41,09,33,049,42,1*7A
$GBGSV,3,2,12,14,04,095,42,16,16,040,35,23,15,167,,24,26,052,43,1*7A
$GBGSV,3,3,12,25,41,117,48,27,20,230,,29,07,333,,30,26,283,,1*7B
$GNRMC,020024.00,A,4843.26121,N,00920.55490,E,0.014,,080225,,,A,V*13
$GNGGA,020024.00,4843.26121,N,00920.55490,E,1,12,0.49,248.3,M,47.6,M,,*4B
$GPGSV,3,1,11,03,08,120,47,04,38,066,47,06,51,229,,07,54,164,45,1*6E
$GPGSV,3,2,11,09,70,057,43,11,46,286,,16,14,059,41,20,32,304,33,1*6F
$GPGSV,3,3,11,26,08,032,35,29,03,344,,30,24,194,38,1*56
$GLGSV,3,1,09,68,21,076,48,69,63,034,43,70,32,286,32,78,32,048,49,1*7D
$GLGSV,3,2,09,79,35,113,50,80,05,158,,84,30,219,19,85,43,285,42,1*71
$GLGSV,3,3,09,86,13,339,36,1*41
$GAGSV,3,1,11,04,17,250,40,07,02,067,,10,45,299,35,11,23,320,,7*70
$GAGSV,3,2,11,12,57,263,30,19,75,264,30,21,02,134,,27,15,087,45,7*76
$GAGSV,3,3,11,29,54,063,46,30,11,037,35,33,32,185,45,7*43
$GBGSV,3,1,12,02,02,101,39,05,18,122,41,06,19,043,41,09,33,049,42,1*7B
$GBGSV,3,2,12,14,04,095,42,16,16,040,35,23,15,167,,24,26,052,44,1*7D
$GBGSV,3,3,12,25,41,117,48,27,20,230,,29,07,333,,30,26,283,,1*7B
$GNRMC,020025.00,A,4843.26121,N,00920.55488,E,0.005,,080225,,,A,V*1B
$GNGGA,020025.00,4843.26121,N,00920.55488,E,1,12,0.49,248.3,M,47.6,M,,*43
$GPGSV,3,1,11,03,08,120,45,04,38,066,47,06,51,229,,07,54,164,45,1*6C
$GPGSV,3,2,11,09,70,057,43,11,46,286,,16,14,059,41,20,32,304,34,1*68
$GPGSV,3,3,11,26,08,032,35,29,03,344,,30,24,194,38,1*56
$GLGSV,3,1,09,68,21,076,48,69,63,034,43,70,32,286,32,78,32,048,49,1*7D
$GLGSV,3,2,09,79,35,113,50,80,05,158,,84,30,219,18,85,43,285,42,1*70
$GLGSV,3,3,09,86,13,339,36,1*41
$GAGSV,3,1,11,04,17,250,40,07,02,067,,10,45,299,35,11,23,320,,7*70
$GAGSV,3,2,11,12,57,263,30,19,75,264,30,21,02,134,,27,15,087,45,7*76
$GAGSV,3,3,11,29,54,063,46,30,11,037,36,33,32,185,46,7*43
$GBGSV,3,1,12,02,02,101,38,05,18,122,41,06,19,043,41,09,33,049,42,1*7A
$GBGSV,3,2,12,14,04,095,42,16,16,040,35,23,15,167,,24,26,052,44,1*7D
$GBGSV,3,3,12,25,41,117,47,27,20,230,,29,07,333,,30,26,283,,1*74
$GNRMC,020026.00,A,4843.26121,N,00920.55486,E,0.003,,080225,,,A,V*10
$GNGGA,020026.00,4843.26121,N,00920.55486,E,1,12,0.49,248.2,M,47.6,M,,*4F
$GPGSV,3,1,11,03,08,120,41,04,38,066,47,06,51,229,,07,54,164,45,1*68
$GPGSV,3,2,11,09,70,057,44,11,46,286,,16,14,059,41,20,32,304,33,1*68
$GPGSV,3,3,11,26,08,032,35,29,03,344,,30,24,194,38,1*56
$GLGSV,3,1,09,68,21,076,48,69,63,034,42,70,32,286,32,78,32,048,49,1*7C
$GLGSV,3,2,09,79,35,113,50,80,05,158,,84,30,219,17,85,43,285,42,1*7F
$GLGSV,3,3,09,86,13,339,36,1*41
$GAGSV,3,1,11,04,17,250,40,07,02,067,,10,45,299,35,11,23,320,,7*70
$GAGSV,3,2,11,12,57,263,30,19,75,264,30,21,02,134,,27,15,087,45,7*76
$GAGSV,3,3,11,29,54,063,46,30,11,037,36,33,32,185,46,7*43
$GBGSV,3,1,12,02,02,101,38,05,18,122,41,06,19,043,41,09,33,049,42,1*7A
$GBGSV,3,2,12,14,04,095,42,16,16,040,35,23,15,167,,24,26,052,44,1*7D
$GBGSV,3,3,12,25,41,117,47,27,20,230,,29,07,333,,30,26,283,,1*74
$GNRMC,020027.00,A,4843.26119,N,00920.55484,E,0.009,,080225,,,A,V*12
$GNGGA,020027.00,4843.26119,N,00920.55484,E,1,12,0.49,248.2,M,47.6,M,,*47
$GPGSV,3,1,11,03,08,120,43,04,38,066,47,06,51,229,,07,54,164,45,1*6A
$GPGSV,3,2,11,09,70,057,44,11,46,286,,16,14,059,41,20,32,304,33,1*68
$GPGSV,3,3,11,26,08,032,34,29,03,344,,30,24,194,38,1*57
$GLGSV,3,1,09,68,21,076,48,69,63,034,42,70,32,286,33,78,32,048,49,1*7D
$GLGSV,3,2,09,79,35,113,50,80,05,158,,84,30,219,15,85,43,285,42,1*7D
$GLGSV,3,3,09,86,13,339,36,1*41
$GAGSV,3,1,11,04,17,250,40,07,02,067,,10,45,299,35,11,23,320,,7*70
$GAGSV,3,2,11,12,57,263,30,19,75,264,30,21,02,134,,27,15,087,45,7*76
$GAGSV,3,3,11,29,54,063,46,30,11,037,36,33,32,185,46,7*43
$GBGSV,3,1,12,02,02,101,39,05,18,122,41,06,19,043,41,09,33,049,42,1*7B
$GBGSV,3,2,12,14,04,095,42,16,16,040,35,23,15,167,,24,26,052,44,1*7D
$GBGSV,3,3,12,25,41,117,47,27,20,230,,29,07,333,,30,26,283,,1*74
$GNRMC,020028.00,A,4843.26116,N,00920.55483,E,0.009,,080225,,,A,V*15
$GNGGA,020028.00,4843.26116,N,00920.55483,E,1,12,0.49,248.2,M,47.6,M,,*40
$GPGSV,3,1,11,03,08,120,46,04,38,066,47,06,51,229,,07,54,164,44,1*6E
$GPGSV,3,2,11,09,70,057,44,11,46,286,,16,14,059,41,20,32,304,34,1*6F
$GPGSV,3,3,11,26,08,032,34,29,03,344,,30,24,194,38,1*57
$GLGSV,3,1,09,68,21,076,48,69,63,034,42,70,32,286,33,78,32,048,49,1*7D
$GLGSV,3,2,09,79,35,113,50,80,05,158,,84,30,219,15,85,43,285,42,1*7D
$GLGSV,3,3,09,86,13,339,35,1*42
$GAGSV,3,1,11,04,17,250,40,07,02,067,,10,45,299,35,11,23,320,,7*70
$GAGSV,3,2,11,12,57,263,30,19,75,264,30,21,02,134,,27,15,087,45,7*76
$GAGSV,3,3,11,29,54,063,46,30,11,037,36,33,32,185,46,7*43
$GBGSV,3,1,12,02,02,101,39,05,18,122,41,06,19,043,41,09,33,049,42,1*7B
$GBGSV,3,2,12,14,04,095,43,16,16,040,35,23,15,167,,24,26,052,44,1*7C
$GBGSV,3,3,12,25,41,117,47,27,20,230,,29,07,333,,30,26,283,,1*74
$GNRMC,020029.00,A,4843.26114,N,00920.55483,E,0.013,,080225,,,A,V*1D
$GNGGA,020029.00,4843.26114,N,00920.55483,E,1,12,0.49,248.3,M,47.6,M,,*42
$GPGSV,3,1,11,03,08,120,48,04,38,066,47,06,51,229,,07,54,164,44,1*60
$GPGSV,3,2,11,09,70,057,44,11,46,286,,16,14,059,41,20,32,304,34,1*6F
$GPGSV,3,3,11,26,08,032,34,29,03,344,,30,24,194,38,1*57
$GLGSV,3,1,09,68,21,076,48,69,63,034,42,70,32,286,34,78,32,048,49,1*7A
$GLGSV,3,3,09,86,13,339,36,1*41
$GAGSV,3,1,11,04,17,250,40,07,02,067,,10,45,299,35,11,23,320,,7*70
$GAGSV,3,2,11,12,57,263,30,19,75,264,30,21,02,134,,27,15,087,45,7*76
$GAGSV,3,3,11,29,54,063,46,30,11,037,36,33,32,185,46,7*43
$GBGSV,3,1,12,02,02,101,39,05,18,122,41,06,19,043,41,09,33,049,42,1*7B
$GBGSV,3,2,12,14,04,095,43,16,16,040,35,23,15,167,,24,26,052,44,1*7C
$GBGSV,3,3,12,25,41,117,47,27,20,230,,29,07,333,,30,26,283,,1*74
$GNRMC,020030.00,A,4843.26112,N,00920.55483,E,0.010,,080225,,,A,V*10
$GNGGA,020030.00,4843.26112,N,00920.55483,E,1,12,0.49,248.4,M,47.6,M,,*4B
$GPGSV,3,1,11,03,08,120,48,04,38,066,47,06,51,229,,07,54,164,44,1*60
$GPGSV,3,2,11,09,70,057,44,11,46,286,,16,14,059,41,20,32,304,34,1*6F
$GPGSV,3,3,11,26,08,032,33,29,03,344,,30,24,194,38,1*50
$GLGSV,3,1,09,68,21,076,48,69,63,034,43,70,32,286,34,78,32,048,49,1*7B
$GLGSV,3,2,09,79,35,113,49,80,05,158,,84,30,219,15,85,43,285,42,1*75
$GLGSV,3,3,09,86,13,339,36,1*41
$GAGSV,3,1,11,04,17,250,40,07,02,067,,10,45,299,35,11,23,320,,7*70
$GAGSV,3,2,11,12,57,263,31,19,75,264,30,21,02,134,,27,15,087,45,7*77
$GAGSV,3,3,11,29,54,063,46,30,11,037,36,33,32,185,46,7*43
$GBGSV,3,1,12,02,02,101,39,05,18,122,41,06,19,043,41,09,33,049,42,1*7B
$GBGSV,3,2,12,14,04,095,42,16,16,040,35,23,15,167,,24,26,052,44,1*7D
$GBGSV,3,3,12,25,41,117,47,27,20,230,,29,07,333,,30,26,283,,1*74
$GNRMC,020031.00,A,4843.26111,N,00920.55482,E,0.018,,080225,,,A,V*1B
$GNGGA,020031.00,4843.26111,N,00920.55482,E,1,12,0.49,248.5,M,47.6,M,,*49
$GPGSV,3,1,11,03,08,120,47,04,38,066,47,06,51,229,,07,54,164,44,1*6F
$GPGSV,3,2,11,09,70,057,44,11,46,286,,16,14,059,42,20,32,304,34,1*6C
$GPGSV,3,3,11,26,08,032,32,29,03,344,,30,24,194,38,1*51
$GLGSV,3,1,09,68,21,076,48,69,63,034,44,70,32,286,33,78,32,048,49,1*7B
$GLGSV,3,2,09,79,35,113,49,80,05,158,,84,30,219,15,85,43,285,42,1*75
$GLGSV,3,3,09,86,13,339,36,1*41
$GAGSV,3,1,11,04,17,250,40,07,02,067,,10,45,299,35,11,23,320,,7*70
$GAGSV,3,2,11,12,57,263,31,19,75,264,30,21,02,134,,27,15,087,45,7*77
$GAGSV,3,3,11,29,54,063,46,30,11,037,36,33,32,185,46,7*43
$GBGSV,3,1,12,02,02,101,39,05,18,122,41,06,19,043,41,09,33,049,42,1*7B
$GBGSV,3,2,12,14,04,095,42,16,16,040,34,23,15,167,,24,26,052,44,1*7C
$GBGSV,3,3,12,25,41,117,47,27,20,230,,29,07,333,,30,26,283,,1*74
$GNRMC,020032.00,A,4843.26110,N,00920.55481,E,0.003,,080225,,,A,V*10
$GNGGA,020032.00,4843.26110,N,00920.55481,E,1,12,0.49,248.6,M,47.6,M,,*4B
$GPGSV,3,1,1,03,08,120,43,04,38,066,47,06,51,229,,07,54,164,44,1*6B
$GPGSV,3,2,11,09,70,057,44,11,46,286,,16,14,059,42,20,32,304,34,1*6C
$GPGSV,3,3,11,26,08,032,32,29,03,344,,30,24,194,38,1*51
$GLGSV,3,1,09,68,21,076,48,69,63,034,44,70,32,286,33,78,32,048,49,1*7B
$GLGSV,3,2,09,79,35,113,48,80,06,158,,84,30,219,14,85,43,285,42,1*76
$GLGSV,3,3,09,86,13,339,36,1*41
$GAGSV,3,1,11,04,17,250,40,07,02,067,,10,45,299,35,11,23,320,,7*70
$GAGSV,3,2,11,12,57,263,31,19,75,264,30,21,02,134,,27,15,087,45,7*77
$GAGSV,3,3,11,29,54,063,46,30,11,037,36,33,32,185,46,7*43
$GBGSV,3,1,12,02,02,101,39,05,18,122,41,06,19,043,41,09,33,049,42,1*7B
$GBGSV,3,2,12,14,04,095,42,16,16,040,35,23,15,167,,24,26,052,44,1*7D
$GBGSV,3,3,12,25,41,117,47,27,20,230,,29,07,333,,30,26,283,,1*74
$GNRMC,020033.00,A,4843.26108,N,00920.55479,E,0.002,,080225,,,A,V*1E
$GNGGA,020033.00,4843.26108,N,00920.55479,E,1,12,0.49,248.6,M,47.6,M,,*44
$GPGSV,3,1,11,03,08,120,39,04,38,066,47,06,51,229,,07,54,164,44,1*66
$GPGSV,3,2,11,09,70,057,44,11,46,286,,16,14,059,43,20,32,304,34,1*6D
$GPGSV,3,3,11,26,08,032,32,29,03,344,,30,24,194,38,1*51
$GLGSV,3,1,09,68,21,076,48,69,63,034,44,70,32,286,33,78,32,048,50,1*73
$GLGSV,3,2,09,79,35,113,48,80,06,158,,84,30,219,16,85,43,285,41,1*77
$GLGSV,3,3,09,86,13,339,37,1*40
$GAGSV,3,1,11,04,17,250,40,07,02,067,,10,45,299,35,11,23,320,,7*70
$GAGSV,3,2,11,12,57,263,32,19,75,264,30,21,02,134,,27,15,087,45,7*74
$GAGSV,3,3,11,29,54,063,6,30,11,037,36,33,32,185,46,7*43
$GBGSV,3,1,12,02,02,101,39,05,18,122,41,06,19,043,41,09,33,049,42,1*7B
$GBGSV,3,2,12,14,04,095,43,16,16,040,34,23,15,167,,24,26,052,44,1*7D
$GBGSV,3,3,12,25,41,117,47,27,20,230,,29,07,333,,30,26,283,,1*74
$GNRMC,020034.00,A,4843.26106,N,00920.55476,E,0.008,,080225,,,A,V*12
$GNGGA,020034.00,4843.26106,N,00920.55476,E,1,12,0.49,248.6,M,47.6,M,,*42
$GPGSV,3,1,11,03,08,120,42,04,38,066,47,06,51,229,,07,54,164,44,1*6A
$GPGSV,3,2,11,09,70,057,44,11,46,286,,16,14,059,43,20,32,304,34,1*6D
$GPGSV,3,3,11,26,08,032,31,29,03,344,,30,24,194,39,1*53
$GLGSV,3,1,09,68,21,076,48,69,63,034,44,70,32,286,33,78,32,048,50,1*73
$GLGSV,3,2,09,79,35,113,48,80,06,158,,84,30,219,18,85,43,285,41,1*79
$GLGSV,3,3,09,86,13,339,38,1*4F
$GAGSV,3,1,11,04,17,250,40,07,02,067,,10,45,299,35,11,23,320,,7*70
$GAGSV,3,2,11,12,57,263,32,19,75,264,30,21,02,134,,27,15,087,45,7*74
$GAGSV,3,3,11,29,54,063,46,30,11,037,36,33,32,185,46,7*43
$GBGSV,3,1,12,02,02,101,39,05,18,122,41,06,19,043,41,09,33,049,42,1*7B
$GBGSV,3,2,12,14,04,095,43,16,16,040,35,23,15,167,,24,26,052,44,1*7C
$GBGSV,3,3,12,25,41,117,48,27,20,230,,29,07,333,,30,26,283,,1*7B
$GNRMC,020035.00,A,4843.26105,N,00920.55474,E,0.007,,080225,,,A,V*1D
$GNGGA,020035.00,4843.26105,N,00920.55474,E,1,12,0.49,248.7,M,47.6,M,,*43
$GPGSV,3,1,11,03,08,120,45,04,38,066,47,06,51,229,,07,54,164,44,1*6D
$GPGSV,3,2,11,09,70,057,44,11,46,286,,16,14,059,43,20,32,304,34,1*6D
$GPGSV,3,3,11,26,08,032,31,29,03,344,,30,24,194,38,1*52
$GLGSV,3,1,09,68,21,076,48,69,63,034,44,70,32,286,33,78,32,048,50,1*73
$GLGSV,3,2,09,79,35,113,48,80,06,158,,84,30,219,20,85,43,285,41,1*72
$GLGSV,3,3,09,86,13,339,38,1*4F
$GAGSV,3,1,11,04,17,250,40,07,02,067,,10,45,299,35,11,23,320,,7*70
$GAGSV,3,2,11,12,57,263,32,19,75,264,30,21,02,134,,27,15,087,45,7*74
$GAGSV,3,3,11,29,54,063,46,30,11,037,36,33,32,185,46,7*43
$GBGSV,3,1,12,02,02,101,38,05,18,122,41,06,19,043,41,09,33,049,42,1*7A
$GBGSV,3,2,12,14,04,095,43,16,16,040,35,23,15,167,,24,26,052,44,1*7C
$GBGSV,3,3,12,25,41,117,48,27,20,230,,29,07,333,,30,26,283,,1*7B
$GNRMC,020036.00,A,4843.26103,N,00920.55472,E,0.016,,080225,,,A,V*1E
$GNGGA,020036.00,4843.26103,N,00920.55472,E,1,12,0.49,248.7,M,47.6,M,,*40
$GPGSV,3,1,11,03,08,120,48,04,38,066,47,06,51,229,,07,54,164,44,1*60
$GPGSV,3,2,11,09,70,057,43,11,46,286,,16,14,059,44,20,32,304,35,1*6C
$GPGSV,3,3,11,26,08,032,30,29,03,344,,30,24,194,38,1*53
$GLGSV,3,1,09,68,21,076,48,69,63,034,43,70,32,286,33,78,32,048,50,1*74
$GLGSV,3,2,09,79,35,113,48,80,06,158,,84,29,218,21,85,43,285,41,1*7A
$GLGSV,3,3,09,86,13,339,37,1*40
$GAGSV,3,1,11,04,17,250,39,07,02,067,,10,45,299,35,11,23,320,,7*7E
$GAGSV,3,2,11,12,57,263,33,19,75,264,30,21,02,134,,27,15,087,45,7*75
$GAGSV,3,3,11,29,54,063,45,30,11,037,36,33,32,185,46,7*40
$GBGSV,3,1,12,02,02,101,39,05,18,122,41,06,19,043,41,09,33,049,42,1*7B
$GBGSV,3,2,12,14,04,095,43,16,16,040,34,23,15,167,,24,26,052,44,1*7D
$GBGSV,3,3,12,25,41,117,48,27,20,230,,29,07,333,,30,26,283,,1*7B
$GNRMC,020037.00,A,4843.26101,N,00920.55469,E,0.007,,080225,,,A,V*17
$GNGGA,020037.00,4843.26101,N,00920.55469,E,1,12,0.49,248.7,M,47.6,M,,*49
$GPGSV,3,1,11,03,08,120,48,04,38,066,47,06,51,229,,07,54,164,44,1*60
$GPGSV,3,2,11,09,70,057,43,11,46,286,,16,14,059,44,20,32,304,35,1*6C
$GPGSV,3,3,11,26,08,032,30,29,03,344,,30,24,194,38,1*53
$GLGSV,3,1,09,68,21,076,47,69,63,034,43,70,32,286,33,78,32,048,50,1*7B
$GLGSV,3,2,09,79,35,113,48,80,06,158,,84,29,218,21,85,43,284,41,1*7B
$GLGSV,3,3,09,86,13,339,37,1*40
$GAGSV,3,1,11,04,17,250,39,07,02,067,,10,45,299,35,11,23,320,,7*7E
$GAGSV,3,2,11,12,57,263,33,19,75,264,30,21,02,134,,27,15,087,45,7*75
$GAGSV,3,3,11,29,54,063,45,30,11,037,36,33,32,185,46,7*40
$GBGSV,3,1,12,02,02,101,39,05,18,122,41,06,19,043,41,09,33,049,42,1*7B
$GBGSV,3,2,12,14,04,095,43,16,16,040,34,23,15,167,,24,26,052,44,1*7D
$GBGSV,3,3,12,25,41,117,48,27,20,230,,29,07,333,,30,26,283,,1*7B
$GNRMC,020038.00,A,4843.26100,N,00920.55465,E,0.009,,080225,,,A,V*1B
$GNGGA,020038.00,4843.26100,N,00920.55465,E,1,12,0.49,248.7,M,47.6,M,,*4B
$GPGSV,3,1,11,03,08,120,47,04,38,066,47,06,51,229,,07,54,164,44,1*6F
$GPGSV,3,2,11,09,70,057,43,11,46,286,,16,14,059,44,20,32,304,34,1*6D
$GPGSV,3,3,11,26,08,032,28,29,03,344,,30,24,194,38,1*5A
$GLGSV,3,1,09,68,21,076,47,69,63,034,43,70,32,286,33,78,32,048,49,1*73
$GLGSV,3,2,09,79,35,113,48,80,06,158,,84,29,218,22,85,43,284,41,1*78
$GLGSV,3,3,09,86,13,339,38,1*4F
$GAGSV,3,1,11,04,17,250,39,07,02,067,,10,45,299,35,11,23,320,,7*7E
$GAGSV,3,2,11,12,57,263,33,19,75,264,30,21,02,134,,27,15,087,45,7*75
$GAGSV,3,3,11,29,54,063,45,30,11,037,36,33,32,185,46,7*40
$GBGSV,3,1,12,02,02,101,39,05,18,122,41,06,19,043,41,09,33,049,42,1*7B
$GBGSV,3,2,12,14,04,095,43,16,16,040,34,23,15,167,,24,26,052,44,1*7D
$GBGSV,3,3,12,25,41,117,48,27,20,230,,29,07,333,,30,26,283,,1*7B
$GNRMC,020039.00,A,4843.26101,N,00920.55461,E,0.013,,080225,,,A,V*14
$GNGGA,020039.00,4843.26101,N,00920.55461,E,1,12,0.49,248.7,M,47.6,M,,*4F
$GPGSV,3,1,11,03,08,120,43,04,38,066,47,06,51,229,,07,54,164,44,1*6B
$GPGSV,3,2,11,09,70,057,42,11,46,286,,16,14,059,44,20,32,304,34,1*6C
$GPGSV,3,3,11,26,08,032,30,29,03,344,,30,24,194,38,1*53
$GLGSV,3,1,09,68,21,076,46,69,63,034,43,70,32,286,33,78,32,048,49,1*72
$GLGSV,3,2,09,79,35,113,48,80,06,158,,84,29,218,23,85,43,284,41,1*79
$GLGSV,3,3,09,86,13,339,38,1*4F
$GAGSV,3,1,11,04,17,250,39,07,02,067,,10,45,299,35,11,23,320,,7*7E
$GAGSV,3,2,11,12,57,263,33,19,75,264,30,21,02,134,,27,15,087,45,7*75
$GAGSV,3,3,11,29,54,063,45,30,11,037,36,33,32,185,46,7*40
$GBGSV,3,1,12,02,02,101,39,05,18,122,41,06,19,043,41,09,33,049,42,1*7B
$GBGSV,3,2,12,14,04,095,43,16,16,040,34,23,15,167,,24,26,052,43,1*7A
$GBGSV,3,3,12,25,41,117,48,27,20,230,,29,07,333,,30,26,283,,1*7B
$GNRMC,020040.00,A,4843.26099,N,00920.55457,E,0.007,,080225,,,A,V*1A
$GNGGA,020040.00,4843.26099,N,00920.55457,E,1,12,0.49,248.8,M,47.6,M,,*4B
$GPGSV,3,1,11,03,08,120,37,04,38,066,48,06,51,229,,07,54,164,44,1*67
$GPGSV,3,2,11,09,70,057,42,11,46,286,,16,14,059,44,20,32,304,34,1*6C
$GPGSV,3,3,11,26,08,032,30,29,03,344,,30,24,194,38,1*53
$GLGSV,3,1,09,68,21,076,45,69,63,034,43,70,32,286,33,78,32,048,49,1*71
$GLGSV,3,2,09,79,35,113,48,80,06,158,,84,29,218,24,85,43,284,41,1*7E
$GLGSV,3,3,09,86,13,339,39,1*4E
$GAGSV,3,1,11,04,17,250,39,07,02,067,,10,45,299,35,11,23,320,,7*7E
$GAGSV,3,2,11,12,57,263,33,19,75,264,30,21,02,134,,27,15,087,45,7*75
$GAGSV,3,3,11,29,54,063,45,30,11,037,32,33,32,185,46,7*44
$GBGSV,3,1,12,02,02,101,39,05,18,122,41,06,19,043,41,09,33,049,42,1*7B
$GBGSV,3,2,12,14,04,095,43,16,16,040,34,23,15,167,,24,26,052,43,1*7A
$GBGSV,3,3,12,25,41,117,48,27,20,230,,29,07,333,,30,26,283,,1*7B
$GNRMC,020041.00,A,4843.26097,N,00920.55456,E,0.034,,080225,,,A,V*14
$GNGGA,020041.00,4843.26097,N,00920.55456,E,1,12,0.49,248.9,M,47.6,M,,*44
$GPGSV,3,1,11,03,08,120,39,04,38,066,48,06,51,229,,07,54,164,44,1*69
$GPGSV,3,2,11,09,70,057,42,11,46,286,,16,14,059,44,20,32,304,34,1*6C
$GPGSV,3,3,11,26,08,032,31,29,03,344,,30,24,194,39,1*53
$GLGSV,3,1,09,68,21,076,45,69,63,034,43,70,32,286,32,78,32,048,48,1*71
$GLGSV,3,2,09,79,35,113,48,80,06,158,,84,29,218,24,85,43,284,41,1*7E
$GLGSV,3,3,09,86,13,339,31,1*46
$GAGSV,3,1,11,04,17,250,39,07,02,067,,10,45,299,35,11,23,320,,7*7E
$GAGSV,3,2,11,12,57,263,33,19,75,264,30,21,02,134,,27,15,087,45,7*75
$GAGSV,3,3,11,29,54,063,45,30,11,037,34,33,32,185,46,7*42
$GBGSV,3,1,12,02,02,101,39,05,18,122,41,06,19,043,41,09,33,049,42,1*7B
$GBGSV,3,2,12,14,04,095,42,16,16,040,32,23,15,167,,24,26,052,46,1*78
$GBGSV,3,3,12,25,41,117,48,27,20,230,,29,07,333,,30,26,283,,1*7B
$GNRMC,020042.00,A,4843.26095,N,00920.55454,E,0.012,,080225,,,A,V*13
$GNGGA,020042.00,4843.26095,N,00920.55454,E,1,12,0.49,249.0,M,47.6,M,,*4F
$GPGSV,3,1,11,03,08,120,46,04,38,066,47,06,51,229,,07,54,164,44,1*6E
$GPGSV,3,2,11,09,70,057,42,11,46,286,,16,14,059,44,20,32,304,35,1*6D
$GPGSV,3,3,11,26,08,032,29,29,03,344,,30,24,194,39,1*5A
$GLGSV,3,1,09,68,21,076,45,69,63,034,42,70,32,286,22,78,32,048,49,1*70
$GLGSV,3,2,09,79,35,113,47,80,06,158,,84,29,218,23,85,43,284,40,1*77
$GLGSV,3,3,09,86,13,339,31,1*46
$GAGSV,3,1,11,04,17,250,36,07,02,067,,10,45,299,34,11,23,320,,7*70
$GAGSV,3,2,11,12,57,263,32,19,75,264,30,21,02,134,,27,15,087,45,7*74
$GAGSV,3,3,11,29,54,063,45,30,11,037,36,33,32,185,46,7*40
$GBGSV,3,1,12,02,02,101,38,05,18,122,40,06,19,043,41,09,33,049,43,1*7A
$GBGSV,3,2,12,14,04,095,43,16,16,040,32,23,15,167,,24,26,052,44,1*7B
$GBGSV,3,3,12,25,41,117,46,27,20,230,,29,07,333,,30,26,283,,1*75
$GNRMC,020043.00,A,4843.26093,N,00920.55454,E,0.038,,080225,,,A,V*1C
$GNGGA,020043.00,4843.26093,N,00920.55454,E,1,12,0.49,249.1,M,47.6,M,,*49
$GPGSV,3,1,11,03,08,120,46,04,38,066,49,06,51,229,,07,54,164,44,1*60
$GPGSV,3,2,11,09,70,057,42,11,46,286,,16,14,059,44,20,32,304,36,1*6E
$GPGSV,3,3,11,26,08,032,27,29,03,344,,30,24,194,38,1*55
$GLGSV,3,1,09,68,21,076,41,69,63,034,41,70,32,286,23,78,32,048,49,1*76
$GLGSV,3,2,09,79,35,113,48,80,06,158,,84,29,218,24,85,43,284,40,1*7F
$GLGSV,3,3,09,86,13,339,29,1*4F
$GAGSV,3,1,11,04,17,250,30,07,02,067,,10,45,299,33,11,23,320,,7*71
$GAGSV,3,2,11,12,57,263,32,19,75,264,30,21,02,134,,27,15,087,43,7*72
$GAGSV,3,3,11,29,54,063,45,30,11,037,37,33,32,185,46,7*41
$GBGSV,3,1,12,02,02,101,38,05,18,122,35,06,19,043,41,09,33,049,43,1*78
$GBGSV,3,2,12,14,04,095,43,16,16,040,33,23,15,167,,24,26,052,43,1*7D
$GBGSV,3,3,12,25,41,117,47,27,20,230,,29,07,333,,30,26,283,,1*74
$GNRMC,020044.00,A,4843.26091,N,00920.55450,E,0.008,,080225,,,A,V*1E
$GNGGA,020044.00,4843.26091,N,00920.55450,E,1,12,0.49,249.2,M,47.6,M,,*4B
$GPGSV,3,1,11,03,07,120,46,04,38,066,48,06,51,229,,07,54,164,44,1*6E
$GPGSV,3,2,11,09,70,057,42,11,46,286,,16,14,059,45,20,32,304,32,1*6B
$GPGSV,3,3,11,26,08,032,25,29,03,344,,30,24,194,38,1*57
$GLGSV,3,1,09,68,21,076,44,69,63,034,41,70,32,286,24,78,32,048,49,1*74
$GLGSV,3,2,09,79,35,113,48,80,06,158,,84,29,218,25,85,43,284,40,1*7E
$GLGSV,3,3,09,86,13,339,38,1*4F
$GAGSV,3,1,11,04,17,250,31,07,02,067,,10,45,299,33,11,23,320,,7*70
$GAGSV,3,2,11,12,57,263,31,19,75,264,30,21,02,134,,27,15,087,45,7*77
$GAGSV,3,3,11,29,54,063,45,30,11,037,37,33,32,185,46,7*41
$GBGSV,3,1,12,02,02,101,38,05,18,122,40,06,19,043,41,09,33,049,42,1*7B
$GBGSV,3,2,12,14,04,095,42,16,16,040,34,23,15,167,,24,26,052,43,1*7B
$GBGSV,3,3,12,25,41,117,48,27,20,230,,29,07,333,,30,26,283,,1*7B
$GNRMC,020045.00,A,4843.26090,N,00920.55447,E,0.020,,080225,,,A,V*12
$GNGGA,020045.00,4843.26090,N,00920.55447,E,1,12,0.49,249.4,M,47.6,M,,*4B
$GPGSV,3,1,11,03,07,120,44,04,37,066,48,06,51,229,,07,54,164,44,1*63
$GPGSV,3,2,11,09,70,057,42,11,46,286,16,14,059,45,20,32,304,32,1*6B
$GPGSV,3,3,11,26,08,032,23,29,03,344,,30,24,194,38,1*51
$GLGSV,3,1,09,68,21,076,44,69,63,034,4170,32,286,29,78,32,048,49,1*79
$GLGSV,3,2,09,79,35,113,47,80,06,158,,84,29,218,26,85,43,284,41,1*73
$GLGSV,3,3,09,86,13,339,39,1*4E
$GAGSV,3,1,11,04,17,250,39,07,02,067,,10,45,299,35,11,23,320,,7*7E
$GAGSV,3,2,11,12,57,23,32,19,75,264,30,21,02,134,,27,15,087,45,7*74
$GAGSV,3,3,11,29,54,063,45,30,11,037,37,33,32,185,46,7*41
$GBGSV,3,1,12,02,02,101,39,05,18,122,41,06,19,043,41,09,33,049,42,1*7B
$GBGSV,3,2,12,14,04,095,42,16,16,040,34,23,15,167,,24,26,052,43,1*7B
$GBGSV,3,3,12,25,41,117,48,27,20,230,,29,07,333,,30,26,283,,1*7B
$GNRMC,020046.00,A,4843.26087,N,00920.55445,E,0.015,,080225,,,A,V*13
$GNGGA,020046.00,4843.26087,N,00920.55445,E,1,12,0.49,249.5,M,47.6,M,,*4D
$GPGSV,3,1,11,03,07,120,41,04,37,066,48,06,51,229,,07,54,164,44,1*66
$GPGSV,3,2,11,09,70,057,42,11,46,286,,16,14,059,45,20,32,304,33,1*6A
$GPGSV,3,3,11,26,08,032,23,29,03,344,,30,24,194,39,1*50
$GLGSV,3,1,09,68,21,076,45,69,63,034,41,70,32,286,30,78,32,048,49,1*70
$GLGSV,3,2,09,79,35,113,47,80,06,158,,84,29,218,25,85,43,284,41,1*70
$GLGSV,3,3,09,86,13,339,39,1*4E
$GAGSV,3,1,11,04,17,250,39,07,02,067,,10,45,299,35,11,23,320,,7*7E
$GAGSV,3,2,11,12,57,263,33,19,75,264,30,21,02,134,,27,15,087,45,7*75
$GAGSV,3,3,11,29,54,063,45,30,11,037,38,33,32,185,46,7*4E
$GBGSV,3,1,12,02,02,101,39,05,18,122,41,06,19,043,41,09,33,049,42,1*7B
$GBGSV,3,2,12,14,04,095,42,16,16,040,34,23,15,167,,24,26,052,43,1*7B
$GBGSV,3,3,12,25,41,117,47,27,20,230,,29,07,333,,30,26,283,,1*74
$GNRMC,020047.00,A,4843.26085,N,00920.55443,E,0.016,,080225,,,A,V*15
$GNGGA,020047.00,4843.26085,N,00920.55443,E,1,12,0.49,249.6,M,47.6,M,,*4B
$GPGSV,3,1,11,03,07,120,35,04,37,066,48,06,50,228,,07,54,164,43,1*62
$GPGSV,3,2,11,09,70,057,42,11,46,286,,16,14,059,45,20,32,304,33,1*6A
$GPGSV,3,3,11,26,08,032,23,29,03,344,,30,24,194,39,1*50
$GLGSV,3,1,09,68,21,076,45,69,63,034,41,70,32,286,30,78,32,048,50,1*78
$GLGSV,3,2,09,79,35,113,47,80,06,158,,84,29,218,25,85,43,284,42,1*73
$GLGSV,3,3,09,86,13,339,39,1*4E
$GAGSV,3,1,11,04,17,250,40,07,02,067,,10,45,299,35,11,23,320,,7*70
$GAGSV,3,2,11,12,57,263,33,19,75,264,30,21,02,134,,27,15,087,44,7*74
$GAGSV,3,3,11,29,54,063,45,30,11,037,38,33,32,185,46,7*4E
$GBGSV,3,1,12,02,02,101,39,05,18,122,41,06,19,043,42,09,33,049,42,1*78
$GBGSV,3,2,12,14,04,095,42,16,16,040,34,23,15,167,,24,26,052,42,1*7A
$GBGSV,3,3,12,25,41,117,47,27,20,230,,29,07,333,,30,26,283,,1*74
$GNRMC,020048.00,A,4843.26083,N,00920.55441,E,0.017,,080225,,,A,V*1F
$GNGGA,020048.00,4843.26083,N,00920.55441,E,1,12,0.49,249.7,M,47.6,M,,*41
$GPGSV,3,1,11,03,07,120,38,04,37,066,48,06,50,228,,07,54,164,43,1*6F
$GPGSV,3,2,11,09,70,057,42,11,46,286,,16,14,059,45,20,32,304,33,1*6A
$GPGSV,3,3,11,26,08,032,24,29,03,344,,30,24,194,39,1*57
$GLGSV,3,1,09,68,21,076,45,69,63,034,41,70,32,286,30,78,32,048,50,1*78
$GLGSV,3,2,09,79,35,113,47,80,06,158,,84,29,218,24,85,43,284,42,1*72
$GLGSV,3,3,09,86,13,339,39,1*4E
$GAGSV,3,1,11,04,17,250,40,07,02,067,,10,45,299,35,11,23,320,,7*70
$GAGSV,3,2,11,12,57,263,33,19,75,264,30,21,02,134,,27,15,087,44,7*74
$GAGSV,3,3,11,29,54,063,45,30,11,037,38,33,32,185,45,7*4D
$GBGSV,3,1,12,02,02,101,39,05,18,122,41,06,19,043,41,09,33,049,42,1*7B
$GBGSV,3,2,12,14,04,095,41,16,16,040,34,23,15,167,,24,26,052,42,1*79
$GBGSV,3,3,12,25,41,117,47,27,20,230,,29,07,333,,30,26,283,,1*74
$GNRMC,020049.00,A,4843.26081,N,00920.55439,E,0.016,,080225,,,A,V*12
$GNGGA,020049.00,4843.26081,N,00920.55439,E,1,12,0.49,249.8,M,47.6,M,,*42
$GPGSV,3,1,11,03,07,120,43,04,37,066,48,06,50,228,,07,54,164,44,1*64
$GPGSV,3,2,11,09,70,057,43,11,46,286,,16,14,059,44,20,32,304,33,1*6A
$GPGSV,3,3,11,26,08,032,25,29,03,344,,30,24,194,40,1*58
$GLGSV,3,1,09,68,21,076,45,69,63,034,40,70,32,286,30,78,32,048,50,1*79
$GLGSV,3,2,09,79,35,113,47,80,06,158,,84,29,218,23,85,43,284,42,1*75
$GLGSV,3,3,09,86,13,339,39,1*4E
$GAGSV,3,1,11,04,17,250,39,07,02,067,,10,45,299,35,11,23,320,,7*7E
$GAGSV,3,2,11,12,57,263,33,19,75,264,30,21,02,134,,27,15,087,44,7*74
$GAGSV,3,3,11,29,54,063,45,30,11,037,38,33,32,185,46,7*4E
$GBGSV,3,1,12,02,02,101,39,05,18,122,41,06,19,043,41,09,33,049,42,1*7B
$GBGSV,3,2,12,14,04,095,41,16,16,040,34,23,15,167,,24,26,052,42,1*79
$GBGSV,3,3,12,25,41,117,47,27,20,230,,29,07,333,,30,26,283,,1*74
$GNRMC,020050.00,A,4843.26078,N,00920.55437,E,0.006,,080225,,,A,V*13
$GNGGA,020050.00,4843.26078,N,00920.55437,E,1,12,0.49,250.0,M,47.6,M,,*42
$GPGSV,3,1,11,03,07,120,44,04,37,066,48,06,50,228,,07,54,164,44,1*63
$GPGSV,3,2,11,09,69,057,43,11,46,286,,16,14,059,44,20,32,304,34,1*65
$GPGSV,3,3,11,26,08,032,25,29,0,344,,30,24,194,40,1*58
$GLGSV,3,1,09,68,21,076,45,69,63,034,39,70,32,286,30,78,32,048,50,1*77
$GLGSV,3,2,09,79,35,113,47,80,06,158,,84,29,218,24,85,43,284,42,1*72
$GLGSV,3,3,09,86,13,339,39,1*4E
$GAGSV,3,1,11,04,17,250,39,07,02,067,,10,45,299,35,11,23,320,,7*7E
$GAGSV,3,2,11,12,57,263,33,19,75,264,30,21,02,134,,27,15,087,44,7*74
$GAGSV,3,3,11,29,54,063,45,30,11,037,38,33,32,185,46,7*4E
$GBGSV,3,1,12,02,02,101,39,05,18,122,41,06,19,043,41,09,33,049,42,1*7B
$GBGSV,3,2,12,14,04,095,41,16,16,040,34,23,15,167,,24,26,052,42,1*79
$GBGSV,3,3,12,25,41,117,47,27,20,230,,29,07,333,,30,26,283,,1*74
$GNRMC,020051.00,A,4843.26076,N,00920.55435,E,0.011,,080225,,,A,V*18
$GNGGA,020051.00,4843.26076,N,00920.55435,E,1,12,0.49,250.1,M,47.6,M,,*4E
$GPGSV,3,1,11,03,07,120,45,04,37,066,48,06,50,228,,07,54,164,44,1*62
$GPGSV,3,2,11,09,69,057,43,11,46,286,,16,14,059,44,20,32,304,34,1*65
$GPGSV,3,3,11,26,08,032,25,29,03,344,,30,24,194,40,1*58
$GLGSV,3,1,09,68,21,076,45,69,63,034,39,70,32,286,29,78,32,048,49,1*77
$GLGSV,3,2,09,79,35,113,47,80,06,158,,84,29,218,23,85,43,284,42,1*75
$GLGSV,3,3,09,86,13,339,39,1*4E
$GAGSV,3,1,11,04,17,250,39,07,02,067,,10,45,299,35,11,23,320,,7*7E
$GAGSV,3,2,11,12,57,263,33,19,75,264,29,21,02,134,,27,15,087,43,7*7B
$GAGSV,3,3,11,29,54,063,45,30,11,037,38,33,32,185,46,7*4E
$GBGSV,3,1,12,02,02,101,39,05,18,122,41,06,19,043,41,09,33,049,42,1*7B
$GBGSV,3,2,12,14,04,095,41,16,16,040,34,23,15,167,,24,26,052,42,1*79
$GBGSV,3,3,12,25,41,117,46,27,20,230,,29,07,333,,30,26,283,,1*75
$GNRMC,020052.00,A,4843.26074,N,00920.55434,E,0.003,,080225,,,A,V*1B
$GNGGA,020052.00,4843.26074,N,00920.55434,E,1,12,0.49,250.2,M,47.6,M,,*4D
$GPGSV,3,1,11,03,07,120,43,04,37,066,48,06,50,228,,07,54,164,44,1*64
$GPGSV,3,2,11,09,69,057,43,11,47,284,,16,14,059,44,20,32,304,34,1*66
$GPGSV,3,3,11,26,08,032,24,29,03,344,,30,24,194,40,1*59
$GLGSV,3,1,09,68,21,076,45,69,63,034,38,70,32,286,29,78,32,048,49,1*76
$GLGSV,3,2,09,79,35,113,48,80,06,158,,84,29,218,23,85,43,284,42,1*7A
$GLGSV,3,3,09,86,13,339,39,1*4E
$GAGSV,3,1,11,04,17,250,39,07,02,067,,10,45,299,35,11,23,320,,7*7E
$GAGSV,3,2,11,12,57,263,32,19,75,264,29,21,02,134,,27,15,087,43,7*7A
$GAGSV,3,3,11,29,54,063,45,30,11,037,38,33,32,185,45,7*4D
$GBGSV,3,1,12,02,02,101,39,05,18,122,41,06,19,043,42,09,33,049,43,1*79
$GBGSV,3,2,12,14,04,095,41,16,16,040,34,23,15,167,,24,26,052,42,1*79
$GBGSV,3,3,12,25,41,117,47,27,20,230,,29,07,333,,30,26,283,,1*74
$GNRMC,020053.00,A,4843.26072,N,00920.55433,E,0.002,,080225,,,A,V*1A
$GNGGA,020053.00,4843.26072,N,00920.55433,E,1,12,0.49,250.3,M,47.6,M,,*4C
$GPGSV,3,1,11,03,07,120,40,04,37,066,48,06,50,228,,07,54,164,44,1*67
$GPGSV,3,2,11,09,69,057,43,11,47,284,,16,14,059,44,20,32,304,34,1*66
$GPGSV,3,3,11,26,08,032,24,29,03,344,,30,24,194,40,1*59
$GLGSV,3,1,09,68,21,076,45,69,63,034,37,70,32,286,29,78,32,048,49,1*79
$GLGSV,3,2,09,79,35,113,47,80,06,158,,84,29,218,24,85,43,284,42,1*72
$GLGSV,3,3,09,86,13,339,39,1*4E
$GAGSV,3,1,11,04,17,250,39,07,02,067,,10,45,299,35,11,23,320,,7*7E
$GAGSV,3,2,11,12,57,263,32,19,75,264,29,21,02,134,,27,15,087,43,7*7A
$GAGSV,3,3,11,29,54,063,45,30,11,037,39,33,32,185,45,7*4C
$GBGSV,3,1,12,02,02,101,39,05,18,122,41,06,19,043,41,09,33,049,42,1*7B
$GBGSV,3,2,12,14,04,095,41,16,16,040,34,23,15,167,,24,26,052,42,1*79
$GNRMC,020054.00,A,4843.26070,N,00920.55433,E,0.003,,080225,,,A,V*1E
$GNGGA,020054.00,4843.26070,N,00920.55433,E,1,12,0.49,250.4,M,47.6,M,,*4E
$GPGSV,3,1,11,03,07,120,33,04,37,066,48,06,50,228,,07,54,164,44,1*63
$GPGSV,3,2,11,09,69,057,43,11,47,284,,16,14,059,44,20,32,304,34,1*66
$GPGSV,3,3,11,26,08,032,24,29,03,344,,30,24,194,40,1*59
$GLGSV,3,1,09,68,21,076,45,69,63,034,37,70,32,286,29,78,32,048,49,1*79
$GLGSV,3,2,09,79,35,113,47,80,06,158,,84,29,218,24,85,43,284,42,1*72
$GLGSV,3,3,09,86,13,339,39,1*4E
$GAGSV,3,1,11,04,17,250,39,07,02,067,,10,45,299,34,11,23,320,,7*7F
$GAGSV,3,2,11,12,57,263,32,19,75,264,29,21,02,134,,27,15,087,43,7*7A
$GAGSV,3,3,11,29,54,063,44,30,11,037,39,33,32,185,45,7*4D
$GBGSV,3,1,12,02,02,101,39,05,18,122,41,06,19,043,41,09,33,049,42,1*7B
$GBGSV,3,2,12,14,04,095,41,16,16,040,34,23,15,167,,24,26,052,42,1*79
$GBGSV,3,3,12,25,41,117,47,27,20,230,,29,07,333,,30,26,283,,1*74
$GNRMC,020055.00,A,4843.26069,N,00920.55434,E,0.008,,080225,,,A,V*1B
$GNGGA,020055.00,4843.26069,N,00920.55434,E,1,12,0.50,250.5,M,47.6,M,,*49
$GPGSV,3,1,11,03,07,120,34,04,37,066,47,06,50,228,,07,54,164,44,1*6B
$GPGSV,3,2,11,09,69,057,43,11,47,284,,16,14,059,44,20,32,304,33,1*61
$GPGSV,3,3,11,26,08,032,24,29,03,344,,30,24,194,40,1*59
$GLGSV,3,1,09,68,21,076,45,69,63,034,37,70,32,286,29,78,32,048,49,1*79
$GLGSV,3,2,09,79,35,113,47,80,06,158,,84,29,218,24,85,43,284,42,1*72
$GLGSV,3,3,09,86,13,339,38,1*4F
$GAGSV,3,1,11,04,17,250,39,07,02,067,,10,45,299,34,11,23,320,,7*7F
$GAGSV,3,2,11,12,57,263,32,19,75,264,29,21,02,134,,27,15,087,43,7*7A
$GAGSV,3,3,11,29,54,063,44,30,11,037,39,33,32,185,45,7*4D
$GBGSV,3,1,12,02,02,101,39,05,18,122,41,06,19,043,42,09,33,049,43,1*79
$GBGSV,3,2,12,14,04,095,41,16,16,040,34,23,15,167,,24,26,052,42,1*79
$GBGSV,3,3,12,25,41,117,47,27,20,230,,29,07,333,,30,26,283,,1*74
$GNRMC,020056.00,A,4843.26067,N,00920.55434,E,0.012,,080225,,,A,V*1D
$GNGGA,020056.00,4843.26067,N,00920.55434,E,1,12,0.50,250.6,M,47.6,M,,*47
$GPGSV,3,1,11,03,07,120,41,04,37,066,47,06,50,228,,07,54,164,44,1*69
$GPGSV,3,2,11,09,69,057,43,11,47,284,,16,14,059,44,20,32,304,33,1*61
$GPGSV,3,3,11,26,08,032,24,29,03,344,,30,24,194,40,1*59
$GLGSV,3,1,09,68,21,076,45,69,63,034,37,70,32,286,29,78,32,048,49,1*79
$GLGSV,3,2,09,79,35,113,47,80,06,158,,84,29,218,23,85,43,284,42,1*75
$GLGSV,3,3,09,86,13,339,38,1*4F
$GAGSV,3,1,11,04,17,250,39,07,02,067,,10,45,299,34,11,23,320,,7*7F
$GAGSV,3,2,11,12,57,263,32,19,75,264,29,21,02,134,,27,15,087,43,7*7A
$GAGSV,3,3,11,29,54,063,44,30,11,037,39,33,32,185,45,7*4D
$GBGSV,3,1,12,02,02,101,39,05,18,122,41,06,19,043,42,09,33,049,42,1*78
$GBGSV,3,2,12,14,04,095,41,16,16,040,34,23,15,167,,24,26,052,42,1*79
$GBGSV,3,3,12,25,41,117,46,27,20,230,,29,7,333,,30,26,283,,1*75
$GNRMC,020057.00,A,4843.26065,N,00920.55435,E,0.010,,080225,,,A,V*1D
$GNGGA,020057.00,4843.26065,N,00920.55435,E,1,12,0.50,250.7,M,47.6,M,,*44
$GPGSV,3,1,11,03,07,120,43,04,37,066,47,06,50,228,,07,54,164,44,1*6B
$GPGSV,3,2,11,09,69,057,43,11,47,284,,16,14,059,44,20,32,304,33,1*61
$GPGSV,3,3,11,26,08,032,23,29,03,344,,30,24,194,40,1*5E
$GLGSV,3,1,09,68,21,076,46,69,63,034,37,70,32,286,29,78,32,048,49,1*7A
$GLGSV,3,2,09,79,35,113,47,80,06,158,,84,29,218,22,85,43,284,43,1*75
$GLGSV,3,3,09,86,13,339,38,1*4F
$GAGSV,3,1,11,04,17,250,39,07,02,067,,10,45,299,34,11,23,320,,7*7F
$GAGSV,3,2,11,12,57,263,32,19,75,264,29,21,02,134,,27,15,087,43,7*7A
$GAGSV,3,3,11,29,54,063,44,30,11,037,39,33,32,185,45,7*4D
$GBGSV,3,1,12,02,02,101,39,05,18,122,41,06,19,043,42,09,33,049,43,1*79
$GBGSV,3,2,12,14,04,095,41,16,16,040,34,23,15,167,,24,26,052,42,1*79
$GBGSV,3,3,12,25,41,117,46,27,20,230,,29,07,333,,30,26,283,,1*75
$GNRMC,020058.00,A,4843.26064,N,00920.55436,E,0.015,,080225,,,A,V*15
$GNGGA,020058.00,4843.26064,N,00920.55436,E,1,12,0.50,250.9,M,47.6,M,,*47
$GPGSV,3,1,11,03,07,120,43,04,37,066,47,06,50,228,,07,54,164,44,1*6B
$GPGSV,3,2,11,09,69,057,42,11,47,284,,16,14,059,43,20,32,304,33,1*67
$GPGSV,3,3,11,26,08,032,23,29,03,344,,30,24,194,39,1*50
$GLGSV,3,1,09,68,21,076,46,69,63,034,36,70,32,286,28,78,32,048,49,1*7A
$GLGSV,3,2,09,79,35,113,47,80,06,158,,84,29,218,22,85,43,284,43,1*75
$GLGSV,3,3,09,86,13,339,38,1*4F
$GAGSV,3,1,11,04,17,250,39,07,02,067,,10,45,299,34,11,23,320,,7*7F
$GAGSV,3,2,11,12,57,263,32,19,75,264,29,21,02,134,,27,15,087,43,7*7A
$GAGSV,3,3,11,29,54,063,43,30,11,037,39,33,32,185,46,7*49
$GBGSV,3,1,12,02,02,101,39,05,18,122,41,06,19,043,42,09,33,049,42,1*78
$GBGSV,3,2,12,14,04,095,41,16,16,040,34,23,15,167,,24,26,052,42,1*79
$GBGSV,3,3,12,25,41,117,46,27,20,230,,29,07,333,,30,26,283,,1*75
$GNRMC,020059.00,A,4843.26064,N,00920.55438,E,0.012,,080225,,,A,V*1D
$GNGGA,020059.00,4843.26064,N,00920.55438,E,1,12,0.50,251.0,M,47.6,M,,*40
$GPGSV,3,1,11,03,07,120,40,04,37,066,47,06,50,228,,07,54,164,44,1*68
$GPGSV,3,2,11,09,69,057,42,11,47,284,,16,14,059,43,20,32,304,33,1*67
$GPGSV,3,3,11,26,08,032,24,29,03,344,,30,24,194,40,1*59
$GLGSV,3,1,09,68,21,076,46,69,63,034,36,70,32,286,28,78,32,048,49,1*7A
$GLGSV,3,2,09,79,35,113,47,80,06,158,,84,29,218,21,85,43,284,43,1*76
$GLGSV,3,3,09,86,13,339,38,1*4F
$GAGSV,3,1,11,04,17,250,39,07,02,067,,10,45,299,34,11,23,320,,7*7F
$GAGSV,3,2,11,12,57,263,32,19,75,264,28,21,02,134,,27,15,087,44,7*7C
$GAGSV,3,3,1129,54,063,43,30,11,037,39,33,32,185,46,7*49
$GBGSV,3,1,12,02,02,101,39,05,18,122,41,06,19,043,42,09,33,049,43,1*79
$GBGSV,3,2,12,14,04,095,41,16,16,040,34,23,15,167,,24,26,052,43,1*78
$GBGSV,3,3,12,25,41,117,46,27,20,230,,29,07,333,,30,26,283,,1*75
$GNRMC,020100.00,A,4843.26063,N,00920.55439,E,0.009,,080225,,,A,V*1C
$GNGGA,020100.00,4843.26063,N,00920.55439,E,1,12,0.50,251.1,M,47.6,M,,*4A
$GPGSV,3,1,11,03,07,120,36,04,37,066,47,06,50,228,,07,54,164,44,1*69
$GPGSV,3,2,11,09,69,057,42,11,47,284,,16,14,059,42,20,32,304,33,1*66
$GPGSV,3,3,11,26,08,032,24,29,03,344,,30,24,194,40,1*59
$GLGSV,3,1,09,68,21,076,46,69,63,034,36,70,32,286,28,78,32,048,48,1*7B
$GLGSV,3,2,09,79,35,113,47,80,06,158,,84,29,218,22,85,43,284,43,1*75
$GLGSV,3,3,09,86,13,339,38,1*4F
$GAGSV,3,1,11,04,17,250,39,07,02,067,,10,45,299,34,11,23,320,,7*7F
$GAGSV,3,2,11,12,57263,31,19,75,264,28,21,02,134,,27,15,087,44,7*7F
$GAGSV,3,3,11,29,54,063,43,30,11,037,39,33,32,185,46,7*49
$GBGSV,3,1,12,02,02,101,39,05,18,122,41,06,19,043,42,09,33,049,43,1*79
$GBGSV,3,2,12,14,04,095,41,16,16,040,34,23,15,167,,24,26,052,43,1*78
$GBGSV,3,3,12,25,41,117,46,27,20,230,,29,07,333,,30,26,283,,1*75
$GNRMC,020101.00,A,4843.26063,N,00920.55442,E,0.006,,080225,,,A,V*1E
$GNGGA,020101.00,4843.26063,N,00920.55442,E,1,12,0.50,251.3,M,47.6,M,,*45
$GPGSV,3,1,11,03,07,120,34,04,37,066,47,06,50,228,,07,54,164,44,1*6B
$GPGSV,3,2,11,09,69,057,41,11,47,284,,16,14,059,42,20,32,304,33,1*65
$GPGSV,3,3,11,26,08,032,23,29,03,344,,30,24,194,40,1*5E
$GLGSV,3,1,09,68,21,076,46,69,63,034,36,70,32,286,28,78,32,048,48,1*7B
$GLGSV,3,2,09,79,35,113,47,80,06,158,,84,29,218,22,85,43,284,43,1*75
$GLGSV,3,3,09,86,13,339,38,1*4F
$GAGSV,3,1,11,04,17,250,39,07,02,067,,10,45,299,34,11,23,320,,7*7F
$GAGSV,3,2,11,12,57,263,31,19,75,264,28,21,02,134,,27,15,087,44,7*7F
$GAGSV,3,3,11,29,54,063,42,30,11,037,39,33,32,185,46,7*48
$GBGSV,3,1,12,02,02,101,39,05,18,122,41,06,19,043,41,09,33,049,43,1*7A
$GBGSV,3,2,12,14,04,095,41,16,16,040,34,23,15,167,,24,26,052,43,1*78
$GBGSV,3,3,12,25,41,117,46,27,20,230,,29,07,333,,30,26,283,,1*75
$GNRMC,020102.00,A,4843.26064,N,00920.55444,E,0.004,,080225,,,A,V*1E
$GNGGA,020102.00,4843.26064,N,00920.55444,E,1,12,0.50,251.4,M,47.6,M,,*40
$GPGSV,3,1,11,03,07,120,34,04,37,066,47,06,50,228,,07,54,164,45,1*6A
$GPGSV,3,2,11,09,69,057,41,11,47,284,,16,14,059,42,20,32,304,33,1*65
$GPGSV,3,3,11,26,08,032,22,29,03,344,,30,24,194,40,1*5F
$GLGSV,3,1,09,68,21,076,46,69,63,034,36,70,32,286,28,78,32,048,48,1*7B
$GLGSV,3,2,09,79,35,113,47,80,06,158,,84,29,218,22,85,43,284,43,1*75
$GLGSV,3,3,09,86,13,339,37,1*40
$GAGSV,3,1,11,04,17,250,39,07,02,067,,10,45,299,34,11,23,320,,7*7F
$GAGSV,3,2,11,12,57,263,31,19,75,264,28,21,02,134,,27,15,087,44,7*7F
$GAGSV,3,3,11,29,54,063,42,30,11,037,39,33,32,185,46,7*48
$GBGSV,3,1,12,02,02,101,39,05,18,122,41,06,19,043,42,09,33,049,43,1*79
$GBGSV,3,2,12,14,04,095,41,16,16,040,34,23,15,167,,24,26,052,43,1*78
$GBGSV,3,3,12,25,41,117,46,27,20,230,,29,07,333,,30,26,283,,1*75
$GNRMC,020103.00,A,4843.26064,N,00920.55447,E,0.021,,080225,,,A,V*1B
$GNGGA,020103.00,4843.26064,N,00920.55447,E,1,12,0.50,251.5,M,47.6,M,,*43
$GPGSV,3,1,11,03,07,120,39,04,37,066,47,06,50,228,,07,54,164,45,1*67
$GPGSV,3,2,11,09,69,057,42,11,47,284,,16,14,059,41,20,32,304,33,1*65
$GPGSV,3,3,11,26,08,032,21,29,03,344,,30,24,194,40,1*5C
$GLGSV,3,1,09,68,21,076,46,69,63,034,36,70,32,286,28,78,32,048,48,1*7B
$GLGSV,3,2,09,79,35,113,47,80,06,158,,84,29,218,22,85,43,284,43,1*75
$GLGSV,3,3,09,86,13,339,37,1*40
$GAGSV,3,1,11,04,17,250,39,07,02,067,,10,45,299,33,11,23,320,,7*78
$GAGSV,3,2,11,12,57,263,31,19,75,264,28,21,02,134,,27,15,087,43,7*78
$GAGSV,3,3,11,29,54,063,42,30,11,037,39,33,32,185,46,7*48
$GBGSV,3,1,12,02,02,101,39,05,18,122,41,06,19,043,41,09,33,049,43,1*7A
$GBGSV,3,2,12,14,04,095,41,16,16,040,34,23,15,167,,24,26,052,43,1*78
$GBGSV,3,3,12,25,41,117,46,27,20,230,,29,07,333,,30,26,283,,1*75
$GNRMC,020104.00,A,4843.26065,N,00920.55450,E,0.003,,080225,,,A,V*1B
$GNGGA,020104.00,4843.26065,N,00920.55450,E,1,12,0.51,251.6,M,47.6,M,,*41
$GPGSV,3,1,11,03,07,120,41,04,37,066,47,06,50,228,,07,54,164,45,1*68
$GPGSV,3,2,11,09,69,057,42,11,47,284,,16,14,059,41,20,32,304,34,1*62
$GPGSV,3,3,11,26,08,032,21,29,03,344,,30,24,194,40,1*5C
$GLGSV,3,1,09,68,21,076,47,69,63,034,37,70,32,286,27,78,32,048,48,1*74
$GLGSV,3,2,09,79,35,113,47,80,06,158,,84,29,218,22,85,43,284,43,1*75
$GLGSV,3,3,09,86,13,339,37,1*40
$GAGSV,3,1,11,04,17,250,39,07,02,067,,10,45,299,33,11,23,320,,7*78
$GAGSV,3,2,11,12,57,263,31,19,75,264,27,21,02,134,,27,15,087,43,7*77
$GAGSV,3,3,11,29,54,063,42,30,11,037,39,33,32,185,46,7*48
$GBGSV,3,1,12,02,02,101,39,05,18,122,41,06,19,043,41,09,33,049,43,1*7A
$GBGSV,3,2,12,14,04,095,41,16,16,040,34,23,15,167,,24,26,052,43,1*78
$GBGSV,3,3,12,25,41,117,46,27,20,230,,29,07,333,,30,26,283,,1*75
$GNRMC,020105.00,A,4843.26067,N,00920.55454,E,0.013,,080225,,,A,V*1D
$GNGGA,020105.00,4843.26067,N,00920.55454,E,1,12,0.51,251.7,M,47.6,M,,*47
$GPGSV,3,1,11,03,07,120,41,04,37,066,47,06,50,228,,07,54,164,45,1*68
$GPGSV,3,2,11,09,69,057,42,11,47,284,,16,14,059,41,20,32,304,34,1*62
$GPGSV,3,3,11,26,08,032,21,29,03,344,,30,24,194,40,1*5C
$GLGSV,3,1,09,68,21,076,47,69,63,034,37,70,32,286,26,78,32,048,48,1*75
$GLGSV,3,2,09,79,35,113,47,80,06,158,,84,29,218,22,85,43,284,43,1*75
$GLGSV,3,3,09,86,13,339,37,1*40
$GAGSV,3,1,11,04,17,250,39,07,02,067,,10,45,299,33,11,23,320,,7*78
$GAGSV,3,2,11,12,57,263,31,19,75,264,28,21,02,134,,27,15,087,44,7*7F
$GAGSV,3,3,11,29,54,063,41,30,11,037,39,33,32,185,45,7*48
$GBGSV,3,1,12,02,02,101,39,05,18,122,41,06,19,043,42,09,33,049,42,1*78
$GBGSV,3,2,12,14,04,095,41,16,16,040,34,23,15,167,,24,26,052,43,1*78
$GBGSV,3,3,12,25,41,117,46,27,20,230,,29,07,333,,30,26,283,,1*75
$GNRMC,020106.00,A,4843.26069,N,00920.55458,E,0.017,,080225,,,A,V*18
$GNGGA,020106.00,4843.26069,N,00920.55458,E,1,12,0.51,251.8,M,47.6,M,,*49
$GPGSV,3,1,11,03,07,120,40,04,37,066,47,06,50,228,,07,54,164,45,1*69
$GPGSV,3,2,11,09,69,057,43,11,47,284,,16,14,059,41,20,32,304,34,1*63
$GPGSV,3,3,11,26,08,032,21,29,03,344,,30,24,194,40,1*5C
$GLGSV,3,1,09,68,21,076,47,69,63,034,38,70,32,286,26,78,32,048,48,1*7A
$GLGSV,3,2,09,79,35,113,47,80,06,158,,84,29,218,21,85,43,284,43,1*76
$GLGSV,3,3,09,86,13,339,37,1*40
$GAGSV,3,1,11,04,17,250,39,07,02,067,,10,45,299,34,11,23,320,,7*7F
