$GNRMC,200000.00,A,4843.26077,N,00920.55336,E,0.004,,070225,,,A,V*12
$GNGGA,200000.00,4843.26077,N,00920.55336,E,1,12,0.49,249.3,M,47.6,M,,*45
$GPGSV,3,1,11,01,48,282,40,02,54,292,40,03,18,225,34,08,62,183,42,1*61
$GPGSV,3,2,11,10,36,053,48,14,20,310,,17,01,316,,22,11,328,41,1*61
$GPGSV,3,3,11,24,01,023,,27,31,154,44,32,41,099,47,1*52
$GLGSV,3,1,10,65,38,041,40,66,62,124,46,67,22,181,45,73,14,335,,1*7F
$GLGSV,3,2,10,79,00,234,12,80,19,280,37,81,72,047,31,82,42,312,42,1*79
$GLGSV,3,3,10,83,03,298,,88,25,106,50,1*77
$GAGSV,3,1,10,03,19,040,39,07,21,151,47,08,38,094,46,13,61,071,43,7*7F
$GAGSV,3,2,10,15,10,088,46,21,18,212,38,23,34,266,39,26,58,290,36,7*7D
$GAGSV,3,3,10,31,18,320,,33,11,276,,7*7B
$GBGSV,3,1,11,02,04,099,36,05,19,121,41,06,02,080,,08,04,049,,1*70
$GBGSV,3,2,11,12,26,119,42,13,12,052,,16,03,076,,21,53,070,49,1*73
$GBGSV,3,3,11,22,09,037,37,23,02,257,,28,11,300,40,1*41
$GNRMC,200001.00,A,4843.26076,N,00920.55331,E,0.033,,070225,,,A,V*11
$GNGGA,200001.00,4843.26076,N,00920.55331,E,1,12,0.48,249.2,M,47.6,M,,*42
$GPGSV,3,1,11,01,48,282,41,02,54,292,40,03,18,225,34,08,62,183,43,1*61
$GPGSV,3,2,11,10,36,053,48,14,20,310,,17,01,316,,22,11,328,41,1*61
$GPGSV,3,3,11,24,01,023,,27,31,154,44,32,41,099,47,1*52
$GLGSV,3,1,10,65,38,041,40,66,62,124,46,67,22,181,45,73,14,334,,1*7E
$GLGSV,3,2,10,79,00,234,14,80,19,280,37,81,72,047,31,82,42,312,42,1*7F
$GLGSV,3,3,10,83,03,298,,88,25,106,49,1*7F
$GAGSV,3,1,10,03,19,040,39,07,21,151,47,08,38,094,46,13,61,071,43,7*7F
$GAGSV,3,2,10,15,10,088,46,21,18,212,38,23,34,266,39,26,58,290,36,7*7D
$GAGSV,3,3,10,31,18,320,,33,11,276,,7*7B
$GBGSV,3,1,11,02,04,099,36,05,19,121,41,06,02,080,,08,04,049,,1*70
$GBGSV,3,2,11,12,26,119,42,13,12,052,,16,03,076,,21,53,070,49,1*73
$GBGSV,3,3,11,22,09,037,37,23,02,257,,28,11,300,40,1*41
$GNRMC,200002.00,A,4843.26075,N,00920.55327,E,0.005,,070225,,,A,V*13
$GNGGA,200002.00,4843.26075,N,00920.55327,E,1,12,0.48,249.2,M,47.6,M,,*45
$GPGSV,3,1,11,01,48,283,41,02,55,292,40,03,19,226,34,08,61,183,43,1*60
$GPGSV,3,2,11,10,36,053,48,14,20,310,,17,01,316,,22,11,327,41,1*6E
$GPGSV,3,3,11,24,01,023,,27,30,154,43,32,41,098,47,1*55
$GLGSV,3,1,10,65,38,041,40,66,62,124,46,67,22,181,45,73,14,334,,1*7E
$GLGSV,3,2,10,79,00,234,12,80,19,280,36,81,72,047,31,82,42,312,41,1*7B
$GLGSV,3,3,10,83,03,298,,88,25,106,49,1*7F
$GAGSV,3,1,10,03,19,040,39,07,21,151,47,08,38,094,46,13,61,071,43,7*7F
$GAGSV,3,2,10,15,10,088,46,21,18,212,38,23,34,266,39,26,58,290,36,7*7D
$GAGSV,3,3,10,31,18,320,,33,11,276,,7*7B
$GBGSV,3,1,11,02,04,099,36,05,19,121,41,06,02,080,,08,04,049,,1*70
$GBGSV,3,2,11,12,26,119,42,13,12,052,,16,03,076,,2,53,070,49,1*73
$GBGSV,3,3,11,22,09,037,37,23,02,257,,28,11,300,40,1*41
$GNRMC,200003.00,A,4843.26074,N,00920.55324,E,0.013,,070225,,,A,V*17
$GNGGA,200003.00,4843.26074,N,00920.55324,E,1,12,0.48,249.2,M,47.6,M,,*46
$GPGSV,3,1,11,01,48,283,41,02,55,292,40,03,19,226,35,08,61,183,43,1*61
$GPGSV,3,2,11,10,36,053,48,14,20,310,,17,01,316,,22,11,327,41,1*6E
$GPGSV,3,3,11,24,01,023,,27,30,154,43,32,41,098,47,1*55
$GLGSV,3,1,10,65,38,041,40,66,62,124,46,67,22,181,45,73,14,334,,1*7E
$GLGSV,3,2,10,79,00,234,10,80,19,280,36,81,72,047,32,82,42,312,41,1*7A
$GLGSV,3,3,10,83,03,298,,88,25,106,49,1*7F
$GAGSV,3,1,10,03,19,040,39,07,21,151,47,08,38,094,46,13,61,071,43,7*7F
$GAGSV,3,2,10,15,10,088,46,21,18,212,38,23,34,266,39,26,58,290,36,7*7D
$GAGSV,3,3,10,31,18,320,,33,11,276,,7*7B
$GBGSV,3,1,11,02,04,099,36,05,19,121,41,06,02,080,,08,04,049,,1*70
$GBGSV,3,2,11,12,26,119,43,13,12,052,,16,03,076,,21,53,070,49,1*72
$GBGSV,3,3,11,22,09,037,37,23,02,257,,28,11,300,40,1*41
$GNRMC,200004.00,A,4843.26073,N,00920.55322,E,0.006,,070225,,,A,V*15
$GNGGA,200004.00,4843.2607,N,00920.55322,E,1,12,0.48,249.2,M,47.6,M,,*40
$GPGSV,3,1,11,01,48,283,41,02,55,292,40,03,19,22,35,08,61,183,43,1*61
$GPGSV,3,2,11,10,36,053,48,14,20,310,,17,01,316,,22,11,327,41,1*6E
$GPGSV,3,3,11,24,01,023,,27,30,154,43,32,41,098,46,1*54
$GLGSV,3,1,10,65,38,041,40,66,62,124,46,67,22,181,45,73,14,334,,1*7E
$GLGSV,3,2,10,79,00,234,12,80,19,280,36,81,72,047,33,82,42,312,41,1*79
$GLGSV,3,3,10,83,03,298,,88,25,106,49,1*7F
$GAGSV,3,1,10,03,19,040,39,07,21,151,47,08,38,094,46,13,61,071,43,7*7F
$GAGSV,3,2,10,15,10,088,46,21,18,212,38,23,34,266,39,26,58,290,36,7*7D
$GAGSV,3,3,10,31,18,320,,33,11,276,,7*7B
$GBGSV,3,1,11,02,04,099,36,05,19,121,41,06,02,080,,08,04,049,,1*70
$GBGSV,3,2,11,12,26,119,43,13,12,052,,16,03,076,,21,53,070,49,1*72
$GBGSV,3,3,11,22,09,037,37,23,02,257,,28,11,300,0,1*41
$GNRMC,200005.00,A,4843.26072,N,00920.55320,E,0.014,,070225,,,A,V*14
$GNGGA,200005.00,4843.26072,N,00920.55320,E,1,12,0.49,249.1,M,47.6,M,,*40
$GPGSV,3,1,11,01,48,283,41,02,55,292,40,03,19,226,35,08,61,183,43,1*61
$GPGSV,3,2,11,10,36,053,48,14,20,310,,17,01,316,,22,11,327,41,1*6E
$GPGSV,3,3,11,24,01,023,,27,30,154,43,32,41,098,46,1*54
$GLGSV,3,1,10,65,38,041,39,66,62,124,46,67,22,181,46,73,14,334,,1*73
$GLGSV,3,2,10,79,00,234,12,80,19,280,36,81,72,047,34,82,42,312,41,1*7E
$GLGSV,3,3,10,83,03,298,,88,25,106,48,1*7E
$GAGSV,3,1,10,03,19,040,39,07,21,151,47,08,38,094,46,13,61,071,43,7*7F
$GAGSV,3,2,10,15,10,088,46,21,18,212,38,23,34,266,39,26,58,290,36,7*7D
$GAGSV,3,3,10,31,18,320,,33,11,76,,7*7B
$GBGSV,3,1,11,02,04,099,36,05,19,121,41,06,02,080,,08,04,049,,1*70
$GBGSV,3,2,11,12,26,119,43,13,12,052,,16,03,076,,21,53,070,49,1*72
$GBGSV,3,3,11,22,09,037,37,23,02,257,,28,11,300,40,1*41
$GNRMC,200006.00,A,4843.26072,N,00920.55319,E,0.035,,070225,,,A,V*1E
$GNGGA,200006.00,4843.26072,N,00920.55319,E,1,12,0.48,249.1,M,47.6,M,,*48
$GPGSV,3,1,11,01,48,283,41,02,55,292,40,03,19,226,35,08,61,183,44,1*66
$GPGSV,3,2,11,10,36,053,48,14,20,310,,17,01,316,,22,11,327,41,1*6E
$GPGSV,3,3,11,24,01,023,,27,30,154,43,32,41,098,46,1*54
$GLGSV,3,1,10,65,38,041,39,66,62,124,47,67,22,181,45,73,14,334,,1*71
$GLGSV,3,2,10,79,00,234,13,80,19,280,36,81,72,047,35,82,42,312,41,1*7E
$GLGSV,3,3,10,83,03,298,,88,25,106,48,1*7E
$GAGSV,3,1,10,03,19,040,39,07,21,151,47,08,38,094,46,13,61,071,43,7*7F
$GAGSV,3,2,10,15,10,088,46,21,18,212,38,23,34,266,39,26,58,290,36,7*7D
$GAGSV,3,3,10,31,18,320,,33,11,276,,7*7B
$GBGSV,3,1,11,02,04,099,36,05,19,121,41,06,02,080,,08,04,049,,1*70
$GBGSV,3,2,11,12,26,119,43,13,12,052,,16,03,076,,21,53,070,49,1*72
$GBGSV,3,3,11,22,09,037,37,23,02,257,,28,11,300,40,1*41
$GNRMC,200007.00,A,4843.26072,N,00920.55318,E,0.021,,070225,,,A,V*1B
$GNGGA,200007.00,4843.26072,N,00920.55318,E,1,12,0.48,249.0,M,47.6,M,,*49
$GPGSV,3,1,11,01,48,283,41,02,55,292,40,03,19,226,35,08,61,183,44,1*66
$GPGSV,3,2,11,10,36,053,48,14,20,310,,17,01,316,,22,11,327,40,1*6F
$GPGSV,3,3,11,24,01,023,,27,30,154,43,32,41,098,46,1*54
$GLGSV,3,1,10,65,38,041,39,66,62,124,47,67,22,181,45,73,14,334,,1*71
$GLGSV,3,2,10,79,00,234,14,80,19,280,36,81,72,047,35,82,42,312,41,1*79
$GLGSV,3,3,10,83,03,298,,88,25,106,48,1*7E
$GAGSV,3,1,10,03,19,040,39,07,21,151,47,08,38,094,46,13,61,071,43,7*7F
$GAGSV,3,2,10,15,10,088,46,21,18,212,38,23,34,266,39,26,58,290,36,7*7D
$GAGSV,3,3,10,31,18,320,,33,11,276,,7*7B
$GBGSV,3,1,11,02,04,099,35,05,19,121,41,06,02,080,,08,04,049,,1*73
$GBGSV,3,2,11,12,26,119,43,13,12,052,,16,03,076,,21,53,070,49,1*72
$GBGSV,3,3,11,22,09,037,37,23,02,257,,28,11,300,40,1*41
$GNRMC,200008.00,A,4843.26073,N,00920.55319,E,0.011,,070225,,,A,V*17
$GNGGA,200008.00,4843.26073,N,00920.55319,E,1,12,0.48,249.0,M,47.6,M,,*46
$GPGSV,3,1,11,01,48,283,41,02,55,292,40,03,19,226,36,08,61,183,44,1*65
$GPGSV,3,2,11,10,36,053,48,14,20,310,,17,01,316,,22,11,327,40,1*6F
$GPGSV,3,3,11,24,01,023,,27,30,154,43,32,41,098,46,1*54
$GLGSV,3,1,10,65,38,041,39,66,62,124,47,67,22,181,45,73,14,334,,1*71
$GLGSV,3,2,10,79,00,234,11,80,18,279,36,81,72,047,36,82,42,312,41,1*78
$GLGSV,3,3,10,83,03,298,,88,25,106,48,1*7E
$GAGSV,3,1,10,03,19,040,39,07,21,151,47,08,38,094,46,13,61,071,43,7*7F
$GAGSV,3,2,10,15,10,088,46,21,18,212,39,23,34,266,39,26,58,290,37,7*7D
$GAGSV,3,3,10,31,18,320,,33,11,276,,7*7B
$GBGSV,3,1,11,02,04,099,36,05,19,121,41,06,02,080,,08,04,049,,1*70
$GBGSV,3,2,11,12,26,119,43,13,12,052,,16,03,076,,21,53,070,49,1*72
$GBGSV,3,3,11,22,09,037,37,23,02,257,,28,11,300,40,1*41
$GNRMC,200009.00,A,4843.26073,N,00920.55319,E,0.043,,070225,,,A,V*11
$GNGGA,200009.00,4843.26073,N,00920.55319,E,1,12,0.48,248.9,M,47.6,M,,*4F
$GPGSV,3,1,11,01,48,283,41,02,55,292,40,03,19,226,36,08,61,183,44,1*65
$GPGSV,3,2,11,10,36,053,49,14,20,310,,17,01,316,,22,11,327,40,1*6E
$GPGSV,3,3,11,24,01,023,,27,30,154,43,32,41,098,45,1*57
$GLGSV,3,1,10,65,38,041,39,66,62,124,47,67,22,181,45,73,14,334,,1*71
$GLGSV,3,2,10,79,00,234,13,80,18,279,35,81,72,050,36,82,42,312,41,1*7F
$GLGSV,3,3,10,83,03,298,,88,25,106,47,1*71
$GAGSV,3,1,10,03,19,040,38,07,21,151,47,08,38,094,46,13,61,071,43,7*7E
$GAGSV,3,2,10,15,10,088,46,21,18,212,39,23,34,266,39,26,58,290,37,7*7D
$GAGSV,3,3,10,31,18,320,,33,11,276,,7*7B
$GBGSV,3,1,11,02,04,099,36,05,19,121,41,06,02,080,,08,04,049,,1*70
$GBGSV,3,2,11,12,26,119,43,13,12,052,,16,03,076,,21,53,070,49,1*72
$GBGSV,3,3,11,22,09,037,37,23,02,257,,28,11,300,40,1*41
$GNRMC,200010.00,A,4843.26073,N,00920.55320,E,0.016,,070225,,,A,V*13
$GNGGA,200010.00,4843.26073,N,00920.55320,E,1,12,0.49,248.8,M,47.6,M,,*4D
$GPGSV,3,1,11,01,48,283,41,02,55,292,40,03,19,226,36,08,61,183,44,1*65
$GPGSV,3,2,11,10,36,053,49,14,20,310,,17,01,316,,22,11,327,40,1*6E
$GPGSV,3,3,11,24,01,023,,27,30,154,43,32,41,098,45,1*57
$GLGSV,3,1,10,65,38,040,40,66,62,123,47,67,22,181,45,73,14,334,,1*79
$GLGSV,3,2,10,79,00,234,11,80,18,279,35,81,72,050,37,82,42,313,41,1*7D
$GLGSV,3,3,10,83,03,298,,88,24,106,47,1*70
$GAGSV,3,1,10,03,19,040,39,07,21,151,47,08,38,094,46,13,61,071,43,7*7F
$GAGSV,3,2,10,15,10,088,46,21,18,212,39,23,34,266,39,26,58,290,37,7*7D
$GAGSV,3,3,10,31,18,320,,33,11,276,,7*7B
$GBGSV,3,1,11,02,04,099,36,05,19,121,41,06,02,080,,08,04,049,,1*70
$GBGSV,3,2,11,12,26,119,43,13,12,052,,16,03,076,,21,53,070,49,1*72
$GBGSV,3,3,11,22,09,037,37,23,02,257,,28,11,300,40,1*41
$GNRMC,200011.00,A,4843.26074,N,00920.55321,E,0.014,,070225,,,A,V*16
$GNGGA,200011.00,4843.26074,N,00920.55321,E,1,12,0.48,248.7,M,47.6,M,,*44
$GPGSV,3,1,11,01,48,283,41,02,55,292,41,03,19,226,36,08,61,183,44,1*64
$GPGSV,3,2,11,10,36,053,49,14,20,310,,17,01,316,,22,11,327,40,1*6E
$GPGSV,3,3,11,24,01,023,,27,30,154,43,32,41,098,45,1*57
$GLGSV,3,1,10,65,38,040,40,66,62,123,46,67,22,181,45,73,14,334,,1*78
$GLGSV,3,2,10,79,00,234,13,80,18,279,33,81,72,050,37,82,42,313,42,1*7A
$GLGSV,3,3,10,83,04,298,,88,24,106,47,1*77
$GAGSV,3,1,10,03,19,040,38,07,21,151,47,08,38,094,47,13,61,071,44,7*78
$GAGSV,3,2,10,15,10,088,46,21,18,212,39,23,34,266,39,26,58,290,37,7*7D
$GAGSV,3,3,10,31,18,320,,33,11,276,,7*7B
$GBGSV,3,1,11,02,04,099,36,05,19,121,41,06,02,080,,08,04,049,,1*70
$GBGSV,3,2,11,12,26,119,43,13,12,052,,16,03,076,,21,53,070,49,1*72
$GBGSV,3,3,11,22,09,037,37,23,02,257,,28,11,300,40,1*41
$GNRMC,200012.00,A,4843.26076,N,00920.55322,E,0.010,,070225,,,A,V*10
$GNGGA,200012.00,4843.26076,N,00920.55322,E,1,12,0.48,248.6,M,47.6,M,,*47
$GPGSV,3,1,11,01,48,283,41,02,55,292,41,03,19,226,37,08,61,183,44,1*65
$GPGSV,,2,11,10,36,053,49,14,20,310,,17,01,316,,22,11,327,40,1*6E
$GPGSV,3,3,11,24,01,023,,27,30,154,43,32,41,098,45,1*57
$GLGSV,3,1,10,65,38,040,40,66,62,123,46,67,22,181,46,73,14,334,,1*7B
$GLGSV,3,2,10,79,00,234,11,80,18,279,33,81,72,050,37,82,42,313,42,1*78
$GLGSV,3,3,10,83,04,298,,88,24,106,47,1*77
$GAGSV,3,1,10,03,19,040,38,07,21,151,47,08,38,094,47,13,61,071,43,7*7F
$GAGSV,3,2,10,15,10,088,46,21,18,212,39,23,34,266,39,26,58,290,37,7*7D
$GAGSV,3,3,10,31,18,320,,33,11,276,,7*7B
$GBGSV,3,1,11,02,04,099,36,05,19,121,41,06,02,080,,08,04,049,,1*70
$GBGSV,3,2,11,12,26,119,43,13,12,052,,16,03,076,,21,53,070,49,1*72
$GBGSV,3,3,11,22,09,037,37,23,02,257,,28,11,300,40,1*41
$GNRMC,200013.00,A,4843.26078,N,00920.55324,E,0.025,,070225,,,A,V*1F
$GNGGA,200013.00,4843.26078,N,00920.55324,E,1,12,0.48,248.5,M,47.6,M,,*4D
$GPGSV,3,1,11,01,48,283,41,02,55,292,41,03,19,226,37,08,61,183,44,1*65
$GPGSV,3,2,11,10,36,053,49,14,20,310,,17,01,316,,22,11,327,40,1*6E
$GPGSV,3,3,11,24,01,023,,27,30,154,44,32,41,098,45,1*50
$GLGSV,3,1,10,65,38,040,40,66,62,123,46,67,22,181,46,73,14,334,,1*7B
$GLGSV,3,2,10,79,00,234,12,80,18,279,33,81,72,050,37,82,42,313,41,1*78
$GLGSV,3,3,10,83,04,298,,88,24,106,47,1*77
$GAGSV,3,1,10,03,19,040,39,07,21,151,47,08,38,094,46,13,61,071,43,7*7F
$GAGSV,3,2,10,15,10,088,46,21,18,212,39,23,34,266,39,26,58,290,37,7*7D
$GAGSV,3,3,10,31,18,320,,33,11,276,,7*7B
$GBGSV,3,1,11,02,04,099,36,05,19,121,41,06,02,080,,08,04,049,,1*70
$GBGSV,3,2,11,12,26,119,43,13,12,052,,16,03,076,,21,53,070,49,1*72
$GBGSV,3,3,11,22,09,037,37,23,02,257,,28,11,300,40,1*41
$GNRMC,200014.00,A,4843.26080,N,00920.55326,E,0.013,,070225,,,A,V*18
$GNGGA,200014.00,4843.26080,N,00920.55326,E,1,12,0.48,248.4,M,47.6,M,,*4E
$GPGSV,3,1,11,01,48,283,41,02,55,292,41,03,19,226,37,08,61,183,44,1*65
$GPGSV,3,2,11,10,36,053,49,14,20,310,,17,01,316,,22,11,327,40,1*6E
$GPGSV,3,3,11,24,01,023,,27,30,154,44,32,41,098,45,1*50
$GLGSV,3,1,10,65,38,040,41,66,62,123,45,67,22,181,46,73,14,334,,1*79
$GLGSV,3,2,10,79,00,234,11,80,18,279,33,81,72,050,37,82,42,313,41,1*7B
$GLGSV,3,3,10,83,04,298,,88,24,106,46,1*76
$GAGSV,3,1,10,03,19,040,39,07,21,151,47,08,38,094,46,13,61,071,43,7*7F
$GAGSV,3,2,10,15,10,088,46,21,18,212,39,23,34,266,39,26,58,290,37,7*7D
$GAGSV,3,3,10,31,18,320,,33,11,276,,7*7B
$GBGSV,3,1,11,02,04,099,36,05,19,121,41,06,02,080,,08,04,049,,1*70
$GBGSV,3,2,11,12,26,119,43,13,12,052,,16,03,076,,21,53,070,49,1*72
$GBGSV,3,3,11,22,09,037,37,23,02,257,,28,11,300,40,1*41
$GNRMC,200015.00,A,4843.26082,N,00920.55329,E,0.031,,070225,,,A,V*14
$GNGGA,200015.00,4843.26082,N,00920.55329,E,1,12,0.48,248.3,M,47.6,M,,*45
$GPGSV,3,1,11,01,48,283,41,02,55,292,42,03,19,226,37,08,61,183,44,1*66
$GPGSV,3,2,11,10,36,053,49,14,20,310,,17,01,316,,22,11,327,40,1*6E
$GPGSV,3,3,11,24,01,023,,27,30,154,44,32,41,098,46,1*53
$GLGSV,3,1,10,65,38,040,41,66,62,123,45,67,22,181,45,73,14,334,,1*7A
$GLGSV,3,2,10,79,00,234,15,80,18,279,32,81,72,050,37,82,42,313,41,1*7E
$GLGSV,3,3,10,83,04,298,,88,24,106,47,1*77
$GAGSV,3,1,10,03,19,040,39,07,21,151,47,08,38,094,47,13,61,071,43,7*7E
$GAGSV,3,2,10,15,10,088,46,21,18,212,39,23,34,266,39,26,58,290,37,7*7D
$GAGSV,3,3,10,31,18,320,,33,11,276,,7*7B
$GBGSV,3,1,11,02,04,099,36,05,19,121,41,06,02,080,,08,04,049,,1*70
$GBGSV,3,2,11,12,26,119,44,13,12,052,,16,03,076,,21,53,070,49,1*75
$GBGSV,3,3,11,22,09,037,37,23,02,257,,28,11,300,40,1*41
$GNRMC,200016.00,A,4843.26084,N,00920.55331,E,0.009,,070225,,,A,V*13
$GNGGA,200016.00,4843.26084,N,00920.55331,E,1,12,0.48,248.3,M,47.6,M,,*49
$GPGSV,3,1,11,01,48,283,41,02,55,292,42,03,19,226,37,08,61,183,43,1*61
$GPGSV,3,2,11,10,36,053,49,14,20,310,,17,01,316,,22,11,327,40,1*6E
$GPGSV,3,3,11,24,01,023,,27,30,154,44,32,41,098,46,1*53
$GLGSV,3,1,10,65,38,040,42,66,62,123,44,67,22,181,45,73,14,334,,1*78
$GLGSV,3,2,10,79,00,234,13,80,18,279,31,81,72,050,37,82,42,313,40,1*7A
$GLGSV,3,3,10,83,04,298,,88,24,106,46,1*76
$GAGSV,3,1,10,03,19,040,39,07,21,151,47,08,38,094,47,13,61,071,43,7*7E
$GAGSV,3,2,10,15,10,088,46,21,18,212,40,23,34,266,39,26,58,290,37,7*73
$GAGSV,3,3,10,31,18,320,,33,11,276,,7*7B
$GBGSV,3,1,11,02,04,099,36,05,19,121,41,06,02,080,,08,04,049,,1*70
$GBGSV,3,2,11,12,25,119,44,13,12,052,,16,03,076,,21,53,070,49,1*76
$GBGSV,3,3,11,22,09,037,37,23,02,257,,28,11,300,40,1*41
$GNRMC,200017.00,A,4843.26084,N,00920.55332,E,0.010,,070225,,,A,V*19
$GNGGA,200017.00,4843.26084,N,00920.55332,E,1,12,0.48,248.3,M,47.6,M,,*4B
$GPGSV,3,1,11,01,48,283,41,02,55,292,42,03,19,226,38,08,61,183,43,1*6E
$GPGSV,3,2,11,10,36,053,49,14,20,310,,17,01,316,,22,11,327,40,1*6E
$GPGSV,3,3,11,24,01,023,,27,30,154,44,32,41,098,46,1*53
$GLGSV,3,1,10,65,38,040,42,66,62,123,44,67,22,181,45,73,14,334,,1*78
$GLGSV,3,2,10,79,00,234,13,80,18,279,31,81,72,050,36,82,42,313,40,1*7B
$GLGSV,3,3,10,83,04,298,,88,24,106,46,1*76
$GAGSV,3,1,10,03,19,040,39,07,21,151,47,08,38,094,46,13,61,071,43,7*7F
$GAGSV,3,2,10,15,10,088,46,21,18,212,40,23,34,266,39,26,58,290,37,7*73
$GAGSV,3,3,10,31,18,320,,33,11,276,,7*7B
$GBGSV,3,1,11,02,04,099,36,05,19,121,41,06,02,080,,08,04,049,,1*70
$GBGSV,3,2,11,12,25,119,44,13,12,052,29,16,03,076,,21,53,070,49,1*7D
$GBGSV,3,3,11,22,09,037,37,23,02,257,,28,11,300,40,1*41
$GNRMC,200018.00,A,4843.26084,N,00920.55334,E,0.002,,070225,,,A,V*13
$GNGGA,200018.00,4843.26084,N,00920.55334,E,1,12,0.48,248.3,M,47.6,M,,*42
$GPGSV,3,1,11,01,48,283,41,02,55,292,42,03,19,226,37,08,61,183,43,1*61
$GPGSV,3,2,11,10,36,053,49,14,20,310,,17,01,316,,22,11,327,40,1*6E
$GPGSV,3,3,11,24,01,023,,27,30,154,44,32,41,098,47,1*52
$GLGSV,3,1,10,65,38,040,42,66,62,123,44,67,22,181,45,73,14,334,,1*78
$GLGSV,3,2,10,79,00,234,15,80,18,279,33,81,72,050,36,82,42,313,41,1*7E
$GLGSV,3,3,10,83,04,298,,88,24,106,45,1*75
$GAGSV,3,1,10,03,19,040,39,07,21,151,46,08,38,094,46,13,61,071,43,7*7E
$GAGSV,3,2,10,15,10,088,45,21,18,212,40,23,34,266,39,26,58,290,38,7*7F
$GAGSV,3,3,10,31,18,320,,33,11,276,,7*7B
$GBGSV,3,1,11,02,04,099,36,05,19,121,41,06,02,080,,08,04,049,,1*70
$GBGSV,3,2,11,12,25,119,44,13,12,052,29,16,03,076,,21,53,070,49,1*7D
$GBGSV,3,3,11,22,09,037,37,23,02,257,,28,11,300,40,1*41
$GNRMC,200019.00,A,4843.26084,N,00920.55336,E,0.014,,070225,,,A,V*17
$GNGGA,200019.00,4843.26084,N,00920.55336,E,1,12,0.48,248.4,M,47.6,M,,*46
$GPGSV,3,1,11,01,48,283,41,02,55,292,42,03,9,226,37,08,61,183,42,1*60
$GPGSV,3,2,11,10,36,053,49,14,20,310,,17,01,316,,22,11,327,40,1*6E
$GPGSV,3,3,11,24,01,023,,27,30,154,44,32,41,098,47,1*52
$GLGSV,3,1,10,65,38,040,42,66,62,123,44,67,22,181,45,73,14,334,,1*78
$GLGSV,3,2,10,79,00,234,12,80,18,279,32,81,72,050,36,82,42,313,41,1*78
$GLGSV,3,3,10,83,04,298,,88,24,106,46,1*76
$GAGSV,3,1,10,03,19,040,39,07,21,151,46,08,38,094,46,13,61,071,43,7*7E
$GAGSV,3,2,10,15,10,088,45,21,18,212,40,23,34,266,39,26,58,290,38,7*7F
$GAGSV,3,3,10,31,18,320,,33,11,276,,7*7B
$GBGSV,3,1,11,02,04,099,36,05,19,121,41,06,02,080,,08,04,049,,1*70
$GBGSV,3,2,11,12,25,119,44,13,12,052,29,16,03,076,,21,53,069,49,1*75
$GBGSV,3,3,11,22,09,037,37,23,02,257,,28,11,300,40,1*41
$GNRMC,200020.00,A,4843.26085,N,00920.55336,E,0.020,,070225,,,A,V*1B
$GNGGA,200020.00,4843.26085,N,00920.55336,E,1,12,0.48,248.4,M,47.6,M,,*4D
$GPGSV,3,1,11,01,48,283,41,02,55,292,42,03,19,226,38,08,61,183,42,1*6F
$GPGSV,3,2,11,10,36,053,48,14,20,310,,17,01,316,,22,11,327,40,1*6F
$GPGSV,3,3,11,24,01,023,,27,30,154,44,32,41,098,47,1*52
$GLGSV,3,1,10,65,38,040,42,66,62,123,44,67,22,181,45,73,14,334,,1*78
$GLGSV,3,2,10,79,00,234,10,80,18,279,32,81,72,050,37,82,42,313,41,1*7B
$GLGSV,3,3,10,83,04,298,,88,24,106,46,1*76
$GAGSV,3,1,10,03,19,040,39,07,21,151,47,08,38,094,46,13,61,071,43,7*7F
$GAGSV,3,2,10,15,10,088,45,21,18,212,40,23,34,266,39,26,58,290,38,7*7F
$GAGSV,3,3,10,31,18,320,,33,11,276,,7*7B
$GBGSV,3,1,11,02,04,099,36,05,19,121,41,06,02,080,,08,04,049,,1*70
$GBGSV,3,2,11,12,25,119,44,13,12,052,,16,03,076,,21,53,069,49,1*7E
$GBGSV,3,3,11,22,09,037,37,23,02,257,,28,11,300,40,1*41
$GNRMC,200021.00,A,4843.26085,N,00920.55336,E,0.009,,070225,,,A,V*11
$GNGGA,200021.00,4843.26085,N,00920.55336,E,1,12,0.48,248.4,M,47.6,M,,*4C
$GPGSV,3,1,11,01,48,283,41,02,55,292,42,03,19,226,38,08,61,183,42,1*6F
$GPGSV,3,3,11,24,01,023,,27,30,154,45,32,41,098,47,1*53
$GLGSV,3,1,10,65,38,040,42,66,62,123,44,67,22,181,45,73,14,334,,1*78
$GLGSV,3,2,10,79,00,234,12,80,18,279,32,81,72,050,38,82,42,313,42,1*75
$GAGSV,3,1,10,03,19,040,39,07,21,151,47,08,38,094,46,13,61,071,43,7*7F
$GAGSV,3,2,10,15,10,088,45,21,18,212,40,23,34,266,39,26,58,290,38,7*7F
$GAGSV,3,3,10,31,18,320,,33,11,276,,7*7B
$GBGSV,3,1,11,02,04,099,36,05,19,121,41,06,02,080,,08,04,049,,1*70
$GBGSV,3,2,11,12,25,119,44,13,12,052,29,16,03,076,,21,53,069,48,1*74
$GBGSV,3,3,11,22,09,037,37,23,02,257,,28,11,300,39,1*4F
$GNRMC,200022.00,A,4843.26086,N,00920.55336,E,0.012,,070225,,,A,V*1B
$GNGGA,200022.00,4843.26086,N,00920.55336,E,,12,0.48,248.5,M,47.6,M,,*4D
$GPGSV,3,1,11,01,48,283,41,02,55,292,41,03,19,226,38,08,61,183,42,1*6C
$GPGSV,3,2,11,10,36,053,48,14,20,310,,17,01,316,,22,11,327,40,1*6F
$GPGSV,3,3,11,24,01,023,,27,30,154,45,32,41,098,47,1*53
$GLGSV,3,1,10,65,38,040,42,66,62,123,45,67,22,181,44,73,14,334,,1*78
$GLGSV,3,2,10,79,00,234,12,80,18,279,33,81,72,050,39,82,42,313,42,1*75
$GLGSV,3,3,10,83,04,298,,88,24,106,44,1*74
$GAGSV,3,1,10,03,19,040,39,07,21,151,47,08,38,094,46,13,61,071,44,7*78
$GAGSV,3,2,10,15,10,088,45,21,18,212,40,23,34,266,39,26,58,290,38,7*7F
$GAGSV,3,3,10,31,18,320,,33,11,276,,7*7B
$GBGSV,3,1,11,02,04,099,36,05,19,121,41,06,02,080,,08,04,049,,1*70
$GBGSV,3,2,11,12,25,119,44,13,12,052,29,16,03,076,,21,53,069,48,1*74
$GBGSV,3,3,11,22,09,037,37,23,02,257,,28,11,300,39,1*4F
$GNRMC,200023.00,A,4843.26087,N,00920.55336,E,0.014,,070225,,,A,V*1D
$GNGGA,200023.00,4843.26087,N,00920.55336,E,1,12,0.47,248.5,M,47.6,M,,*42
$GPGSV,3,1,11,01,48,283,41,02,55,292,41,03,19,226,38,08,61,183,42,1*6C
$GPGSV,3,2,11,10,36,053,48,14,20,310,,17,01,316,,22,11,327,40,1*6F
$GPGSV,3,3,11,24,01,023,,27,30,154,45,32,41,098,47,1*53
$GLGSV,3,1,10,65,38,040,42,66,62,123,45,67,22,181,44,73,14,334,,1*78
$GLGSV,3,2,10,79,00,234,14,80,18,279,32,81,72,050,40,82,42,313,42,1*7C
$GLGSV,3,3,10,83,04,298,,88,24,106,42,1*72
$GAGSV,3,1,10,03,19,040,39,07,21,151,47,08,38,094,46,13,61,071,44,7*78
$GAGSV,3,2,10,15,10,088,45,21,18,212,40,23,34,266,39,26,58,290,38,7*7F
$GAGSV,3,3,10,31,18,320,,33,11,276,,7*7B
$GBGSV,3,1,11,02,04,099,36,05,19,121,41,06,02,080,,08,04,049,,1*70
$GBGSV,3,2,11,12,25,119,45,13,12,052,29,16,03,076,,21,53,069,48,1*75
$GBGSV,3,3,11,22,09,037,37,23,02,257,,28,11,300,39,1*4F
$GNRMC,200024.00,A,4843.26088,N,00920.55336,E,0.012,,070225,,,A,V*13
$GNGGA,200024.00,4843.26088,N,00920.55336,E,1,12,0.47,248.5,M,47.6,M,,*4A
$GPGSV,3,1,11,01,48,283,41,02,55,292,41,03,19,226,38,08,61,183,42,1*6C
$GPGSV,3,2,11,10,36,053,48,14,20,310,,17,01,316,,22,11,327,40,1*6F
$GPGSV,3,3,11,24,01,023,,27,30,154,45,32,41,098,47,1*53
$GLGSV,3,1,10,65,38,040,41,66,62,123,46,67,22,181,44,73,14,334,,1*78
$GLGSV,3,2,10,79,00,234,13,80,18,279,31,81,72,050,40,82,42,313,42,1*78
$GLGSV,3,3,10,83,04,298,,88,24,106,42,1*72
$GAGSV,3,1,10,03,19,040,38,07,21,151,47,08,38,094,46,13,61,071,44,7*79
$GAGSV,3,2,10,15,10,088,44,21,18,212,40,23,34,266,39,26,58,290,38,7*7E
$GAGSV,3,3,10,31,18,320,,33,11,276,,7*7B
$GBGSV,3,1,11,02,04,099,36,05,19,121,41,06,02,080,,08,04,049,,1*70
$GBGSV,3,2,11,12,25,119,45,13,12,052,29,16,03,076,,21,53,069,48,1*75
$GBGSV,3,3,11,22,09,037,37,23,02,257,,28,11,300,39,1*4F
$GNRMC,200025.00,A,4843.26089,N,00920.55336,E,0.020,,070225,,,A,V*12
$GNGGA,200025.00,4843.26089,N,00920.55336,E,1,12,0.47,248.6,M,47.6,M,,*49
$GPGSV,3,1,11,01,48,283,41,02,55,292,41,03,19,226,38,08,61,183,42,1*6C
$GPGSV,3,2,11,10,36,053,48,14,20,310,,1,01,316,,22,11,327,40,1*6F
$GPGSV,3,3,11,24,01,023,,27,30,154,46,32,41,098,47,1*50
$GLGSV,3,1,10,65,38,040,41,66,62,123,47,67,22,181,43,73,14,334,,1*7E
$GLGSV,3,2,10,79,00,234,10,80,18,279,32,81,72,050,40,82,42,313,42,1*78
$GLGSV,3,3,10,83,04,298,,88,24,106,42,1*72
$GAGSV,3,1,10,03,9,040,38,07,21,151,46,08,38,094,46,13,61,071,44,7*78
$GAGSV,3,2,10,15,10,088,44,21,18,212,40,23,34,266,39,26,58,290,38,7*7E
$GAGSV,3,3,10,31,18,320,,33,11,276,,7*7B
$GBGSV,3,1,11,02,04,099,36,05,19,121,41,06,02,080,,08,04,049,,1*70
$GBGSV,3,2,11,12,25,119,45,13,12,052,29,16,03,076,,21,53,069,48,1*75
$GBGSV,3,3,11,22,09,037,37,23,02,257,,28,11,300,40,1*41
$GNRMC,200026.00,A,4843.26090,N,00920.55337,E,0.011,,070225,,,A,V*1A
$GNGGA,200026.00,4843.26090,N,00920.55337,E,1,12,0.47,248.6,M,47.6,M,,*43
$GPGSV,3,1,11,01,48,283,41,02,55,292,41,03,19,226,38,08,61,183,42,1*6C
$GPGSV,3,2,11,10,36,053,48,14,20,310,,17,01,316,,22,11,327,39,1*61
$GPGSV,3,3,11,24,01,023,,27,30,154,46,32,41,098,47,1*50
$GLGSV,3,1,10,65,38,040,41,66,62,123,46,67,22,181,43,73,14,334,,1*7F
$GLGSV,3,2,10,79,00,234,12,80,18,279,30,81,72,050,41,82,42,313,42,1*79
$GLGSV,3,3,10,83,04,298,,88,24,106,44,1*74
$GAGSV,3,1,10,03,19,040,39,07,21,151,46,08,38,094,46,13,61,071,44,7*79
$GAGSV,3,2,10,15,10,088,44,21,18,212,40,23,34,266,39,26,58,290,38,7*7E
$GAGSV,3,3,10,31,18,320,,33,11,276,,7*7B
$GBGSV,3,1,11,02,04,099,36,05,19,121,41,06,02,080,,08,04,049,,1*70
$GBGSV,3,2,11,12,25,119,45,13,12,052,29,16,03,076,,21,53,069,48,1*75
$GBGSV,3,3,11,22,09,037,37,23,02,257,,28,11,300,39,1*4F
$GNRMC,200027.00,A,4843.26091,N,00920.55337,E,0.009,,070225,,,A,V*13
$GNGGA,200027.00,4843.26091,N,00920.55337,E,1,12,0.47,248.6,M,47.6,M,,*43
$GPGSV,3,1,11,01,48,283,41,02,55,292,41,03,19,226,38,08,61,183,41,1*6F
$GPGSV,3,2,11,10,35,053,48,14,20,310,,17,01,316,,22,11,327,40,1*6C
$GPGSV,3,3,11,24,01,023,,27,30,154,46,32,41,098,47,1*50
$GLGSV,3,1,10,65,38,040,40,66,62,123,46,67,22,181,42,73,14,334,,1*7F
$GLGSV,3,3,10,83,04,298,,88,24,106,44,1*74
$GAGSV,3,1,10,03,19,040,39,07,21,151,46,08,38,094,46,13,61,071,44,7*79
$GAGSV,3,2,10,15,10,088,44,21,18,212,40,23,34,266,39,26,58,290,38,7*7E
$GAGSV,3,3,10,31,18,320,,33,11,276,,7*7B
$GBGSV,3,1,11,02,04,099,36,05,19,121,41,06,02,080,,08,04,049,,1*70
$GBGSV,3,2,11,12,25,119,45,13,12,052,30,16,03,076,,21,53,069,48,1*7D
$GBGSV,3,3,11,22,09,037,37,23,02,257,,28,11,300,39,1*4F
$GNRMC,200028.00,A,4843.26092,N,00920.55337,E,0.006,,070225,,,A,V*10
$GNGGA,200028.00,4843.26092,N,00920.55337,E,1,12,0.47,248.6,M,47.6,M,,*4F
$GPGSV,3,1,11,01,48,283,41,02,55,292,41,03,19,226,38,08,61,183,41,1*6F
$GPGSV,3,2,11,10,35,053,48,14,20,310,,17,01,316,,22,11,327,40,1*6C
$GPGSV,3,3,11,24,01,023,,27,30,154,46,32,41,098,47,1*50
$GLGSV,3,1,10,65,38,040,40,66,62,123,46,67,22,181,42,73,14,334,,1*7F
$GLGSV,3,2,10,79,00,234,13,80,18,279,28,81,72,050,40,82,42,313,42,1*70
$GLGSV,3,3,10,83,04,298,88,24,106,45,1*75
$GAGSV,3,1,10,03,19,040,39,07,21,151,46,08,38,094,46,13,61,071,44,7*79
$GAGSV,3,2,10,15,10,088,44,21,18,212,40,23,34,266,39,26,58,290,38,7*7E
$GAGSV,3,3,10,31,18,320,,33,11,276,,7*7B
$GBGSV,3,1,11,02,04,099,36,05,19,121,41,06,02,080,,08,04,049,,1*70
$GBGSV,3,2,11,12,25,119,45,13,12,052,30,16,03,076,,21,53,069,48,1*7D
$GBGSV,3,3,11,22,09,037,37,23,02,257,,28,11,300,39,1*4F
$GNRMC,200029.00,A,4843.26092,N,00920.55338,E,0.003,,070225,,,A,V*1B
$GNGGA,200029.00,4843.26092,N,00920.55338,E,1,12,0.47,248.5,M,47.6,M,,*42
$GPGSV,3,1,11,01,48,283,41,02,55,292,41,03,19,226,38,08,61,183,41,1*6F
$GPGSV,3,2,11,10,35,053,49,14,20,310,,17,01,316,,22,11,327,40,1*6D
$GPGSV,3,3,11,24,01,023,,27,30,154,46,32,41,098,47,1*50
$GLGSV,3,1,10,65,38,040,40,66,62,123,47,67,22,181,41,73,14,334,,1*7D
$GLGSV,3,2,10,79,00,234,14,80,18,279,29,81,72,050,40,82,42,313,42,1*76
$GLGSV,3,3,10,83,04,298,,88,24,106,45,1*75
$GAGSV,3,1,10,03,19,040,38,07,21,151,46,08,38,094,46,13,61,071,44,7*78
$GAGSV,3,2,10,15,10,088,43,21,18,212,40,23,34,266,39,26,58,290,38,7*79
$GAGSV,3,3,10,31,18,320,,33,11,276,,7*7B
$GBGSV,3,1,11,02,04,099,36,05,19,121,41,06,02,080,,08,04,049,,1*70
$GBGSV,3,2,11,12,25,119,45,13,12,052,30,16,03,076,,21,53,069,48,1*7D
$GBGSV,3,3,11,22,09,037,37,23,02,257,,28,11,00,39,1*4F
$GNRMC,200030.00,A,4843.26093,N,00920.55338,E,0.006,,070225,,,A,V*17
$GNGGA,200030.00,4843.26093,N,00920.55338,E,1,12,0.47,248.5,M,47.6,M,,*4B
$GPGSV,3,1,11,01,48,283,40,02,55,292,41,03,19,226,38,08,61,183,41,1*6E
$GPGSV,3,2,11,10,35,053,48,14,20,310,,17,01,316,,22,11,327,40,1*6C
$GPGSV,3,3,11,24,01,023,,27,30,154,46,32,41,098,47,1*50
$GLGSV,3,1,10,65,38,040,40,66,62,123,47,67,22,181,40,73,14,334,,1*7C
$GLGSV,3,2,10,79,00,234,14,80,18,279,29,81,72,050,40,82,42,313,42,1*76
$GLGSV,3,3,10,83,04,298,,88,24,106,45,1*75
$GAGSV,3,1,10,03,19,040,38,07,21,151,46,08,38,094,46,13,61,071,44,7*78
$GAGSV,3,2,10,15,10,088,43,21,18,212,40,23,34,266,39,26,58,290,38,7*79
$GAGSV,3,3,10,31,18,320,,33,11,276,,7*7B
$GBGSV,3,1,11,02,04,099,36,05,19,121,41,06,02,080,,08,04,049,,1*70
$GBGSV,3,2,11,12,25,119,45,13,12,052,31,16,03,076,,21,53,069,48,1*7C
$GBGSV,3,3,11,22,09,037,37,23,02,257,,28,11,300,39,1*4F
$GNRMC,200031.00,A,4843.26093,N,00920.55339,E,0.013,,070225,,,A,V*13
$GNGGA,200031.00,4843.26093,N,00920.55339,E,1,12,0.47,248.4,M,47.6,M,,*4A
$GPGSV,3,1,11,01,48,283,40,02,55,292,41,03,19,226,38,08,61,183,40,1*6F
$GPGSV,3,2,11,10,35,053,48,14,20,309,,17,01,316,,22,11,327,40,1*64
$GPGSV,3,3,11,24,01,023,,27,30,154,46,32,41,098,47,1*50
$GLGSV,3,1,10,65,38,040,40,66,62,123,47,67,22,181,39,73,14,334,,1*72
$GLGSV,3,2,10,79,00,234,15,80,18,279,30,81,72,050,41,82,42,313,43,1*7F
$GLGSV,3,3,10,83,04,298,,88,24,106,46,1*76
$GAGSV,3,1,10,03,19,040,38,07,21,151,45,08,38,094,46,13,61,071,44,7*7B
$GAGSV,3,2,10,15,10,088,43,21,18,212,40,23,34,266,39,26,58,290,37,7*76
$GAGSV,3,3,10,31,18,320,,33,11,276,,7*7B
$GBGSV,3,1,11,02,04,099,36,05,19,121,41,06,02,080,,08,04,049,,1*70
$GBGSV,3,2,11,12,25,119,45,13,12,052,31,16,03,076,,21,53,069,48,1*7C
$GBGSV,3,3,11,22,09,037,37,23,02,257,,28,11,300,39,1*4F
$GNRMC,200032.00,A,4843.26093,N,00920.55340,E,0.002,,070225,,,A,V*1E
$GNGGA,200032.00,4843.26093,N,00920.55340,E,1,12,0.47,248.3,M,47.6,M,,*40
$GPGSV,3,1,11,01,48,283,40,02,55,292,41,03,19,226,38,08,61,183,40,1*6F
$GPGSV,3,2,11,10,35,053,48,14,20,309,,17,01,316,,22,11,327,40,1*64
$GPGSV,3,3,11,24,01,023,,27,30,154,46,32,41,098,47,1*50
$GLGSV,3,1,10,65,38,040,40,66,62,123,47,67,22,181,38,73,14,334,,1*73
$GLGSV,3,2,10,79,00,234,11,80,18,279,30,81,72,050,42,82,42,313,43,1*78
$GLGSV,3,3,10,83,04,298,,88,24,106,46,1*76
$GAGSV,3,1,10,03,19,040,38,07,21,151,45,08,38,094,46,13,61,071,44,7*7B
$GAGSV,3,2,10,15,10,088,43,21,18,212,40,23,34,266,39,26,58,290,37,7*76
$GAGSV,3,3,10,31,18,320,,33,11,276,,7*7B
$GBGSV,3,1,11,02,04,099,36,05,19,121,41,06,02,080,,08,04,049,,1*70
$GBGSV,3,2,11,12,25,119,45,13,12,052,31,16,03,076,,21,53,069,48,1*7C
$GBGSV,3,3,11,22,09,037,37,23,02,257,,28,11,300,39,1*4F
$GNRMC,200033.00,A,4843.26093,N,00920.55341,E,0.007,,070225,,,A,V*1B
$GNGGA,200033.00,4843.26093,N,00920.55341,E,1,12,0.47,248.3,M,47.6,M,,*40
$GPGSV,3,1,11,01,48,283,39,02,55,292,41,03,19,226,38,08,61,183,40,1*61
$GPGSV,3,2,11,10,35,053,48,14,20,309,,17,01,316,,22,11,327,40,1*64
$GPGSV,3,3,11,24,01,023,,27,30,154,46,32,41,098,47,1*50
$GLGSV,3,1,10,65,38,040,40,66,62,123,47,67,22,181,38,73,14,334,,1*73
$GLGSV,3,2,10,79,00,234,11,80,18,279,29,81,72,050,42,82,42,313,43,1*70
$GLGSV,3,3,10,83,04,298,,88,24,106,46,1*76
$GAGSV,3,1,10,03,19,040,38,07,21,151,45,08,38,094,46,13,61,071,44,7*7B
$GAGSV,3,2,10,15,10,088,43,21,18,212,40,23,34,266,39,26,58,290,37,7*76
$GAGSV,3,3,10,31,18,320,,33,11,276,,7*7B
$GBGSV,3,1,11,02,04,099,35,05,19,121,41,06,02,080,,08,04,049,,1*73
$GBGSV,3,2,11,12,25,119,45,13,12,052,31,16,03,076,,21,53,069,48,1*7C
$GBGSV,3,3,11,22,09,037,37,23,02,257,,28,11,300,40,1*41
$GNGGA,200034.00,4843.26093,N,00920.55342,E,1,12,0.47,248.2,M,47.6,M,,*45
$GPGSV,3,1,11,01,48,283,39,02,55,292,41,03,19,226,37,08,61,183,40,1*6E
$GPGSV,3,2,11,10,35,053,48,14,20,309,,17,02,316,,22,11,327,40,1*67
$GPGSV,3,3,11,24,01,023,,27,30,154,46,32,41,098,47,1*50
$GLGSV,3,1,10,65,38,040,40,66,62,123,46,67,22,181,37,73,14,334,,1*7D
$GLGSV,3,2,10,79,00,234,14,80,18,279,30,81,72,050,42,82,42,313,44,1*7A
$GLGSV,3,3,10,83,04,298,,88,24,106,45,1*75
$GAGSV,3,1,10,03,19,040,38,07,21,151,45,08,38,094,46,13,61,071,44,7*7B
$GAGSV,3,2,10,15,10,088,43,21,18,212,40,23,34,266,39,26,58,290,37,7*76
$GAGSV,3,3,10,31,18,320,,33,11,276,,7*7B
$GBGSV,3,1,11,02,04,099,36,05,19,121,41,06,02,080,,08,04,049,,1*70
$GBGSV,3,2,11,12,25,119,45,13,12,052,31,16,03,076,,21,53,069,48,1*7C
$GBGSV,3,3,11,22,09,037,37,23,02,257,,28,11,300,40,1*41
$GNRMC,200035.00,A,4843.26092,N,00920.55342,E,0.002,,070225,,,A,V*1A
$GNGGA,200035.00,4843.26092,N,00920.55342,E,1,12,0.47,248.1,M,47.6,M,,*46
$GPGSV,3,1,11,01,48,283,39,02,55,292,41,03,19,226,37,08,61,183,40,1*6E
$GPGSV,3,2,11,10,35,053,48,14,20,309,,17,02,316,,22,11,327,40,1*67
$GPGSV,3,3,11,24,01,023,,27,30,154,46,32,41,098,47,1*50
$GLGSV,3,1,10,65,38,040,40,66,62,123,46,67,22,181,35,73,14,334,,1*7F
$GLGSV,3,2,10,79,00,234,12,80,18,279,31,81,72,050,41,82,42,313,44,1*7E
$GLGSV,3,3,10,83,04,298,,88,24,106,46,1*76
$GAGSV,3,1,10,03,19,040,38,07,21,151,45,08,38,094,46,13,61,071,44,7*7B
$GAGSV,3,2,10,15,10,088,43,21,18,212,40,23,34,266,39,26,58,290,37,7*76
$GAGSV,3,3,10,31,18,320,,33,11,276,,7*7B
$GBGSV,3,1,11,02,04,099,36,05,19,121,41,06,02,080,,08,04,049,,1*70
$GBGSV,3,2,11,12,25,119,45,13,12,052,31,16,03,076,,21,53,069,48,1*7C
$GBGSV,3,3,11,22,09,037,37,23,02,257,,28,11,300,40,1*41
$GNRMC,200036.00,A,4843.26092,N,00920.55343,E,0.007,,070225,,,A,V*1D
$GNGGA,200036.00,4843.26092,N,00920.55343,E,1,12,0.47,248.0,M,47.6,M,,*45
$GPGSV,3,1,11,01,48,283,38,02,55,292,41,03,19,226,37,08,61,183,40,1*6F
$GPGSV,3,2,11,10,35,053,48,14,20,309,,1,02,316,,22,11,327,40,1*67
$GPGSV,3,3,11,24,01,023,,27,30,154,46,32,41,098,47,1*50
$GLGSV,3,1,10,65,38,040,40,66,62,123,46,67,22,181,34,73,14,334,,1*7E
$GLGSV,3,2,10,79,00,234,14,80,18,279,31,81,72,050,41,82,42,313,44,1*78
$GLGSV,3,3,10,83,04,298,,88,24,106,45,1*75
$GAGSV,3,1,10,03,19,040,38,07,21,151,44,08,38,094,46,13,61,071,44,7*7A
$GAGSV,3,2,10,15,10,088,43,21,18,212,40,23,34,266,39,26,58,290,37,7*76
$GAGSV,3,3,10,31,18,320,,33,11,276,,7*7B
$GBGSV,3,1,11,02,04,099,35,05,19,121,41,06,02,080,,08,04,049,,1*73
$GBGSV,3,2,11,12,25,119,45,13,12,052,31,16,03,076,,21,53,069,48,1*7C
$GBGSV,3,3,11,22,09,037,36,23,02,257,,28,11,300,40,1*40
$GNRMC,200037.00,A,4843.26091,N,00920.55343,E,0.012,,070225,,,A,V*1B
$GNGGA,200037.00,4843.26091,N,00920.55343,E,1,12,0.47,248.0,M,47.6,M,,*47
$GPGSV,3,1,11,01,48,283,38,02,55,292,41,03,19,226,37,08,61,183,40,1*6F
$GPGSV,3,2,11,10,35,053,48,14,20,309,,17,02,316,,22,11,327,40,1*67
$GPGSV,3,3,11,24,01,023,,27,30,154,46,32,41,098,47,1*50
$GLGSV,3,1,10,65,38,040,40,66,62,123,46,67,22,181,36,73,14,334,,1*7C
$GLGSV,3,2,10,79,00,234,10,80,18,279,31,81,72,050,41,82,42,313,43,1*7B
$GLGSV,3,3,10,83,04,298,,88,24,106,46,1*76
$GAGSV,3,1,10,03,19,040,38,07,21,151,44,08,38,094,46,13,61,071,44,7*7A
$GAGSV,3,2,10,15,10,088,43,21,18,212,40,23,34,266,39,26,58,290,37,7*76
$GAGSV,3,3,10,31,18,320,,33,11,276,,7*7B
$GBGSV,3,1,11,02,04,099,35,05,19,121,41,06,02,080,,08,04,049,,1*73
$GBGSV,3,2,11,12,25,119,45,13,12,052,31,16,03,076,,21,53,069,48,1*7C
$GBGSV,3,3,11,22,09,037,37,23,02,257,,28,11,300,40,1*41
$GNRMC,200038.00,A,4843.26090,N,00920.55343,E,0.016,,070225,,,A,V*11
$GNGGA,200038.00,4843.26090,N,00920.55343,E,1,12,0.47,247.9,M,47.6,M,,*4F
$GPGSV,3,1,11,01,48,283,37,02,55,292,41,03,19,226,36,08,61,183,40,1*61
$GPGSV,3,2,11,10,35,053,48,14,20,309,,17,02,316,,22,11,327,40,1*67
$GPGSV,3,3,11,24,01,023,,27,30,154,46,32,41,098,47,1*50
$GLGSV,3,1,10,65,38,040,41,66,62,123,46,67,22,181,35,73,14,334,,1*7E
$GLGSV,3,2,10,79,00,234,14,80,18,279,32,81,72,050,40,82,42,313,43,1*7D
$GLGSV,3,3,10,83,04,298,,88,24,106,46,1*76
$GAGSV,3,1,10,03,19,040,38,07,21,151,44,08,38,094,46,13,61,071,44,7*7A
$GAGSV,3,2,10,15,10,088,43,21,18,212,40,23,34,266,39,26,58,290,36,7*77
$GAGSV,3,3,10,31,18,320,,33,11,276,,7*7B
$GBGSV,3,1,11,02,04,099,36,05,19,121,41,06,02,080,,08,04,049,,1*70
$GBGSV,3,2,11,12,2,119,45,13,12,052,31,16,03,076,,21,53,069,48,1*7C
$GBGSV,3,3,11,22,09,037,36,23,02,257,,28,11,300,40,1*40
$GNRMC,200039.00,A,4843.26089,N,00920.55343,E,0.012,,070225,,,A,V*1C
$GNGGA,200039.00,4843.26089,N,00920.55343,E,1,12,0.47,247.9,M,47.6,M,,*46
$GPGSV,3,1,11,01,48,283,37,02,55,292,41,03,19,226,36,08,61,183,40,1*61
$GPGSV,3,2,11,10,35,053,48,14,20,309,,17,02,316,,22,11,327,40,1*67
$GPGSV,3,3,11,24,01,023,,27,30,154,46,32,41,098,47,1*50
$GLGSV,3,1,10,65,38,040,41,66,62,123,47,67,22,181,33,73,14,334,,1*79
$GLGSV,3,2,10,79,00,234,17,80,18,279,32,81,72,050,40,82,42,313,43,1*7E
$GLGSV,3,3,10,83,04,298,,88,24,106,47,1*77
$GAGSV,3,1,10,03,19,040,38,07,21,151,44,08,38,094,46,13,61,071,44,7*7A
$GAGSV,3,2,10,15,10,088,43,21,18,212,40,23,34,266,39,26,58,290,36,7*77
$GAGSV,3,3,10,31,18,320,,33,11,276,,7*7B
$GBGSV,3,1,11,02,04,099,36,05,19,121,41,06,02,080,,08,04,049,,1*70
$GBGSV,3,2,11,12,25,119,45,13,12,052,31,16,03,076,,21,53,069,48,1*7C
$GBGSV,3,3,11,22,09,037,37,23,02,257,,28,11,300,40,1*41
$GNRMC,200040.00,A,4843.26087,N,00920.55342,E,0.002,,070225,,,A,V*1C
$GNGGA,200040.00,4843.26087,N,00920.55342,E,1,12,0.47,247.9,M,47.6,M,,*47
$GPGSV,3,1,11,01,48,283,36,02,55,292,41,03,19,226,36,08,61,183,41,1*61
$GPGSV,3,2,11,10,35,053,48,14,20,309,,17,02,316,,22,11,327,40,1*67
$GPGSV,3,3,11,24,01,022,,27,30,154,46,32,41,098,47,1*51
$GLGSV,3,1,10,65,38,040,40,66,62,123,47,67,22,181,34,73,14,334,,1*7F
$GLGSV,3,2,10,79,00,234,10,80,18,279,32,81,72,050,40,82,42,313,43,1*79
$GLGSV,3,3,10,83,04,298,,88,24,106,48,1*78
$GAGSV,3,1,10,03,19,040,38,07,21,151,44,08,38,094,46,13,61,071,44,7*7A
$GAGSV,3,2,10,15,10,088,43,21,18,212,39,23,34,266,39,26,58,290,36,7*79
$GAGSV,3,3,10,31,18,320,,33,11,276,,7*7B
$GBGSV,3,1,11,02,04,099,36,05,19,121,41,06,02,080,,08,04,049,,1*70
$GBGSV,3,2,11,12,25,119,44,13,12,052,31,16,03,076,,21,53,069,48,1*7D
$GBGSV,3,3,11,22,09,037,37,23,02,257,,28,11,300,40,1*41
$GNRMC,200041.00,A,4843.26085,N,00920.55341,E,0.015,,070225,,,A,V*1A
$GNGGA,200041.00,4843.26085,N,00920.55341,E,1,12,0.47,247.8,M,47.6,M,,*46
$GPGSV,3,1,11,01,48,283,36,02,55,292,40,03,19,226,36,08,61,183,41,1*60
$GPGSV,3,2,11,10,35,053,48,14,20,309,,17,02,316,,22,11,327,39,1*69
$GPGSV,3,3,11,24,01,022,,27,30,154,46,32,41,098,47,1*51
$GLGSV,3,1,10,65,38,040,41,66,62,123,47,67,22,181,35,73,14,334,,1*7F
$GLGSV,3,2,10,79,00,234,11,80,18,279,32,81,72,050,40,82,42,313,43,1*78
$GLGSV,3,3,10,83,04,298,,88,24,106,48,1*78
$GAGSV,3,1,10,03,19,040,38,07,21,151,44,08,38,094,46,13,61,071,44,7*7A
$GAGSV,3,2,10,15,10,088,43,21,18,212,39,23,34,266,39,26,58,290,36,7*79
$GAGSV,3,3,10,31,18,320,,33,11,276,,7*7B
$GBGSV,3,1,11,02,04,099,36,05,19,121,41,06,02,080,,08,04,049,,1*70
$GBGSV,3,2,11,12,25,119,44,13,12,052,31,16,03,076,,21,53,069,48,1*7D
$GBGSV,3,3,11,22,09,037,36,23,02,257,,28,11,300,40,1*40
$GNRMC,200042.00,A,4843.26083,N,00920.55339,E,0.003,,070225,,,A,V*17
$GNGGA,200042.00,4843.26083,N,00920.55339,E,1,12,0.47,247.8,M,47.6,M,,*4C
$GPGSV,3,1,11,01,48,283,36,02,55,292,40,03,19,226,36,08,61,183,41,1*60
$GPGSV,3,2,11,10,35,053,48,14,20,309,,17,02,316,,22,11,327,39,1*69
$GPGSV,3,3,11,24,01,022,,27,30,154,47,32,41,098,46,1*51
$GLGSV,3,1,10,65,38,040,40,66,62,123,48,67,22,181,35,73,14,334,,1*71
$GLGSV,3,2,10,79,00,234,13,80,18,279,32,81,72,050,40,82,42,313,43,1*7A
$GLGSV,3,3,10,83,04,298,,88,24,106,48,1*78
$GAGSV,3,1,10,03,19,040,38,07,21,151,44,08,38,094,46,13,61,071,44,7*7A
$GAGSV,3,2,10,15,10,088,43,21,18,212,39,23,34,266,39,26,58,290,36,7*79
$GAGSV,3,3,10,31,18,320,,33,11,276,,7*7B
$GBGSV,3,1,11,02,04,099,36,05,19,121,41,06,02,080,,08,04,049,,1*70
$GBGSV,3,2,11,12,25,119,44,13,12,052,31,16,03,076,,21,53,069,48,1*7D
$GBGSV,3,3,11,22,09,037,36,23,02,257,,28,11,300,40,1*40
$GNRMC,200043.00,A,4843.26080,N,00920.55336,E,0.006,,070225,,A,V*1F
$GNGGA,200043.00,4843.26080,N,00920.55336,E,1,12,0.47,247.9,M,47.6,M,,*40
$GPGSV,3,1,11,01,48,283,36,02,55,292,40,03,19,226,36,08,61,183,42,1*63
$GPGSV,3,2,11,10,35,053,47,14,20,309,,17,02,316,,22,11,327,39,1*66
$GPGSV,3,3,11,24,01,022,,27,30,154,47,32,41,098,46,1*51
$GLGSV,3,1,10,65,38,040,40,66,62,123,48,67,22,181,35,73,14,334,,1*71
$GLGSV,3,2,10,79,00,234,12,80,18,279,32,81,72,050,40,82,42,313,42,1*7A
$GLGSV,3,3,10,83,04,298,,88,24,106,48,1*78
$GAGSV,3,1,10,03,19,040,38,07,21,151,44,08,38,094,46,13,61,071,44,7*7A
$GAGSV,3,2,10,15,10,088,44,21,18,212,39,23,34,266,38,26,58,290,36,7*7F
$GAGSV,3,3,10,31,18,320,,33,11,276,,7*7B
$GBGSV,3,1,11,02,04,099,36,05,19,121,41,06,02,080,,08,04,049,,1*70
$GBGSV,3,2,11,12,25,119,44,13,12,052,31,16,03,076,,21,53,069,48,1*7D
$GBGSV,3,3,11,22,09,037,37,23,02,257,,28,11,300,40,1*41
$GNRMC,200044.00,A,4843.26077,N,00920.55333,E,0.006,,070225,,,A,V*15
$GNGGA,200044.00,4843.26077,N,00920.55333,E,1,12,0.47,247.9,M,47.6,M,,*4A
$GPGSV,3,1,11,01,48,283,36,02,55,292,40,03,19,226,36,08,61,183,42,1*63
$GPGSV,3,2,11,10,35,053,47,14,20,309,,17,02,316,,22,11,327,39,1*66
$GPGSV,3,3,11,24,01,022,,27,30,154,47,32,41,098,46,1*51
$GLGSV,3,1,10,65,38,040,40,66,62,123,48,67,22,181,36,73,14,334,,1*72
$GLGSV,3,2,10,79,00,234,11,80,18,279,32,81,72,050,40,82,42,313,42,1*79
$GLGSV,3,3,10,83,04,298,,88,24,106,48,1*78
$GAGSV,3,1,10,03,19,040,38,07,21,151,44,08,38,094,47,13,61,071,45,7*7A
$GAGSV,3,2,10,15,10,088,44,21,18,212,39,23,34,266,38,26,58,290,36,7*7F
$GAGSV,3,3,10,31,18,320,,33,11,276,,7*7B
$GBGSV,3,1,11,02,04,099,36,05,19,121,41,06,02,080,,08,04,049,,1*70
$GBGSV,3,2,11,12,25,119,44,13,12,052,31,16,03,076,,21,53,069,48,1*7D
$GBGSV,3,3,11,22,09,037,37,23,02,257,,28,11,300,40,1*41
$GNRMC,200045.00,A,4843.26074,N,00920.55330,E,0.017,,070225,,,A,V*14
$GNGGA,200045.00,4843.26074,N,00920.55330,E,1,12,0.47,247.9,M,47.6,M,,*4B
$GPGSV,3,1,11,01,48,283,36,02,55,292,40,03,19,226,36,08,61,183,42,1*63
$GPGSV,3,2,11,10,35,053,48,14,20,309,,17,02,316,,22,11,327,38,1*68
$GPGSV,3,3,11,24,01,022,,27,30,154,47,32,41,098,45,1*52
$GLGSV,3,1,10,65,38,040,40,66,62,123,48,67,22,181,38,73,14,334,,1*7C
$GLGSV,3,2,10,79,00,234,10,80,18,279,32,81,72,050,40,82,42,313,41,1*7B
$GLGSV,3,3,10,83,04,298,,88,24,106,49,1*79
$GAGSV,3,1,10,03,19,040,38,07,21,151,44,08,38,094,47,13,61,071,45,7*7A
$GAGSV,3,2,10,15,10,088,44,21,18,212,39,23,34,266,38,26,58,290,35,7*7C
$GAGSV,3,3,10,31,18,320,,33,11,276,,7*7B
$GBGSV,3,1,11,02,04,099,36,05,19,121,41,06,02,080,,08,04,049,,1*70
$GBGSV,3,2,11,12,25,119,44,13,12,052,31,16,03,076,,21,53,069,47,1*72
$GBGSV,3,3,11,22,09,037,37,23,02,257,,28,11,300,40,1*41
$GNRMC,200046.00,A,4843.26073,N,00920.55327,E,0.009,,070225,,,A,V*19
$GNGGA,200046.00,4843.26073,N,00920.55327,E,1,12,0.47,247.9,M,47.6,M,,*49
$GPGSV,3,1,11,01,48,283,36,02,55,292,40,03,19,226,36,08,61,183,42,1*63
$GPGSV,3,2,11,10,35,053,47,14,20,309,,17,02,316,,22,11,327,39,1*66
$GPGSV,3,3,11,24,01,022,,27,30,154,47,32,41,098,45,1*52
$GLGSV,3,1,10,65,38,040,40,66,62,123,48,67,22,181,38,73,14,334,,1*7C
$GLGSV,3,2,10,79,00,234,15,80,18,279,33,81,72,050,40,82,42,313,41,1*7F
$GLGSV,3,3,10,83,04,298,,88,24,106,49,1*79
$GAGSV,3,1,10,03,19,040,38,07,21,151,43,08,38,094,47,13,61,071,45,7*7D
$GAGSV,3,2,10,15,10,088,44,21,18,212,39,23,34,266,39,26,58,290,35,7*7D
$GAGSV,3,3,10,31,18,320,,33,11,276,,7*7B
$GBGSV,3,1,11,02,04,099,36,05,19,121,41,06,02,080,,08,04,049,,1*70
$GBGSV,3,2,11,12,2,119,44,13,12,052,31,16,03,076,,21,53,069,47,1*72
$GBGSV,3,3,11,22,09,037,37,23,02,257,,28,11,300,40,1*41
$GNRMC,200047.00,A,4843.26072,N,00920.55323,E,0.006,,070225,,,A,V*12
$GNGGA,200047.00,4843.26072,N,00920.55323,E,1,12,0.47,247.9,M,47.6,M,,*4D
$GPGSV,3,1,11,01,48,283,37,02,55,292,39,03,19,226,37,08,61,183,42,1*6D
$GPGSV,3,2,11,10,35,053,48,14,20,309,,17,02,316,,22,11,327,38,1*68
$GPGSV,3,3,11,24,01,022,,27,30,154,47,32,41,098,45,1*52
$GLGSV,3,1,10,65,38,040,40,66,62,123,49,67,22,181,39,73,14,334,,1*7C
$GLGSV,3,2,10,79,00,234,15,80,18,279,33,81,72,050,41,82,42,313,41,1*7E
$GLGSV,3,3,10,83,04,298,,88,24,106,49,1*79
$GAGSV,3,1,10,03,19,040,38,07,21,151,43,08,38,094,47,13,61,071,45,7*7D
$GAGSV,3,2,10,15,10,088,44,21,18,212,39,23,34,266,38,26,58,290,35,7*7C
$GAGSV,3,3,10,31,18,320,,33,11,276,,7*7B
$GBGSV,3,1,11,02,04,099,36,05,19,121,41,06,02,080,,08,04,049,,1*70
$GBGSV,3,2,11,12,25,119,44,13,12,052,30,16,03,076,,21,53,069,47,1*73
$GBGSV,3,3,11,22,09,037,37,23,02,257,,28,11,300,40,1*41
$GNRMC,200048.00,A,4843.26070,N,00920.55321,E,0.010,,070225,,,A,V*1A
$GNGGA,200048.00,4843.26070,N,00920.55321,E,1,12,0.47,247.9,M,47.6,M,,*42
$GPGSV,3,1,11,01,48,283,37,02,55,292,39,03,19,226,37,08,61,183,42,1*6D
$GPGSV,3,2,11,10,35,053,48,14,20,309,,17,02,316,,22,11,327,38,1*68
$GPGSV,3,3,11,24,01,022,,27,30,154,47,32,41,098,44,1*53
$GLGSV,3,1,10,65,38,040,40,66,62,123,48,67,22,181,40,73,14,334,,1*73
$GLGSV,3,3,10,83,04,298,,88,24,106,50,1*71
$GAGSV,3,1,10,03,19,040,38,07,21,151,43,08,38,094,47,13,61,071,45,7*7D
$GAGSV,3,2,10,15,10,088,44,21,18,212,39,23,34,266,38,26,58,290,35,7*7C
$GAGSV,3,3,10,31,18,320,,33,11,276,,7*7B
$GBGSV,3,1,11,02,04,099,36,05,19,121,41,06,02,080,,08,04,049,,1*70
$GBGSV,3,2,11,12,25,119,44,13,12,052,31,16,03,076,,21,53,069,47,1*72
$GBGSV,3,3,11,22,09,037,37,23,02,257,,28,11,300,40,1*41
$GNRMC,200049.00,A,4843.26070,N,00920.55320,E,0.019,,070225,,,A,V*13
$GNGGA,200049.00,4843.26070,N,00920.55320,E,1,12,0.47,247.9,M,47.6,M,,*42
$GPGSV,3,1,11,01,48,283,37,02,55,292,39,03,19,226,37,08,61,183,41,1*6E
$GPGSV,3,2,11,10,35,053,48,14,20,309,,17,02,316,,22,11,327,38,1*68
$GPGSV,3,3,11,24,01,022,,27,30,154,47,32,41,098,44,1*53
$GLGSV,3,1,10,65,38,040,40,66,62,123,48,67,22,181,41,73,14,334,,1*72
$GLGSV,3,2,10,79,00,234,11,80,18,279,32,81,72,050,41,82,42,313,41,1*7B
$GLGSV,3,3,10,83,04,298,,88,24,106,50,1*71
$GAGSV,3,1,10,03,19,040,37,07,21,151,42,08,38,094,47,13,61,071,45,7*73
$GAGSV,3,2,10,15,10,088,44,21,18,212,39,23,34,266,38,26,58,290,35,7*7C
$GAGSV,3,3,10,31,18,320,,33,11,276,,7*7B
$GBGSV,3,1,11,02,04,099,36,05,19,121,41,06,02,080,,08,04,049,,1*70
$GBGSV,3,2,11,12,25,119,45,13,12,052,31,16,03,076,,21,53,069,47,1*73
$GBGSV,3,3,11,22,09,037,37,23,02,257,,28,11,300,40,1*41
$GNRMC,200050.00,A,4843.26071,N,00920.55319,E,0.009,,070225,,,A,V*11
$GNGGA,200050.00,4843.26071,N,00920.55319,E,1,12,0.47,247.8,M,47.6,M,,*40
$GPGSV,3,1,11,01,48,283,37,02,55,292,39,03,19,226,38,08,61,183,41,1*61
$GPGSV,3,2,11,10,35,053,48,14,20,309,,17,02,316,,22,11,327,38,1*68
$GLGSV,3,1,10,65,38,040,39,66,62,123,48,67,22,181,42,73,14,334,,1*7F
$GLGSV,3,2,10,79,00,234,12,80,18,279,32,81,72,050,41,82,42,313,41,1*78
$GLGSV,3,3,10,83,04,298,,88,24,106,50,1*71
$GAGSV,3,1,10,03,19,040,38,07,21,151,42,08,38,094,47,13,61,071,45,7*7C
$GAGSV,3,2,10,15,10,088,44,21,18,212,38,23,34,266,38,26,58,290,35,7*7D
$GAGSV,3,3,10,31,18,320,,33,11,276,,7*7B
$GBGSV,3,1,11,02,04,099,35,05,19,121,41,06,02,080,,08,04,049,,1*73
$GBGSV,3,2,11,12,25,119,45,13,12,052,31,16,03,076,,21,53,069,46,1*72
$GBGSV,3,3,11,22,09,037,37,23,02,257,,28,11,300,40,1*41
$GNRMC,200051.00,A,4843.26072,N,00920.55319,E,0.005,,070225,,,A,V*1F
$GNGGA,200051.00,4843.26072,N,00920.55319,E,1,12,0.47,247.8,M,47.6,M,,*42
$GPGSV,3,1,11,01,48,283,37,02,55,292,39,03,19,226,38,08,61,183,40,1*60
$GPGSV,3,2,11,10,35,053,47,14,20,309,,17,02,316,,22,11,327,38,1*67
$GPGSV,3,3,11,24,01,022,,27,30,154,48,32,41,098,43,1*5B
$GLGSV,3,1,10,65,38,040,39,66,62,123,48,67,22,181,43,73,14,334,,1*7E
$GLGSV,3,2,10,79,00,234,10,80,18,279,32,81,72,050,41,82,42,313,41,1*7A
$GLGSV,3,3,10,83,04,298,,88,24,106,50,1*71
$GAGSV,3,1,10,03,19,040,38,07,21,151,42,08,38,094,47,13,61,071,45,7*7C
$GAGSV,3,2,10,15,10,088,45,21,18,212,38,23,34,266,38,26,58,290,35,7*7C
$GAGSV,3,3,10,31,18,320,,33,11,276,,7*7B
$GBGSV,3,1,11,02,04,099,36,05,19,121,41,06,02,080,,08,04,049,,1*70
$GBGSV,3,2,11,12,25,119,45,13,12,052,31,16,03,076,,21,53,069,46,1*72
$GBGSV,3,3,11,22,09,037,37,23,02,257,,28,11,300,40,1*41
$GNRMC,200052.00,A,4843.26074,N,00920.55319,E,0.004,,070225,,,A,V*1B
$GNGGA,200052.00,4843.26074,N,00920.55319,E,1,12,0.47,247.8,M,47.6,M,,*47
$GPGSV,3,1,11,01,48,283,37,02,55,292,39,03,19,226,38,08,61,183,40,1*60
$GPGSV,3,2,11,10,35,053,47,14,20,309,,17,02,316,,22,11,327,38,1*67
$GPGSV,3,3,11,24,01,022,,27,30,154,48,32,41,098,43,1*5B
$GLGSV,3,1,10,65,38,040,39,66,62,123,48,67,22,181,43,73,14,334,,1*7E
$GLGSV,3,2,10,79,00,234,12,80,18,279,32,81,72,050,41,82,42,313,41,1*78
$GLGSV,3,3,10,83,04,298,,88,24,106,51,1*70
$GAGSV,3,1,10,03,18,039,37,07,21,151,42,08,38,094,47,13,61,071,45,7*7C
$GAGSV,3,2,10,15,10,088,44,21,18,212,38,23,34,266,38,26,58,290,34,7*7C
$GAGSV,3,3,10,31,18,320,,33,11,276,,7*7B
$GBGSV,3,1,11,02,04,099,36,05,19,121,41,06,02,080,,08,04,049,,1*70
$GBGSV,3,2,11,12,25,119,45,13,12,052,31,16,03,076,,21,53,069,46,1*72
$GBGSV,3,3,11,22,09,037,37,23,02,257,,28,11,300,40,1*41
$GNRMC,200053.00,A,4843.26076,N,00920.55320,E,0.006,,070225,,,A,V*10
$GNGGA,200053.00,4843.26076,N,00920.55320,E,1,12,0.47,247.7,M,47.6,M,,*41
$GPGSV,3,1,11,01,48,283,38,02,55,292,40,03,19,226,38,08,61,183,39,1*6F
$GPGSV,3,2,11,10,35,053,47,14,20,309,,17,02,316,,22,11,327,38,1*67
$GPGSV,3,3,11,24,01,022,,27,30,154,48,32,41,098,43,1*5B
$GLGSV,3,1,10,65,38,040,39,66,62,123,48,67,22,181,44,73,14,334,,1*79
$GLGSV,3,2,10,79,00,234,13,80,18,279,33,81,72,050,41,82,42,313,41,1*78
$GLGSV,3,3,10,83,04,298,,88,24,106,50,1*71
$GAGSV,3,1,10,03,18,039,37,07,21,151,42,08,38,094,47,13,61,071,45,7*7C
$GAGSV,3,2,10,15,10,088,45,21,18,212,38,23,34,266,38,26,58,290,34,7*7D
$GAGSV,3,3,10,31,18,320,,33,11,276,,7*7B
$GBGSV,3,1,11,02,04,099,36,05,19,121,41,06,02,080,,08,04,049,,1*70
$GBGSV,3,2,11,12,25,119,45,13,12,052,30,16,03,076,,21,53,069,46,1*73
$GBGSV,3,3,11,22,09,037,37,23,02,257,,28,11,300,40,1*41
$GNRMC,200054.00,A,4843.26078,N,00920.55320,E,0.010,,070225,,,A,V*1E
$GNGGA,200054.00,4843.26078,N,00920.55320,E,1,12,0.47,247.7,M,47.6,M,,*48
$GPGSV,3,1,11,01,48,283,38,02,55,292,40,03,19,226,38,08,61,183,38,1*6E
$GPGSV,3,2,11,10,35,053,47,14,20,309,,17,02,316,,22,11,327,38,1*67
$GPGSV,3,3,11,24,01,022,,27,30,154,48,32,41,098,43,1*5B
$GLGSV,3,1,10,65,38,040,39,66,62,123,48,67,22,181,44,73,14,334,,1*79
$GLGSV,3,2,10,79,00,234,10,80,18,279,33,81,72,050,41,82,42,313,41,1*7B
$GLGSV,3,3,10,83,04,298,,88,24,106,50,1*71
$GAGSV,3,1,10,03,18,039,37,07,21,151,42,08,38,094,47,13,61,071,45,7*7C
$GAGSV,3,2,10,15,10,088,45,21,18,212,38,23,34,266,38,26,58,290,34,7*7D
$GAGSV,3,3,10,31,18,320,,33,11,276,,7*7B
$GBGSV,3,1,11,02,04,099,36,05,19,121,41,06,02,080,,08,04,049,,1*70
$GBGSV,3,2,11,12,25,119,45,13,12,052,30,16,03,076,,21,53,069,46,1*73
$GBGSV,3,3,11,22,09,037,37,23,02,257,,28,11,300,40,1*41
$GNRMC,200055.00,A,4843.26082,N,00920.55321,E,0.002,,070225,,,A,V*18
$GNGGA,200055.00,4843.26082,N,00920.55321,E,1,12,0.47,247.7,M,47.6,M,,*4D
$GPGSV,3,1,11,01,48,283,38,02,55,292,40,03,19,226,39,08,61,183,37,1*60
$GPGSV,3,2,11,10,35,053,47,14,20,309,,17,02,316,,22,11,327,38,1*67
$GPGSV,3,3,11,24,01,022,,27,30,154,48,32,41,098,43,1*5B
$GLGSV,3,1,10,65,38,040,39,66,62,123,48,67,22,181,44,73,14,334,,1*79
$GLGSV,3,2,10,79,00,234,12,80,18,279,34,81,72,050,41,82,42,313,41,1*7E
$GLGSV,3,3,10,83,04,298,,88,24,106,50,1*71
$GAGSV,3,1,10,03,18,039,37,07,21,151,42,08,38,094,47,13,61,071,45,7*7C
$GAGSV,3,2,10,15,10,088,44,21,18,212,38,23,34,266,38,26,58,290,34,7*7C
$GAGSV,3,3,10,31,18,320,,33,11,276,,7*7B
$GBGSV,3,1,11,02,04,099,36,05,19,121,41,06,02,080,,08,04,049,,1*70
$GBGSV,3,2,11,12,25,119,45,13,12,052,30,16,03,076,,21,53,069,46,1*73
$GBGSV,3,3,11,22,09,037,37,23,02,257,,28,11,300,41,1*40
$GNRMC,200056.00,A,4843.26085,N,00920.55322,E,0.013,,070225,,,A,V*1F
$GNGGA,200056.00,4843.26085,N,00920.55322,E,1,12,0.47,247.7,M,47.6,M,,*4A
$GPGSV,3,1,11,01,48,283,38,02,55,292,40,03,19,226,39,08,61,183,36,1*61
$GPGSV,3,2,11,10,35,053,47,14,20,309,,17,02,316,,22,11,327,38,1*67
$GPGSV,3,3,11,24,01,022,,27,30,154,48,32,41,098,44,1*5C
$GLGSV,3,1,10,65,38,040,39,66,62,123,48,67,22,181,45,73,14,334,,1*78
$GLGSV,3,2,10,79,00,234,12,80,18,279,33,81,72,050,41,82,42,313,41,1*79
$GLGSV,3,3,10,83,04,298,,88,24,106,50,1*71
$GAGSV,3,1,10,03,18,039,37,07,22,151,42,08,38,094,47,13,61,071,45,7*7F
$GAGSV,32,10,15,10,088,44,21,18,212,38,23,34,266,38,26,58,290,34,7*7C
$GAGSV,3,3,10,31,18,320,,33,11,276,,7*7B
$GBGSV,3,1,11,02,04,099,36,05,19,121,41,06,02,080,,08,04,049,,1*70
$GBGSV,3,2,11,12,25,119,45,13,12,052,30,16,03,076,,21,53,069,46,1*73
$GBGSV,3,3,11,22,09,037,37,23,02,257,,28,11,300,41,1*40
$GNRMC,200057.00,A,4843.26088,N,00920.55322,E,0.006,,070225,,,A,V*17
$GNGGA,200057.00,4843.26088,N,00920.55322,E,1,12,0.47,247.7,M,47.6,M,,*46
$GPGSV,3,1,11,01,48,283,38,02,55,292,40,03,19,226,39,08,61,183,35,1*62
$GPGSV,3,2,11,10,35,053,47,14,20,309,,17,02,316,,22,11,327,38,1*67
$GPGSV,3,3,11,24,01,022,,27,30,154,48,32,41,098,45,1*5D
$GLGSV,3,1,10,65,38,040,39,66,62,123,48,67,22,181,45,73,14,334,,1*78
$GLGSV,3,2,10,79,00,234,11,80,18,279,33,81,72,050,42,82,42,313,41,1*79
$GLGSV,3,3,10,83,04,298,,88,24,106,50,1*71
$GAGSV,3,1,10,03,18,039,37,07,22,151,42,08,38,093,47,13,61,071,45,7*78
$GAGSV,3,2,10,15,10,088,44,21,18,212,38,23,34,266,38,26,58,290,34,7*7C
$GAGSV,3,3,10,31,18,320,,33,11,276,,7*7B
$GBGSV,3,1,11,02,04,099,36,05,19,121,41,06,02,080,,08,04,049,,1*70
$GBGSV,3,2,11,12,25,119,45,13,12,052,30,16,03,076,,21,53,069,46,1*73
$GBGSV,3,3,11,22,09,037,37,23,02,257,,28,11,300,41,1*40
$GNRMC,200058.00,A,4843.26089,N,00920.55320,E,0.009,,070225,,,A,V*14
$GNGGA,200058.00,4843.26089,N,00920.55320,E,1,12,0.49,247.6,M,47.6,M,,*45
$GPGSV,3,1,11,01,48,283,39,02,55,292,40,03,19,226,39,08,61,183,35,1*63
$GPGSV,3,2,11,10,35,053,47,14,20,309,,17,02,316,,22,11,327,38,1*67
$GPGSV,3,3,11,24,01,022,,27,30,154,48,32,41,098,45,1*5D
$GLGSV,3,1,10,65,38,040,39,66,62,123,49,67,22,181,45,73,14,334,,1*79
$GLGSV,3,2,10,79,00,234,12,80,18,279,33,81,72,050,42,82,42,313,41,1*7A
$GLGSV,3,3,10,83,04,298,,88,24,106,50,1*71
$GAGSV,3,1,10,03,18,039,37,07,22,151,42,08,38,093,47,13,61,071,44,7*79
$GAGSV,3,2,10,15,10,088,44,21,18,212,38,23,34,266,38,26,58,290,34,7*7C
$GAGSV,3,3,10,31,18,320,,33,11,276,,7*7B
$GBGSV,3,1,11,02,04,099,36,05,19,121,41,06,02,080,,08,04,049,,1*70
$GBGSV,3,2,11,12,25,119,45,13,12,052,30,16,03,076,,21,53,069,46,1*73
$GBGSV,3,3,11,22,09,037,37,23,02,257,,28,11,300,41,1*40
$GNRMC,200059.00,A,4843.26092,N,00920.55319,E,0.015,,070225,,,A,V*18
$GNGGA,200059.00,4843.26092,N,00920.55319,E,1,12,0.47,247.6,M,47.6,M,,*4A
$GPGSV,3,1,11,01,48,283,39,02,55,292,39,03,19,226,39,08,61,183,35,1*6D
$GPGSV,3,2,11,10,35,053,47,14,20,309,,17,02,316,,22,11,327,39,1*66
$GPGSV,3,3,11,24,01,022,,27,30,154,48,32,41,098,45,1*5D
$GLGSV,3,1,10,65,38,040,40,66,62,123,49,67,22,181,45,73,14,334,,1*77
$GLGSV,3,2,10,79,00,234,10,80,18,279,33,81,72,050,43,82,42,313,41,1*79
$GLGSV,3,3,10,83,04,298,,88,24,106,50,1*71
$GAGSV,3,1,10,03,18,039,37,07,22,151,42,08,38,093,47,13,61,071,44,7*79
$GAGSV,3,2,10,15,10,088,44,21,18,212,38,23,34,266,38,26,58,290,34,7*7C
$GAGSV,3,3,10,31,18,320,,33,11,276,,7*7B
$GBGSV,3,1,11,02,04,099,36,05,19,121,41,06,02,080,,08,04,049,,1*70
$GBGSV,3,2,11,12,25,119,46,13,12,052,30,16,03,076,,21,53,069,46,1*70
$GBGSV,3,3,11,22,09,037,37,23,02,257,,28,11,300,41,1*40
$GNRMC,200100.00,A,4843.26094,N,00920.55317,E,0.007,,070225,,,A,V*1E
$GNGGA,200100.00,4843.26094,N,00920.55317,E,1,12,0.47,247.6,M,47.6,M,,*4F
$GPGSV,3,1,11,01,48,283,39,02,55,292,40,03,19,226,40,08,61,183,35,1*6D
$GPGSV,3,2,11,10,35,053,47,14,20,309,,17,02,316,,22,11,327,39,1*66
$GPGSV,3,3,11,24,01,022,,27,30,154,48,32,41,098,45,1*5D
$GLGSV,3,1,10,65,38,040,40,66,62,123,49,67,22,181,45,73,14,334,,1*77
$GLGSV,3,2,10,79,00,234,12,80,18,279,34,81,72,050,43,82,42,313,41,1*7C
$GLGSV,3,3,10,83,04,298,,88,24,106,50,1*71
$GAGSV,3,1,10,03,18,039,37,07,22,151,42,08,38,093,47,13,61,071,44,7*79
$GAGSV,3,2,10,15,10,088,44,21,18,212,38,23,34,266,38,26,58,290,35,7*7D
$GAGSV,3,3,10,31,18,320,,33,11,276,,7*7B
$GBGSV,3,1,11,02,04,099,36,05,19,121,41,06,02,080,,08,04,049,,1*70
$GBGSV,3,2,11,12,25,119,46,13,12,052,31,16,03,076,,21,53,069,46,1*71
$GBGSV,3,3,11,22,09,037,37,23,02,257,,28,11,300,41,1*40
$GNRMC,200101.00,A,4843.26097,N,00920.55316,E,0.002,,070225,,,A,V*18
$GNGGA,200101.00,4843.26097,N,00920.55316,E,1,12,0.47,247.6,M,47.6,M,,*4C
$GPGSV,3,1,11,01,48,283,40,02,55,292,39,03,19,226,40,08,61,183,36,1*6E
$GPGSV,3,2,11,10,35,053,47,14,20,309,,17,02,316,,22,11,327,39,1*66
$GPGSV,3,3,11,24,01,022,,27,30,154,49,32,41,098,45,1*5C
$GLGSV,3,1,10,65,38,040,40,66,62,123,49,67,22,181,46,73,14,334,,1*74
$GLGSV,3,2,10,79,00,234,13,80,18,279,35,81,72,050,43,82,42,313,41,1*7C
$GLGSV,3,3,10,83,04,298,,88,24,106,50,1*71
$GAGSV,3,1,10,03,18,039,37,07,22,151,42,08,38,093,47,13,61,071,44,7*79
$GAGSV,3,2,10,15,10,088,44,21,18,212,38,23,34,266,38,26,58,290,35,7*7D
$GAGSV,3,3,10,31,18,320,,33,11,276,,7*7B
$GBGSV,3,1,11,02,04,099,36,05,19,121,41,06,02,080,,08,04,049,,1*70
$GBGSV,3,2,11,12,25,119,46,13,12,052,30,16,03,076,,21,53,069,46,1*70
$GBGSV,3,3,11,22,09,037,37,23,02,257,,28,11,300,40,1*41
$GNRMC,200102.00,A,4843.26100,N,00920.55315,E,0.008,,070225,,,A,V*1D
$GNGGA,200102.00,4843.26100,N,00920.55315,E,1,12,0.47,247.6,M,47.6,M,,*43
$GPGSV,3,1,11,01,48,283,40,02,55,292,39,03,19,226,40,08,61,183,36,1*6E
$GPGSV,3,2,11,10,35,053,47,14,20,309,,17,02,316,,22,11,327,39,1*66
$GPGSV,3,3,11,24,01,022,,27,30,154,49,32,41,098,45,1*5C
$GLGSV,3,1,10,65,38,040,41,66,62,123,49,67,22,181,45,73,14,334,,1*76
$GLGSV,3,2,10,79,00,234,14,80,18,279,35,81,72,050,44,82,42,313,41,1*7C
$GLGSV,3,3,10,83,04,298,,88,24,106,51,1*70
$GAGSV,3,1,10,03,18,039,37,07,22,151,42,08,38,093,47,13,60,072,44,7*7B
$GAGSV,3,2,10,15,10,088,44,21,18,212,38,23,34,266,38,26,58,290,35,7*7D
$GAGSV,3,3,10,31,18,320,,33,11,276,,7*7B
$GBGSV,3,1,11,02,04,099,36,05,19,121,41,06,02,080,,08,04,049,,1*70
$GBGSV,3,2,11,12,25,119,46,13,12,052,30,16,03,076,,21,53,069,46,1*70
$GBGSV,3,3,11,22,09,037,37,23,02,257,,28,11,300,41,1*40
$GNRMC,200103.00,A,4843.26103,N,00920.55314,E,0.005,,070225,,,A,V*13
$GNGGA,200103.00,4843.26103,N,00920.55314,E,1,12,0.47,247.6,M,47.6,M,,*40
$GPGSV,3,1,11,01,48,283,40,02,55,292,39,03,19,226,40,08,61,183,37,1*6F
$GPGSV,3,2,11,10,35,053,47,14,20,309,,17,02,316,,22,11,327,39,1*66
$GPGSV,3,3,11,24,01,022,,27,30,154,49,32,41,098,45,1*5C
$GLGSV,3,1,10,65,38,040,41,66,62,123,49,67,22,181,45,73,14,334,,1*76
$GLGSV,3,2,10,79,00,234,14,80,18,279,35,81,72,050,44,82,42,313,41,1*7C
$GLGSV,3,3,10,83,04,298,,88,24,106,51,1*70
$GAGSV,3,1,10,03,18,039,37,07,22,151,42,08,38,093,47,13,60,072,44,7*7B
$GAGSV,3,2,10,15,10,089,44,21,18,212,37,23,34,266,38,26,58,290,35,7*73
$GAGSV,3,3,10,31,18,320,,33,11,276,,7*7B
$GBGSV,3,1,11,02,04,099,36,05,19,121,41,06,02,080,,08,04,049,,1*70
$GBGSV,3,2,11,12,25,119,46,13,12,052,30,16,03,076,,21,53,069,45,1*73
$GBGSV,3,3,11,22,09,037,38,23,02,257,,28,11,300,41,1*4F
$GNRMC,200104.00,A,4843.26105,N,00920.55313,E,0.011,,070225,,,A,V*10
$GNGGA,200104.00,4843.26105,N,00920.55313,E,1,12,0.49,247.6,M,47.6,M,,*48
$GPGSV,3,1,11,01,48,283,41,02,55,292,39,03,19,226,40,08,61,183,37,1*6E
$GPGSV,3,2,11,10,35,053,47,14,20,309,,17,02,316,,22,11,327,39,1*66
$GPGSV,3,3,11,24,01,022,,27,30,154,49,32,41,098,45,1*5C
$GLGSV,3,1,10,65,38,040,41,66,62,123,49,67,22,181,46,73,14,334,,1*75
$GLGSV,3,2,10,79,00,234,11,80,18,279,34,81,72,050,43,82,42,313,41,1*7F
$GLGSV,3,3,10,83,04,298,,88,24,106,51,1*70
$GAGSV,3,1,10,03,18,039,37,07,22,151,42,08,38,093,47,13,60,072,44,7*7B
$GAGSV,3,2,10,15,10,089,44,21,18,212,37,23,34,266,38,26,58,290,35,7*73
$GAGSV,3,3,10,31,18,320,,33,11,276,,7*7B
$GBGSV,3,1,11,02,04,099,36,05,19,121,41,06,02,080,,08,04,049,,1*70
$GBGSV,3,2,11,12,25,119,46,13,12,052,30,16,03,076,,21,53,069,45,1*73
$GBGSV,3,3,11,22,09,037,38,23,02,257,,28,11,300,41,1*4F
$GNRMC,200105.00,A,4843.26107,N,00920.55311,E,0.005,,070225,,,A,V*14
$GNGGA,200105.00,4843.26107,N,00920.55311,E,1,12,0.47,247.6,M,47.6,M,,*47
$GPGSV,3,1,11,01,48,283,41,02,55,292,39,03,19,226,40,08,61,183,37,1*6E
$GPGSV,3,2,11,10,35,053,47,14,20,309,,17,02,316,,22,11,327,39,1*66
$GPGSV,3,3,11,24,01,022,,27,30,154,49,32,41,098,44,1*5D
$GLGSV,3,1,10,65,38,040,41,66,62,123,48,67,22,181,46,73,14,334,,1*74
$GLGSV,3,2,10,79,00,234,14,80,18,279,34,81,72,050,43,82,42,313,41,1*7A
$GLGSV,3,3,10,83,04,298,,88,24,106,51,1*70
$GAGSV,3,1,10,03,18,039,37,07,22,151,42,08,38,093,47,13,60,072,44,7*7B
$GAGSV,3,2,10,15,10,089,44,21,18,212,37,23,34,266,38,26,58,290,35,7*73
$GAGSV,3,3,10,31,18,320,,33,11,276,,7*7B
$GBGSV,3,1,11,02,04,099,36,05,19,121,41,06,02,080,,08,04,049,,1*70
$GBGSV,3,2,11,12,25,119,45,13,12,052,30,16,03,076,,21,53,069,45,1*70
$GBGSV,3,3,11,22,09,037,38,23,02,257,,28,11,300,41,1*4F
$GNRMC,200106.00,A,4843.26109,N,00920.55310,E,0.017,,070225,,,A,V*1B
$GNGGA,200106.00,4843.26109,N,00920.55310,E,1,12,0.47,247.6,M,47.6,M,,*4B
$GPGSV,3,1,11,01,48,283,41,02,55,292,39,03,19,226,40,08,61,183,38,1*61
$GPGSV,3,2,11,10,35,053,47,14,20,309,,17,02,316,,22,11,327,39,1*66
$GPGSV,3,3,11,24,01,022,,27,30,154,49,32,41,098,44,1*5D
$GLGSV,3,1,10,65,38,040,41,66,62,123,48,67,22,181,45,73,14,334,,1*77
$GLGSV,3,2,10,79,00,234,11,80,18,279,34,81,72,050,42,82,42,313,41,1*7E
$GLGSV,3,3,10,83,04,298,,88,24,106,51,1*70
$GAGSV,3,1,10,03,18,039,37,07,22,151,42,08,38,093,47,13,60,072,45,7*7A
$GAGSV,3,2,10,15,10,089,44,21,17,212,37,23,34,266,38,26,58,290,35,7*7C
$GAGSV,3,3,10,31,18,320,,33,11,276,,7*7B
$GBGSV,3,1,11,02,04,099,36,05,19,121,41,06,02,080,,08,04,049,,1*70
$GBGSV,3,2,11,12,25,119,45,13,12,052,30,16,03,076,,21,53,069,45,1*70
$GBGSV,3,3,11,22,09,037,38,23,02,257,,28,11,300,40,1*4E
$GNRMC,200107.00,A,4843.26112,N,00920.55310,E,0.004,,070225,,,A,V*12
$GNGGA,200107.00,4843.26112,N,00920.55310,E,1,12,0.47,247.6,M,47.6,M,,*40
$GPGSV,3,1,11,01,48,283,41,02,55,292,39,03,19,226,40,08,61,183,38,1*61
$GPGSV,3,2,11,10,35,053,47,14,20,309,,17,02,316,,22,11,327,39,1*66
$GPGSV,3,3,11,24,01,022,,27,30,154,49,32,41,098,44,1*5D
$GLGSV,3,1,10,65,38,040,42,66,62,123,48,67,22,181,45,73,14,334,,1*74
