$GNRMC,1242.00,A,4843.26098,N,00920.55500,E,0.003,,080225,,,A,V*1F
$GNGGA,111242.00,4843.26098,N,00920.55500,E,1,12,0.45,252.3,M,47.6,M,,*46
$GPGSV,3,1,11,03,02,349,,06,25,053,42,11,30,091,46,12,64,067,44,1*61
$GPGSV,3,2,11,19,04,042,,24,29,147,38,25,70,289,39,28,25,308,40,1*60
$GPGSV,3,3,11,29,34,205,42,31,02,310,,32,36,273,43,1*5E
$GLGSV,3,1,10,66,22,250,39,67,27,308,44,68,07,353,32,75,35,090,49,1*74
$GLGSV,3,2,10,76,68,343,41,77,27,298,,84,09,019,31,85,47,060,47,1*74
$GLGSV,3,3,10,86,39,144,50,87,04,176,,1*72
$GAGSV,3,1,12,03,33,300,26,05,39,235,,08,01,339,,09,10,188,40,7*70
$GAGSV,3,2,12,10,11,147,,12,22,126,41,16,58,276,38,24,82,340,37,7*7C
$GAGSV,3,3,12,25,33,269,37,26,08,022,,31,36,076,45,33,28,066,47,7*7C
$GBGSV,3,1,10,05,15,124,36,07,03,055,,10,15,058,39,17,10,103,,1*75
$GBGSV,3,2,10,21,16,297,42,22,10,247,39,27,39,060,46,28,04,032,,1*76
$GBGSV,3,3,10,29,16,189,42,30,54,138,48,1*79
$GNRMC,12123.00,A,4843.26028,N,00920.55559,E,0.013,,080225,,,A,V*1E
$GNGGA,112123.00,4843.26028,N,00920.55559,E,1,12,0.46,251.4,M,47.6,M,,*41
$GPGSV,3,1,11,03,01,345,,06,24,049,45,11,31,087,49,12,60,071,43,1*6E
$GPGSV,3,2,11,19,01,042,,24,26,148,43,25,73,295,37,28,28,308,41,1*65
$GPGSV,3,3,11,29,37,206,35,31,05,311,,32,35,269,40,1*53
$GLGSV,3,1,10,66,18,247,28,67,26,303,41,68,10,350,40,75,31,094,47,1*7A
$GLGSV,3,2,10,76,71,356,40,77,31,301,,84,05,017,31,85,45,053,47,1*7F
$GLGSV,3,3,10,86,44,141,48,87,09,176,,1*79
$GAGSV,3,1,12,03,33,297,30,05,37,233,,08,03,337,,09,07,187,30,7*72
$GAGSV,3,2,12,10,14,146,,12,25,124,42,16,61,280,33,24,82,003,32,7*77
$GAGSV,3,3,12,25,35,271,39,26,06,020,,31,34,078,47,33,29,063,46,7*7A
$GBGSV,3,1,11,02,00,103,,05,15,124,38,07,02,056,,10,14,059,37,1*73
$GBGSV,3,2,11,17,10,105,,21,15,293,32,22,07,245,32,27,36,056,48,1*70
$GBGSV,3,3,11,28,01,032,,29,20,189,38,30,57,132,46,1*4D
$GNRMC,120000.00,A,4843.26004,N,00920.55615,E,0.005,,080225,,,A,V*1D
$GNGGA,120000.00,4843.26004,N,00920.55615,E,1,12,0.48,249.3,M,47.6,M,,*45
$GPGSV,3,1,10,06,16,035,36,11,33,067,49,12,45,085,44,20,02,090,,1*6F
$GPGSV,3,2,10,24,09,152,44,25,83,030,36,28,43,303,35,29,57,212,34,1*63
$GPGSV,3,3,10,31,21,312,38,32,25,251,,1*6F
$GLGSV,3,1,09,66,02,236,14,67,19,283,41,68,17,333,30,75,16,110,48,1*77
$GLGSV,3,2,09,76,71,064,46,77,48,315,,85,31,035,42,8,61,118,49,1*7F
$GLGSV,3,3,09,87,29,175,42,1*40
$GAGSV,3,1,11,03,32,281,39,05,23,224,29,08,12,330,,10,28,140,45,7*7D
$GAGSV,3,2,11,11,12,163,31,12,37,113,44,16,72,300,36,24,74,062,,7*76
$GAGSV,3,3,11,25,47,282,,31,22,088,41,33,27,048,40,7*45
$GBGSV,3,1,11,02,00,103,,05,15,124,43,08,06,082,41,10,10,064,31,1*74
$GBGSV,3,2,11,13,05,089,,14,03,350,,17,11,114,,21,07,280,26,1*79
$GNRMC,120001.00,A,4843.26004,N,00920.55611,E,0.046,,080225,,,A,V*1F
$GNGGA,120001.00,4843.26004,N,00920.55611,E,1,12,0.46,249.3,M,47.6,M,,*4E
$GPGSV,3,1,10,06,16,035,37,11,33,067,49,12,45,085,40,20,02,090,,1*6A
$GPGSV,3,2,10,24,09,152,44,25,83,030,36,28,43,303,34,29,57,212,35,1*63
$GPGSV,3,3,10,31,21,312,38,32,25,251,,1*6F
$GLGSV,3,1,09,66,02,236,13,67,19,283,40,68,17,333,29,75,16,110,48,1*79
$GLGSV,3,2,09,76,71,064,48,77,48,315,,85,31,035,42,86,61,118,53,1*7A
$GLGSV,3,3,09,87,29,175,45,1*47
$GAGSV,3,1,11,03,32,281,39,05,23,224,30,08,12,330,,10,28,140,45,7*75
$GAGSV,3,2,11,11,12,163,31,12,37,113,44,16,72,300,36,24,74,062,,7*76
$GAGSV,3,3,11,25,47,282,,31,22,088,41,33,27,048,40,7*45
$GBGSV,3,2,11,13,05,089,,14,03,350,,17,11,114,,21,07,280,28,1*77
$GBGSV,3,3,11,27,25,047,47,29,36,190,43,30,63,101,48,1*4F
$GNRMC,120002.00,A,4843.26003,N,00920.55609,E,0.012,,080225,,,A,V*13
$GNGGA,120002.00,4843.26003,N,00920.55609,E,1,12,0.48,249.2,M,47.6,M,,*4C
$GPGSV,3,1,10,06,15,035,36,11,33,066,49,12,45,085,43,20,02,090,,1*6A
$GPGSV,3,2,10,24,09,152,44,25,82,034,37,28,44,302,34,29,57,212,36,1*62
$GPGSV,3,3,10,31,21,312,38,32,25,251,,1*6F
$GLGSV,3,1,09,66,02,236,15,67,19,283,40,68,17,333,27,75,16,110,49,1*70
$GLGSV,3,2,09,76,71,064,46,77,48,315,,85,31,035,41,86,61,118,49,1*7C
$GLGSV,3,3,09,87,29,175,44,1*46
$GAGSV,3,1,11,03,32,281,39,05,23,224,30,08,12,330,,10,28,140,45,7*75
$GAGSV,3,2,11,11,12,163,31,12,37,113,44,16,72,300,36,24,74,062,,7*76
$GAGSV,3,3,11,25,47,282,,31,22,088,41,33,27,048,40,7*45
$GBGSV,3,1,11,02,00,103,,05,15,124,43,08,06,082,41,10,10,064,31,1*74
$GBGSV,3,2,11,13,05,089,,14,03,350,,17,11,114,,21,07,280,28,1*77
$GNRMC,120003.00,A,4843.26003,N,00920.5566,E,0.007,,080225,,,A,V*19
$GNGGA,120003.00,4843.26003,N,00920.55606,E,1,12,0.48,249.1,M,47.6,M,,*41
$GPGSV,3,1,10,06,15,035,36,11,33,066,49,12,45,085,43,20,02,090,,1*6A
$GPGSV,3,2,10,24,09,152,45,25,82,034,37,28,44,302,34,29,57,212,36,1*63
$GPGSV,3,3,0,31,21,312,38,32,25,251,,1*6F
$GLGSV,3,1,09,66,02,236,14,67,19,283,40,68,17,333,24,75,16,110,48,1*73
$GLGSV,3,2,09,76,71,064,48,77,48,315,,85,31,035,41,86,61,118,52,1*78
$GLGSV,3,3,09,87,29,175,44,1*46
$GAGSV,3,1,11,03,32,281,39,05,23,224,31,08,12,330,,10,28,140,45,7*74
$GAGSV,3,2,11,11,12,163,31,12,37,113,43,16,72,300,36,24,74,062,,7*71
$GAGSV,3,3,11,25,47,282,,31,22,088,41,33,27,048,40,7*45
$GBGSV,3,1,11,02,00,103,,05,15,124,44,08,06,82,41,10,10,064,31,1*73
$GBGSV,3,2,11,13,05,089,,14,03,350,,17,11,114,,21,07,280,27,1*78
$GBGSV,3,3,11,27,25,047,47,29,36,190,42,30,63,101,48,1*4E
$GNRMC,120004.00,A,4843.26002,N,00920.55602,E,0.036,,080225,,,A,V*19
$GNGGA,120004.00,4843.26002,N,00920.55602,E,1,12,0.48,249.1,M,47.6,M,,*43
$GPGSV,3,1,10,06,15,035,36,11,33,066,49,12,45,085,42,20,02,090,,1*6B
$GPGSV,3,2,10,24,09,152,45,25,82,034,37,28,44,302,35,29,57,212,36,1*62
$GPGSV,3,3,10,31,21,312,38,32,25,251,,1*6F
$GLGSV,3,1,09,66,02,236,11,67,19,283,39,68,17,333,22,75,16,110,48,1*7E
$GLGSV,3,2,09,76,71,064,46,77,48,315,,85,31,035,41,86,61,118,50,1*74
$GLGSV,3,3,09,87,29,175,44,1*46
$GAGSV,3,1,11,03,32,281,39,05,23,224,31,08,12,330,,10,28,140,45,7*74
$GAGSV,3,2,11,11,12,163,32,12,37,113,43,16,72,300,36,24,74,062,,7*72
$GAGSV,3,3,11,25,47,282,,31,22,088,40,33,27,048,41,7*45
$GBGSV,3,1,11,02,00,103,,05,15,124,44,08,06,082,41,10,10,064,31,1*73
$GBGSV,3,2,11,13,05,089,,14,03,350,,17,11,114,,21,07,280,29,1*76
$GNRMC,120005.00,A,4843.26002,N,00920.55598,E,0.014,,080225,,,A,V*18
$GNGGA,120005.00,4843.26002,N,00920.55598,E,1,12,0.48,249.0,M,47.6,M,,*43
$GPGSV,3,1,10,06,15,035,37,11,33,066,49,12,45,085,44,20,02,090,,1*6C
$GPGSV,3,2,10,24,09,152,45,25,82,034,38,28,44,302,35,29,57,212,37,1*6C
$GPGSV,3,3,10,31,21,312,39,32,25,251,,1*6E
$GLGSV,3,1,09,66,02,236,12,67,19,283,40,68,17,333,19,75,16,110,48,1*7B
$GLGSV,3,2,09,76,71,064,48,77,48,315,,85,31,035,41,86,61,118,51,1*7B
$GLGSV,3,3,09,87,29,175,44,1*46
$GAGSV,3,1,11,03,32,281,39,05,23,224,31,08,12,330,,10,28,140,45,7*74
$GAGSV,3,2,11,11,12,163,32,12,37,113,43,16,72,300,36,24,74,062,,7*72
$GAGSV,3,3,11,25,47,282,,31,22,088,40,33,27,048,40,7*44
$GBGSV,3,1,11,02,00,103,,05,15,124,43,08,06,082,41,10,10,064,31,1*74
$GBGSV,3,2,11,13,05,089,,14,03,350,,17,11,114,,21,07,280,29,1*76
$GBGSV,3,3,11,27,25,047,47,29,36,190,42,30,63,101,48,1*4E
$GNRMC,120006.00,A,4843.26001,N,00920.55595,E,0.015,,080225,,,A,V*14
$GNGGA,120006.00,4843.26001,N,00920.55595,E,1,12,0.48,248.9,M,47.6,M,,*46
$GPGSV,3,1,10,06,15,035,36,11,33,066,49,12,45,085,41,20,02,090,,1*68
$GPGSV,3,2,10,24,09,152,45,25,82,034,38,28,44,302,35,29,57,212,37,1*6C
$GPGSV,3,3,10,31,21,312,38,32,25,251,,1*6F
$GLGSV,3,1,09,66,02,236,14,67,19,283,40,68,17,333,15,75,16,110,48,1*71
$GLGSV,3,2,09,76,71,064,46,77,48,315,,85,31,035,40,6,61,118,52,1*77
$GLGSV,3,3,09,87,29,175,44,1*46
$GAGSV,3,1,11,03,32,281,39,05,23,224,30,08,12,330,,10,28,140,45,7*75
$GAGSV,3,2,11,11,12,163,31,12,37,113,43,16,72,300,36,24,74,062,,7*71
$GAGSV,3,3,11,25,47,282,,31,22,088,40,33,27,048,40,7*44
$GBGSV,3,1,11,02,00,103,,05,15,124,43,08,06,082,41,10,10,064,31,1*74
$GBGSV,3,2,11,13,05,089,,14,03,350,,17,11,114,,21,07,280,29,1*76
$GBGSV,3,3,11,27,25,047,47,29,36,190,42,30,63,101,48,1*4E
$GNRMC,120007.00,A,4843.26001,N,00920.55590,E,0.018,,080225,,,A,V*1D
$GNGGA,120007.00,4843.26001,N,00920.55590,E,1,12,0.48,248.8,M,47.6,M,,*43
$GPGSV,3,1,10,06,15,035,37,11,33,066,49,12,45,085,43,20,02,090,,1*6B
$GPGSV,3,2,10,24,09,152,45,25,82,034,38,28,44,302,36,29,57,212,37,1*6F
$GPGSV,3,3,10,31,21,312,39,32,25,251,,1*6E
$GLGSV,3,1,09,66,02,236,1367,19,283,39,68,17,333,18,75,16,110,49,1*74
$GLGSV,3,2,09,76,71,064,44,77,48,315,,85,31,035,40,86,61,118,51,1*76
$GLGSV,3,3,09,87,29,175,44,1*46
$GAGSV,3,1,11,03,32,281,39,05,23,224,30,08,12,330,,10,28,140,45,7*75
$GAGSV,3,2,11,11,12,163,32,12,37,113,43,16,72,300,35,24,74,062,,7*71
$GAGSV,3,3,11,25,47,282,,31,22,088,40,33,27,048,41,7*45
$GBGSV,3,1,11,02,00,103,,05,15,124,43,08,06,082,41,10,10,064,31,1*74
$GBGSV,3,2,11,13,05,089,,14,03,350,,17,11,114,,21,07,280,29,1*76
$GNRMC,120008.00,A,4843.26000,N00920.55585,E,0012,,080225,,,A,V*1D
$GNGGA,120008.00,4843.26000,N,00920.55585,E,1,12,0.48,248.6,M,47.6,M,,*47
$GPGSV,3,1,10,06,15,035,36,11,33,066,49,12,45,085,42,20,02,090,,1*6B
$GPGSV,3,2,10,24,09,152,44,25,82,034,38,28,44,302,36,29,57,212,38,1*61
$GPGSV,3,3,10,31,21,312,39,32,25,251,,1*6E
$GLGSV,3,1,09,66,02,236,09,67,19,283,39,68,17,333,23,75,16,110,49,1*77
$GLGSV,3,2,09,76,71,064,45,77,48,315,,85,31,035,40,86,61,118,52,1*74
$GLGSV,3,3,09,87,29,175,44,1*46
$GAGSV,3,1,11,03,32,281,39,05,23,224,30,08,12,330,,10,28,140,45,7*75
$GAGSV,3,2,11,11,12,163,32,12,37,113,42,16,72,300,35,24,74,062,,7*70
$GAGSV,3,3,11,25,47,282,,31,22,088,40,33,27,048,41,7*45
$GBGSV,3,1,11,02,00,103,,05,15,124,43,08,06,082,41,10,10,064,31,1*74
$GBGSV,3,2,11,13,05,089,,14,03,350,,17,11,114,,21,07,280,29,1*76
$GBGSV,3,3,11,27,25,047,47,29,37,190,40,30,63,101,48,1*4D
$GNRMC,120009.00,A,4843.25999,N,00920.55581,E,0.067,,080225,,,A,V*10
$GNGGA,120009.00,4843.25999,N,00920.55581,E,1,12,0.48,248.6,M,47.6,M,,*48
$GPGSV,3,1,10,06,15,035,36,11,33,066,49,12,45,085,42,20,02,090,,1*6B
$GPGSV,3,2,10,24,09,152,44,25,82,034,37,28,44,302,36,29,57,212,38,1*6E
$GPGSV,3,3,10,31,21,312,39,32,25,251,,1*6E
$GLGSV,3,1,09,66,02,236,12,67,19,283,39,68,17,333,28,75,16,110,49,1*76
$GLGSV,3,2,09,76,71,064,45,77,48,315,,85,31,035,39,86,61,118,51,1*79
$GLGSV,3,3,09,87,29,175,44,1*46
$GAGSV,3,1,11,03,32,281,39,05,23,224,30,08,12,330,,10,28,140,45,7*75
$GAGSV,3,2,11,11,12,163,33,12,37,113,42,16,72,00,35,24,74,062,,7*71
$GAGSV,3,3,11,25,47,282,,31,22,088,40,33,27,048,41,7*45
$GBGSV,3,1,11,02,00,103,,05,15,124,43,08,06,082,41,10,10,064,31,1*74
$GBGSV,3,2,11,13,05,089,,14,03,350,,17,11,114,,21,07,280,29,1*76
$GNRMC,120010.00,A,4843.25998,N,00920.55578,E,0.041,,080225,,,A,V*1B
$GNGGA,120010.00,4843.25998,N,00920.55578,E,1,12,0.46,248.5,M,47.6,M,,*4A
$GPGSV,3,1,10,06,15,035,36,11,33,066,50,12,45,085,42,20,02,090,,1*63
$GPGSV,3,2,10,24,09,152,45,25,82,034,34,28,44,302,36,29,57,212,39,1*6D
$GPGSV,3,3,10,31,21,312,39,32,25,251,,1*6E
$GLGSV,3,1,09,66,02,236,12,67,19,283,40,68,17,333,29,75,16,110,49,1*79
$GLGSV,3,2,09,76,71,067,45,77,48,315,,85,31,035,39,86,62,116,51,1*77
$GLGSV,3,3,09,87,30,175,44,1*4E
$GAGSV,3,1,11,03,32,281,39,05,23,224,30,08,12,330,,10,28,140,46,7*76
$GAGSV,3,2,11,11,12,163,33,12,37,113,42,16,72,300,35,24,74,062,,7*71
$GAGSV,3,3,11,25,47,282,,31,22,088,41,33,27,048,41,7*44
$GBGSV,3,1,11,02,00,103,,05,15,124,43,08,06,082,41,10,10,064,32,1*77
$GBGSV,3,2,11,13,05,089,,14,03,350,,17,11,114,,21,07,280,29,1*76
$GBGSV,3,3,11,27,25,047,47,29,37,190,40,30,63,099,48,1*4D
$GNRMC,120011.00,A,4843.25998,N,00920.55573,E,0.008,,080225,,,A,V*1C
$GNGGA,120011.00,4843.25998,N,00920.55573,E,1,12,0.48,248.4,M,47.6,M,,*4F
$GPGSV,3,1,10,06,15,035,36,11,33,066,50,12,45,085,44,20,02,090,,1*65
$GPGSV,3,2,10,24,09,152,45,25,82,034,35,28,44,302,35,29,57,212,39,1*6F
$GPGSV,3,3,10,31,21,312,39,32,25,251,,1*6E
$GLGSV,3,1,09,66,02,236,14,67,19,283,40,68,17,333,31,75,16,110,49,1*76
$GLGSV,3,2,09,76,71,067,44,77,48,315,,85,31,035,39,86,62,116,52,1*75
$GLGSV,3,3,09,87,30,175,44,1*4E
$GAGSV,3,1,11,03,32,281,39,05,23224,30,08,12,330,,10,28,140,46,7*76
$GAGSV,3,2,11,11,12,163,33,12,37,113,42,16,72,300,35,24,74,062,,7*71
$GAGSV,3,3,11,25,47,282,,31,22,088,41,33,27,048,41,7*44
$GBGSV,3,1,11,02,00,103,,05,15,124,43,08,06,082,41,10,10,064,32,1*77
$GBGSV,3,2,11,13,05,089,,14,03,350,,17,11,114,,21,07,280,30,1*7E
$GNRMC,120012.00,A,4843.25997,N,00920.55570,E,0.016,,080225,,,A,V*1C
$GNGGA,120012.00,4843.25997,N,00920.55570,E,1,12,0.46,248.4,M,47.6,M,,*4E
$GPGSV,3,1,10,06,15,035,36,11,33,066,50,12,45,085,43,20,02,090,,1*62
$GPGSV,3,2,10,24,09,152,44,25,82,034,31,28,44,302,36,29,57,212,39,1*69
$GPGSV,3,3,10,31,21,312,39,32,25,251,,1*6E
$GLGSV,3,1,09,66,01,236,12,67,19,283,40,68,17,333,30,75,16,110,49,1*72
$GLGSV,3,2,09,76,71,067,46,77,48,315,,85,31,035,40,86,62,116,51,1*7A
$GLGSV,3,3,09,87,30,175,44,1*4E
$GAGSV,3,1,11,03,32,281,39,05,23,224,30,08,12,330,,10,28,140,46,7*76
$GAGSV,3,2,11,11,12,163,34,12,37,113,42,16,72,300,34,24,74,062,,7*77
$GAGSV,3,3,11,25,47,282,,31,22,088,41,33,27,048,41,7*44
$GBGSV,3,1,11,02,00,103,,05,15,124,43,08,06,082,41,10,10,064,32,1*77
$GBGSV,3,2,11,13,05,089,,14,03,350,,17,11,114,,21,07,280,30,1*7E
$GBGSV,3,3,11,27,25,047,47,29,37,190,40,30,63,099,48,1*4D
$GNRMC,120013.00,A,4843.25997,N,00920.55567,E,0.010,,080225,,,A,V*1D
$GNGGA,120013.00,4843.25997,N,00920.55567,E,1,12,0.46,248.3,M,47.6,M,,*4E
$GPGSV,3,2,10,24,09,152,44,25,82,034,37,28,44,302,37,29,57,212,39,1*6E
$GPGSV,3,3,10,31,21,312,39,32,25,251,,1*6E
$GLGSV,3,1,09,66,01,236,15,67,19,283,39,68,17,333,30,75,16,110,49,1*7B
$GLGSV,3,2,09,76,71,067,46,77,48,315,,85,31,035,40,86,62,116,52,1*79
$GLGSV,3,3,09,87,30,175,441*4E
$GAGSV,3,1,11,03,32,281,39,05,23,224,31,08,12,330,,10,28,140,46,7*77
$GAGSV,3,2,11,11,12,163,34,12,37,113,42,16,72,300,35,24,74,062,,7*76
$GAGSV,3,3,11,25,47,282,,31,22,088,41,33,27,048,41,7*44
$GBGSV,3,1,11,02,00,103,,05,15,124,43,08,06,082,41,10,10,064,33,1*76
$GBGSV,3,2,11,13,05,089,,14,03,350,,17,11,114,,21,07,280,30,1*7E
$GNRMC,120014.00,A,4843.25996,N,00920.55564,E,0.026,,080225,,,A,V*1D
$GNGGA,120014.00,4843.25996,N,00920.55564,E,1,12,0.46,248.3,M,47.6,M,,*4B
$GPGSV,3,1,10,06,15,035,37,11,33,066,50,12,45,085,45,20,02,090,,1*65
$GPGSV,3,2,10,24,09,152,44,25,82,034,36,28,44,302,37,29,57,212,39,1*6F
$GPGSV,3,3,10,31,21,312,39,32,25,251,,1*6E
$GLGSV,3,1,09,66,01,236,14,67,19,283,39,68,17,332,30,75,16,110,49,1*7B
$GLGSV,3,2,09,76,71,067,46,77,48,315,,85,31,035,40,86,62,116,49,1*73
$GLGSV,3,3,09,87,30,175,45,1*4F
$GAGSV,3,1,11,03,32,281,39,05,23,224,31,08,12,330,,10,28,140,46,7*77
$GAGSV,3,2,11,11,12,163,35,12,37,113,41,16,72,300,35,24,74,062,,7*74
$GAGSV,3,3,11,25,47,282,,31,22,088,40,33,27,048,41,7*45
$GBGSV,3,1,11,02,00,103,,05,15,124,43,08,06,082,41,10,10,064,33,1*76
$GBGSV,3,2,11,13,05,089,,14,03,350,,17,11,114,,21,07,280,30,1*7E
$GBGSV,3,3,11,27,25,047,4729,37,190,40,30,63,099,47,1*42
$GNRMC,120015.00,A,4843.25996,N,00920.55560,E,0.020,,080225,,,A,V*1E
$GNGGA,120015.00,4843.25996,N,00920.55560,E,1,12,0.48,248.2,M,47.6,M,,*41
$GPGSV,3,1,10,06,15,035,36,11,33,066,49,12,45,085,42,20,02,090,,1*6B
$GPGSV,3,2,10,24,09,152,44,25,82,034,36,28,44,302,37,29,57,212,39,1*6F
$GPGSV,3,3,10,31,21,312,40,32,25,251,,1*60
$GLGSV,3,1,09,66,01,236,11,67,19,283,39,68,17,332,28,75,16,110,49,1*77
$GLGSV,3,2,09,76,71,067,46,77,48,315,,85,31,035,40,86,62,116,51,1*7A
$GLGSV,3,3,09,87,30,175,44,1*4E
$GAGSV,3,1,11,03,32,281,40,05,23,224,29,08,12,330,,10,28,140,46,7*70
$GAGSV,3,2,11,11,12,163,35,12,37,113,41,16,72,300,35,24,74,062,,7*74
$GAGSV,3,3,11,25,47,282,,31,22,088,40,33,27,048,41,7*45
$GBGSV,3,1,11,02,00,103,,05,15,124,43,08,06,082,41,10,10,064,34,1*71
$GBGSV,3,2,11,13,05,089,,14,03,350,,17,11,114,,21,07,280,30,1*7E
$GBGSV,3,3,11,27,25,047,47,29,37,190,40,30,63,099,48,1*4D
$GNRMC,120016.00,A,4843.25995,N,00920.55556,E,0.022,,080225,,,A,V*19
$GNGGA,120016.00,4843.25995,N,00920.55556,E,1,12,0.48,248.1,M,47.6,M,,*47
$GPGSV,3,1,10,06,15,035,36,11,33,066,49,12,45,085,45,20,02,090,,1*6C
$GPGSV,3,2,10,24,09,152,44,25,82,034,37,28,44,302,37,29,57,212,39,1*6E
$GPGSV,3,3,10,31,21,312,40,32,25,251,,1*60
$GLGSV,3,1,09,66,01,236,11,67,19,283,38,68,17,332,28,75,16,110,49,1*76
$GLGSV,3,2,09,76,71,067,47,77,48,315,,85,31,035,40,86,62,116,51,1*7B
$GLGSV,3,3,09,87,30,175,44,1*4E
$GAGSV,3,1,11,03,32,281,39,05,23,224,29,08,12,330,,10,28,140,45,7*7D
$GAGSV,3,2,11,11,12,163,34,12,37,113,41,16,72,300,36,24,74,062,,7*76
$GAGSV,3,3,11,25,47,282,,31,22,088,41,33,27,048,41,7*44
$GBGSV,3,1,11,02,00,103,,05,15,124,43,08,07,082,41,10,10,064,34,1*70
$GBGSV,3,2,11,13,05,089,,14,03,350,,17,11,114,,21,07,280,30,1*7E
$GNRMC,120017.00,A,4843.25995,N,00920.55552,E,0.016,,080225,,,A,V*1B
$GNGGA,120017.00,4843.25995,N,00920.55552,E,1,12,0.48,248.1,M,47.6,M,,*42
$GPGSV,3,1,10,06,15,035,37,11,33,066,49,12,45,085,44,20,02,090,,1*6C
$GPGSV,32,10,24,09,152,44,25,82,034,37,28,44,302,37,29,57,212,39,1*6E
$GPGSV,3,3,10,31,21,312,40,32,25,251,,1*60
$GLGSV,3,1,09,66,01,236,11,67,19,283,39,68,17,332,26,75,16,110,48,1*78
$GLGSV,3,2,09,76,71,067,47,77,48,315,,85,31,035,42,86,62,116,50,1*78
$GLGSV,3,3,09,87,30,175,44,1*4E
$GAGSV,3,1,11,03,32,281,40,05,23,224,29,08,12,330,,10,28,140,47,7*71
$GAGSV,3,2,11,11,12,163,35,12,37,113,41,16,72,300,36,24,74,062,,7*77
$GAGSV,3,3,11,25,47,282,,31,22,088,41,33,27,048,41,7*44
$GBGSV,3,1,11,02,00,103,,05,15,124,43,08,07,082,41,10,10,064,34,1*70
$GBGSV,3,2,11,13,05,089,,14,03,350,,17,11,114,,21,07,280,31,1*7F
$GBGSV,3,3,11,27,25,047,47,29,37,190,41,30,63,099,48,1*4C
$GNRMC,120018.00,A,4843.25995,N,00920.55548,E,0.020,,080225,,,A,V*1A
$GNGGA,120018.00,4843.25995,N,00920.55548,E,1,12,0.48,248.0,M,47.6,M,,*47
$GPGSV,3,1,10,06,15,035,37,11,33,066,49,12,45,085,44,20,02,090,,1*6C
$GPGSV,3,2,10,24,09,152,44,25,82,034,35,28,44,302,37,29,57,212,39,1*6C
$GPGSV,3,3,10,31,21,312,40,32,25,251,,1*60
$GLGSV,3,1,09,66,01,236,15,67,19,283,39,68,17,332,26,75,16,110,49,1*7D
$GLGSV,3,2,09,76,71,067,46,77,48,315,,85,31,035,41,6,62,116,51,1*7B
$GLGSV,3,3,09,87,30,175,44,1*4E
$GAGSV,3,1,11,03,32,281,40,05,23,224,29,08,12,330,,10,28,140,46,7*70
$GAGSV,3,2,11,11,12,163,35,12,37,113,41,16,72,300,36,24,74,062,,7*77
$GAGSV,3,3,11,25,47,282,,31,22,088,40,33,27,048,41,7*45
$GBGSV,3,1,11,02,00,103,,05,15,124,43,08,07,082,41,10,10,064,35,1*71
$GBGSV,3,2,11,13,05,089,,14,03,350,,17,11,114,,21,07,280,31,1*7F
$GNRMC,120019.00,A,4843.25995,N,00920.55545,E,0.001,,080225,,,A,V*15
$GNGGA,120019.00,4843.25995,N,00920.55545,E,1,12,0.48,248.0,M,47.6,M,,*4B
$GPGSV,3,1,10,06,15,035,37,11,33,066,49,12,45,085,44,20,02,090,,1*6C
$GPGSV,3,2,10,24,09,152,44,25,82,034,38,28,44,302,36,29,57,212,39,1*60
$GPGSV,3,3,10,31,21,312,40,32,25,251,,1*60
$GLGSV,3,1,09,66,01,236,10,67,19,283,37,68,17,332,26,75,16,110,48,1*77
$GLGSV,3,2,09,76,71,067,46,77,48,315,,85,31,035,41,86,62,116,51,1*7B
$GLGSV,3,3,09,87,30,175,44,1*4E
$GAGSV,3,1,11,03,32,281,40,05,23,224,29,08,12,330,,10,28,140,46,7*70
$GAGSV,3,2,11,11,12,163,35,12,37,113,39,16,72,300,36,24,74,062,,7*78
$GNRMC,120020.00,A,4843.25994,N,00920.55542,E,0.006,,080225,,,A,V*1E
$GNGGA,120020.00,4843.25994,N,00920.55542,E,1,12,0.48,247.9,M,47.6,M,,*41
$GPGSV,3,1,10,06,15,035,37,11,33,066,49,12,44,085,44,20,02,090,,1*6D
$GPGSV,3,2,10,24,09,152,44,25,82,034,38,28,44,302,36,29,57,212,40,1*6E
$GPGSV,3,3,10,31,21,312,39,32,25,251,,1*6E
$GLGSV,3,1,09,66,01,236,13,67,19,283,36,68,17,332,28,75,16,110,48,1*7B
$GLGSV,3,2,09,76,71,067,47,77,48,315,,85,31,035,40,86,62,116,52,1*78
$GLGSV,3,3,09,87,30,175,44,1*4E
$GAGSV,3,1,11,03,32,281,40,05,23,224,28,08,12,330,,10,28,140,46,7*71
$GAGSV,3,2,11,11,12,163,35,12,37,113,40,16,72,300,36,24,74,062,,7*76
$GAGSV,3,3,11,25,47,282,,31,22,088,40,33,27,048,41,7*45
$GBGSV,3,1,11,02,00,103,,05,15,124,43,08,07,082,41,10,10,064,35,1*71
$GBGSV,3,2,11,13,05,089,,14,03,350,,17,11,114,,21,07,280,30,1*7E
$GNRMC,120021.00,A,4843.25994,N,00920.55538,E,0.031,,080225,,,A,V*16
$GNGGA,120021.00,4843.25994,N,00920.55538,E,1,12,0.48,247.9,M,47.6,M,,*4D
$GPGSV,3,1,10,06,15,035,37,11,33,066,48,12,44,085,45,20,02,090,,1*6D
$GPGSV,3,2,10,24,09,152,44,25,82,034,38,28,44,302,35,29,57,212,40,1*6D
$GPGSV,3,3,10,31,21,312,39,32,25,251,,1*6E
$GLGSV,3,1,09,66,01,236,12,67,19,283,38,68,17,332,29,75,16,110,46,1*7B
$GLGSV,3,2,09,76,71,067,45,77,48,315,,85,31,035,41,86,62,116,51,1*78
$GLGSV,3,3,09,87,30,175,45,1*4F
$GAGSV,3,1,11,03,32,281,40,05,23,224,28,08,12,330,,10,28,140,46,7*71
$GAGSV,3,2,11,11,1,163,35,12,37,113,40,16,72,300,37,24,74,062,,7*77
$GAGSV,3,3,11,25,47,282,,31,22,088,40,33,27,048,41,7*45
$GBGSV,3,1,11,02,00,103,,05,15,124,43,08,07,082,40,10,10,064,35,1*70
$GBGSV,3,2,11,13,05,089,,14,03,350,,17,11,114,,21,07,280,28,1*77
$GBGSV,3,3,11,27,24,047,47,29,37,190,42,30,63,099,47,1*41
$GNRMC,120022.00,A,4843.25994,N,00920.55536,E,0.034,,080225,,,A,V*1E
$GNGGA,120022.00,4843.25994,N,00920.55536,E,1,12,0.46,247.9,M,47.6,M,,*4E
$GPGSV,3,1,10,06,15,035,37,11,33,066,48,12,44,085,45,20,02,090,,1*6D
$GPGSV,3,2,10,24,09,152,44,25,82,034,38,28,44,302,36,29,57,212,39,1*60
$GPGSV,3,3,10,31,21,312,39,32,25,251,,1*6E
$GLGSV,3,1,09,66,01,236,14,67,19,283,39,68,17,332,30,75,16,110,46,1*74
$GLGSV,3,2,09,76,71,067,46,77,48,315,,85,31,035,40,86,62,116,52,1*79
$GLGSV,3,3,09,87,30,175,45,1*4F
$GAGSV,3,1,11,03,32,281,40,05,23,224,27,08,12,330,,10,28,140,46,7*7E
$GAGSV,3,2,11,11,12,163,35,12,37,113,41,16,72,300,37,24,74,062,,7*76
$GAGSV,3,3,11,25,47,282,,31,22,088,40,33,27,048,41,7*45
$GBGSV,3,1,11,02,00,103,,05,15,124,43,08,07,082,40,10,10,064,35,1*70
$GBGSV,3,2,11,13,05,089,,14,03,350,,17,11,114,,21,07,280,28,1*77
$GNRMC,120023.00,A,4843.25993,N,00920.55533,E,0.010,,080225,,,A,V*1B
$GNGGA,120023.00,4843.25993,N,00920.55533,E,1,12,0.46,247.8,M,47.6,M,,*4C
$GPGSV,3,1,10,06,15,035,37,11,33,066,48,12,44,085,45,20,02,090,,1*6D
$GPGSV,3,2,10,24,09,152,44,25,82,034,40,28,44,302,35,29,57,212,36,1*63
$GPGSV,3,3,10,31,21,312,39,32,25,251,,1*6E
$GLGSV,3,1,09,66,01,236,12,67,19,283,39,68,17,332,31,75,16,110,47,1*72
$GLGSV,3,2,09,76,71,067,46,77,48,315,,85,31,035,40,86,62,116,51,1*7A
$GLGSV,3,3,09,87,30,175,45,1*4F
$GAGSV,3,1,11,03,32,281,38,05,23,224,28,08,12,330,,10,28,140,46,7*7E
$GAGSV,3,2,11,11,12,163,34,12,37,113,40,16,72,300,36,24,74,062,,7*77
$GAGSV,3,3,11,25,47,282,,31,22,088,38,33,27,048,40,7*4B
$GBGSV,3,1,11,02,00,103,,05,15,124,43,08,07,082,40,10,10,064,35,1*70
$GBGSV,3,2,11,13,05,089,,14,03,350,,17,11,114,,21,07,280,29,1*76
$GBGSV,3,3,11,27,24,047,47,29,37,190,43,30,63,099,45,1*42
$GNRMC,120024.00,A,4843.25992,N,00920.55530,E,0.031,,080225,,,A,V*1D
$GNGGA,120024.00,4843.25992N,00920.55530,E,1,12,0.48,247.8,M,47.6,M,,*47
$GPGSV,3,1,10,06,15,035,38,11,33,066,49,12,44,085,45,20,02,090,,1*63
$GPGSV,3,2,10,24,09,152,44,25,82,034,36,28,44,302,36,29,57,212,38,1*6F
$GPGSV,3,3,10,31,21,312,39,32,25,251,,1*6E
$GLGSV,3,1,09,66,01,236,14,67,19,283,37,68,17,332,30,75,16,110,47,1*7B
$GLGSV,3,2,09,76,71,067,45,77,48,315,,85,31,035,42,86,62,116,52,1*78
$GLGSV,3,,09,87,30,175,45,1*4F
$GAGSV,3,1,11,03,32,281,40,05,23,224,26,08,12,330,,10,28,140,46,7*7F
$GAGSV,3,2,11,11,12,163,35,12,37,113,41,16,72,300,37,24,74,062,,7*76
$GAGSV,3,3,11,25,47,282,,31,22,088,38,33,27,048,40,7*4B
$GBGSV,3,1,11,02,00,103,,05,15,124,43,08,07,082,40,10,10,064,35,1*70
$GBGSV,3,2,11,13,05,089,,14,03,350,,17,11,114,,21,07,280,29,1*76
$GBGSV,3,3,11,27,24,047,47,29,37,190,42,30,63,099,47,1*41
$GNRMC,120025.00,A,4843.25991,N,00920.55528,E,0.004,,080225,,,A,V*10
$GNGGA,120025.00,4843.25991,N,00920.55528,E,1,12,0.48,247.7,M,47.6,M,,*43
$GPGSV,3,1,10,06,15,035,38,11,33,066,48,12,44,085,46,20,02,090,,1*61
$GPGSV,3,2,10,24,09,152,44,25,82,034,40,28,44,302,35,29,57,212,39,1*6C
$GPGSV,3,3,10,31,21,312,39,32,25,251,,1*6E
$GLGSV,3,1,09,66,01,23,12,67,19,283,3,68,17,332,30,75,16,110,45,1*70
$GLGSV,3,2,09,76,71,067,48,77,48,315,,85,31,035,38,86,62,116,52,1*78
$GLGSV,3,3,09,87,30,175,45,1*4F
$GAGSV,3,1,11,03,32,281,41,05,23,224,28,08,12,330,,10,28,140,46,7*70
$GAGSV,3,2,11,11,12,163,35,12,37,113,40,16,72,300,38,24,74,062,,7*78
$GAGSV,3,3,11,25,47,282,,31,22,088,40,33,27,048,40,7*44
$GNRMC,120026.00,A,4843.25990,N,00920.55525,E,0.007,,080225,,,A,V*1C
$GNGGA,120026.00,4843.25990,N,00920.55525,E,1,12,0.48,247.7,M,47.6,M,,*4C
$GPGSV,3,1,10,06,15,035,38,11,33,066,48,12,44,085,45,20,02,090,,1*62
$GPGSV,3,2,10,24,09,152,44,25,82,034,37,28,44,302,35,29,57,212,39,1*6C
$GPGSV,3,3,10,31,21,312,40,32,25,251,,1*60
$GLGSV,3,1,09,66,01,236,13,67,19,283,39,68,17,332,31,75,16,110,48,1*7C
$GLGSV,3,2,09,76,71,067,46,77,48,315,,85,31,035,41,86,62,116,52,1*78
$GLGSV,3,3,09,87,30,175,46,1*4C
$GAGSV,3,1,11,03,32,281,41,05,23,224,28,08,12,330,,10,28,140,46,7*70
$GAGSV,3,2,11,11,12,163,35,12,37,113,41,16,72,300,37,24,74,062,,7*76
$GAGSV,3,3,11,25,47,282,,31,22,088,40,33,27,048,40,7*44
$GBGSV,3,1,11,02,00,103,,05,15,124,43,08,07,082,40,10,10,064,36,1*73
$GBGSV,3,2,11,13,05,089,,14,03,350,,17,11,114,,21,07,280,29,1*76
$GBGSV,3,3,11,27,24,047,47,29,37,190,41,30,63,099,47,1*42
$GNRMC,120027.00,A,4843.25990,N,00920.55522,E,0.018,,080225,,,A,V*14
$GNGGA,120027.00,4843.25990,N,00920.55522,E,1,12,0.46,247.7,M,47.6,M,,*44
$GPGSV,3,1,10,06,15,035,37,11,33,066,49,12,44,085,46,20,02,090,,1*6F
$GPGSV,3,2,10,24,09,152,44,25,82,034,38,28,44,302,35,29,57,212,38,1*62
$GPGSV,3,3,10,31,21,312,40,32,25,251,,1*60
$GLGSV,3,1,09,66,01,236,11,67,19,283,39,68,17,332,32,75,16,110,47,1*72
$GLGSV,3,2,09,76,71,067,47,77,48,315,,85,31,035,40,86,62,116,52,1*78
$GLGSV,3,3,09,87,30,175,45,1*4F
$GAGSV,3,1,11,03,32,281,41,05,23,224,29,08,12,330,,10,28,140,46,7*71
$GAGSV,3,2,11,11,12,163,35,12,37,113,40,16,72,300,36,24,74062,,7*76
$GAGSV,3,3,11,25,47,282,,31,22,088,40,33,27,048,40,7*44
$GBGSV,3,1,11,02,00,103,,05,15,124,43,08,07,082,40,10,10,064,36,1*73
$GBGSV,3,2,11,13,05,089,,14,03,350,,17,11,114,,21,07,280,30,1*7E
$GNRMC,120028.00,A,4843.25989,N,00920.55518,E,0.014,,080225,,,A,V*16
$GNGGA,120028.00,4843.25989,N,00920.55518,E,1,12,0.46,247.7,M,47.6,M,,*4A
$GPGSV,3,1,10,06,15,035,37,11,33,066,49,12,44,085,45,20,02,090,,1*6C
$GPGSV,3,2,10,24,09,152,44,25,82,034,37,28,44,302,35,29,57,212,39,1*6C
$GPGSV,3,3,10,31,21,312,39,32,25,251,,1*6E
$GLGSV,3,2,09,76,71,067,45,77,48,315,,85,31,035,39,86,62,116,52,1*74
$GLGSV,3,3,09,87,30,175,45,1*4F
$GAGSV,3,1,11,03,32,281,41,05,23,224,30,08,12,330,,10,28,140,47,7*78
$GNRMC,120029.00,A,4843.25989,N,00920.55515,E,0.016,,080225,,,A,V*18
$GNGGA,120029.00,4843.25989,N,00920.55515,E,1,12,0.46,247.7,M,47.6,M,,*46
$GPGSV,3,1,10,06,15,035,38,11,33,066,49,12,44,085,46,20,02,090,,1*60
$GPGSV,3,2,10,24,09,152,44,25,82,034,37,28,44,302,35,29,57,212,39,1*6C
$GPGSV,3,3,10,31,21,312,40,32,25,251,,1*60
$GLGSV,3,1,09,66,01,236,13,67,19,283,38,68,17,332,32,75,16,110,47,1*71
$GLGSV,3,2,09,76,71,067,47,77,48,315,,85,31,035,41,86,62,116,52,1*79
$GLGSV,3,3,09,87,30,175,45,1*4F
$GAGSV,3,1,11,03,32,281,41,05,23,224,30,08,12,330,,10,28,140,45,7*7A
$GAGSV,3,2,11,11,12,163,35,12,37,113,40,16,72,300,36,24,74,062,,7*76
$GAGSV,3,3,11,25,47,282,,31,22,088,40,33,27,048,40,7*44
$GBGSV,3,1,11,02,00,103,,05,15,124,43,08,07,082,41,10,10,064,36,1*72
$GBGSV,3,2,11,13,05,089,,14,03,350,,17,11,114,,21,07,280,32,1*7C
$GBGSV,3,3,11,27,24,047,47,29,37,190,43,30,63,099,46,1*41
$GNRMC,120030.00,A,4843.25989,N,00920.55512,E,0.002,,080225,,,A,V*12
$GNGGA,20030.00,4843.25989,N,00920.55512,E,1,12,0.46,247.7,M,47.6,M,,*49
$GPGSV,3,1,10,06,15,035,37,11,33,066,49,12,44,085,46,20,02,09,,1*6F
$GPGSV,3,2,10,24,09,152,44,25,82,034,39,28,44,302,36,29,57,212,36,1*6E
$GPGSV,3,3,10,31,21,312,39,32,25,251,,1*6E
$GLGSV,3,1,09,66,01,236,14,67,19,283,38,68,17,332,31,75,16,110,46,1*74
$GLGSV,3,2,09,76,71,067,47,77,48,315,,85,31,035,41,86,62,116,52,1*79
$GLGSV,3,3,09,87,30,175,46,1*4C
$GAGSV,3,1,11,03,32,281,40,05,23,224,31,08,12,330,,10,28,140,46,7*79
$GAGSV,3,2,11,11,12,163,36,12,37,113,41,16,72,300,35,24,74,062,,7*77
$GAGSV,3,3,11,25,47,282,,31,22,088,40,33,27,048,40,7*44
$GBGSV,3,1,11,02,00,103,,05,15,124,43,08,07,082,40,10,10,064,36,1*73
$GBGSV,3,2,11,13,05,089,,14,03,350,,17,11,114,,21,07,280,33,1*7D
$GBGSV,3,3,11,27,24,047,47,29,37,190,43,30,63,099,47,1*40
$GNRMC,120031.00,A,4843.25989,N,00920.55508,E,0.014,,080225,,,A,V*1F
$GNGGA,120031.00,4843.25989,N,00920.55508,E,1,12,0.46,247.6,M,47.6,M,,*42
$GPGSV,3,1,10,06,15,035,37,11,33,066,49,12,44,085,46,20,02,090,,1*6F
$GPGSV,3,2,10,24,09,152,44,25,82,034,37,28,44,302,36,29,57,212,37,1*61
$GPGSV,3,3,10,31,21,312,39,32,25,251,,1*6E
$GLGSV,3,1,09,66,01,236,13,67,19,283,40,68,17,332,30,75,16,110,46,1*7D
$GLGSV,3,2,09,76,71,067,46,77,48,315,,85,31,035,40,86,62,116,53,1*78
$GLGSV,3,3,09,87,30,175,45,1*4F
$GAGSV,3,1,11,03,32,281,0,05,23,224,31,08,12,330,,10,28,140,46,7*79
$GAGSV,3,2,11,11,12,163,36,12,37,113,40,16,72,300,35,24,74,062,,7*76
$GAGSV,3,3,11,25,47,282,,31,22,088,40,33,27,048,41,7*45
$GBGSV,3,1,11,02,00,103,,05,15,124,43,08,07,082,40,10,10,064,37,1*72
$GBGSV,3,2,11,13,05,089,,14,03,350,,17,11,114,,21,07,280,33,1*7D
$GNRMC,120032.00,A,4843.25989,N,00920.55505,E,0.015,,080225,,,A,V*10
$GNGGA,120032.00,4843.25989,N,00920.5505,E,1,12,0.46,247.6,M,47.6,M,,*4C
$GPGSV,3,1,10,06,15,035,37,11,33,066,49,12,44,085,47,20,02,090,,1*6E
$GPGSV,3,2,10,24,09,152,44,25,82,034,40,28,44,302,36,29,57,212,37,1*61
$GPGSV,3,3,10,31,21,312,40,32,25,251,,1*60
$GLGSV,3,1,09,66,01,236,11,67,19,283,40,68,17,332,30,75,16,110,46,1*7F
$GLGSV,3,2,09,76,71,067,47,77,48,315,,85,31,035,42,86,62,116,53,1*7B
$GLGSV,3,3,09,87,30,175,45,1*4F
$GAGSV,3,1,11,03,32,281,40,05,23,224,31,08,12,330,,10,28,140,46,7*79
$GAGSV,3,2,1111,12,163,36,12,37,113,40,16,72,300,35,24,74,062,,7*76
$GAGSV,3,3,11,25,47,282,,31,22,088,40,33,27,048,40,7*44
$GBGSV,3,1,11,02,00,103,,05,15,124,43,08,07,082,40,10,10,064,37,1*72
$GBGSV,3,2,11,13,05,089,,14,03,350,,17,11,114,,21,07,280,33,1*7D
$GBGSV,3,3,11,27,24,047,47,29,37,190,43,30,63,099,46,1*41
$GNRMC,120033.00,A,4843.25989,N,00920.55502,E,0.011,,080225,,,A,V*12
$GNGGA,120033.00,4843.25989,N,00920.55502,E,1,12,0.46,247.6,M,47.6,M,,*4A
$GPGSV,3,1,10,06,15,035,37,11,33,066,49,12,44,085,47,20,02,090,,1*6E
$GPGSV,3,2,10,24,09,152,44,25,82,034,36,28,44,302,35,29,57,212,37,1*63
$GPGSV,3,3,10,31,21,312,39,32,25,251,,1*6E
$GLGSV,3,1,09,66,01,236,12,67,19,283,39,68,17,332,30,75,16,110,46,1*72
$GLGSV,3,2,09,76,71,067,45,77,48,315,,85,31,035,42,86,62,116,52,1*78
$GLGSV,3,3,09,87,30,175,46,1*4C
$GAGSV,3,1,11,03,32,281,40,05,23,224,33,08,12,330,,10,28,140,46,7*7B
$GAGSV,3,2,11,11,12,163,36,12,37,113,40,16,72,300,35,24,74,062,,7*76
$GAGSV,3,3,11,25,47,282,,31,22,088,40,33,27,048,40,7*44
$GBGSV,3,1,11,02,00,103,,05,15,124,43,08,07,082,40,10,10,064,37,1*72
$GBGSV,3,2,11,13,05,089,,14,03,350,,17,11,114,,21,07,280,34,1*7A
$GNRMC,120034.00,A,4843.25990,N,00920.55497,E,0.021,,080225,,,A,V*13
$GNGGA,120034.00,4843.25990,N,00920.55497,E,1,12,0.46,247.6,M,47.6,M,,*48
$GPGSV,3,1,10,06,15,035,37,11,33,066,49,12,44,085,47,20,02,090,,1*6E
$GPGSV,3,2,10,24,09,152,44,25,82,034,39,28,44,302,36,29,57,212,37,1*6F
$GPGSV,3,3,10,31,21,312,39,32,25,251,,1*6E
$GLGSV,3,1,09,66,01,236,10,67,19,283,39,68,17,332,30,75,16,110,45,1*73
$GLGSV,3,2,09,76,71,067,46,77,48,315,,85,31,035,42,86,62,116,52,1*7B
$GLGSV,3,3,09,87,30,175,45,1*4F
$GAGSV,3,1,11,03,32,281,40,05,23,224,33,08,12,330,,10,28,140,46,7*7B
$GAGSV,3,2,11,11,12,163,37,12,37,113,40,16,72,300,35,24,74,062,,7*77
$GAGSV,3,3,11,25,47,282,,31,22,088,40,33,27,048,41,7*45
$GBGSV,3,1,11,02,00,103,,05,15,124,43,08,07,082,40,10,10,064,37,1*72
$GBGSV,3,2,11,13,05,089,,14,03,350,,17,11,114,,21,07,280,33,1*7D
$GNRMC,120035.00,A,4843.25990,N,00920.55493,E,0.005,,080225,,,A,V*10
$GNGGA,120035.00,4843.25990,N,00920.55493,E,1,12,0.46,247.6,M,47.6,M,,*4D
$GPGSV,3,1,10,06,15,035,37,11,33,066,49,12,44,085,47,20,02,090,,1*6E
$GPGSV,3,2,10,24,09,152,44,25,82,034,39,28,44,302,36,29,57,212,37,1*6F
$GPGSV,3,3,10,31,21,312,39,32,25,251,,1*6E
$GLGSV,3,3,09,87,30,175,46,1*4C
$GAGSV,3,1,11,03,32,281,40,05,23,224,32,08,12,330,,10,28,140,46,7*7A
$GAGSV,3,2,11,11,12,163,37,12,37,113,39,16,72,300,36,24,74,062,,7*7A
$GAGSV,3,3,11,25,47,282,,31,22,088,40,33,27,048,40,7*44
$GBGSV,3,1,11,02,00,103,,05,15,124,42,08,07,082,40,10,10,064,37,1*73
$GBGSV,3,2,11,13,05,089,,14,03,350,,17,11,114,,21,07,280,32,1*7C
$GBGSV,3,3,11,27,24,047,47,29,37,190,43,30,63,099,46,1*41
$GNRMC,120036.00,A,4843.25990,N,00920.55490,E,0.012,,080225,,,A,V*16
$GNGGA,120036.00,4843.25990,N,00920.55490,E,1,12,0.46,247.6,M,47.6,M,,*4D
$GPGSV,3,1,10,06,15,035,38,11,33,066,49,12,44,085,48,20,02,090,,1*6E
$GPGSV,3,2,10,24,09,152,44,25,82,034,39,28,44,302,37,29,57,212,37,1*6E
$GPGSV,3,3,10,31,21,312,39,32,25,251,,1*6E
$GLGSV,3,1,09,66,01,236,13,67,19,283,40,68,17,332,35,75,16,110,46,1*78
$GLGSV,3,2,09,76,71,067,45,77,48,315,,85,31,035,42,86,62,116,53,1*79
$GLGSV,3,3,09,87,30,175,46,1*4C
$GAGSV,3,1,11,03,32,281,40,05,23,224,32,08,12,330,,10,28,140,46,7*7A
$GAGSV,3,2,11,11,12,163,37,12,37,113,39,16,72,300,36,24,74,062,,7*7A
$GAGSV,3,3,11,25,47,282,,31,22,088,40,33,27,048,41,7*45
$GBGSV,3,1,11,02,00,103,,05,15,124,42,08,07,082,40,10,10,064,37,1*73
$GBGSV,3,2,11,13,05,089,,14,03,350,,17,11,114,,21,07,280,32,1*7C
$GNRMC,120037.00,A,4843.25990,N,00920.55488,E,0.027,,080225,,,A,V*18
$GNGGA,120037.00,4843.25990,N,00920.55488,E,1,12,0.47,247.6,M,47.6,M,,*44
$GPGSV,3,1,10,06,15,035,38,11,33,066,49,12,44,085,48,20,02,090,,1*6E
$GPGSV,3,2,10,24,09,152,44,25,82,034,39,28,44,302,37,29,57,212,38,1*61
$GPGSV,3,3,10,31,21,312,39,32,25,251,,1*6E
$GLGSV,3,1,09,66,01,236,12,67,19,283,40,68,17,332,32,75,16,110,46,1*7E
$GLGSV,3,,09,76,71,067,46,77,48,315,,85,31,035,43,86,62,116,51,1*79
$GLGSV,3,3,09,87,30,175,46,1*4C
$GAGSV,3,1,11,03,32,281,40,05,23,224,32,08,12,330,,10,28,140,46,7*7A
$GAGSV,3,2,11,11,12,163,36,12,37,113,40,16,72,300,36,24,74,062,,7*75
$GAGSV,3,3,11,25,47,282,,31,22,088,40,33,27,048,41,7*45
$GBGSV,3,1,11,02,00,103,,05,15,124,42,08,07,082,40,10,10,064,37,1*73
$GBGSV,3,2,11,13,05,089,,14,03,350,,17,11,114,,21,07,280,33,1*7D
$GBGSV,3,3,11,27,24,047,47,29,37,190,43,30,63,099,47,1*40
$GNRMC,120038.00,A,4843.25990,N,00920.55485,E,0.013,,080225,,,A,V*1D
$GNGGA,120038.00,4843.25990,N,00920.55485,E,1,12,0.46,247.5,M,47.6,M,,*44
$GPGSV,3,1,10,06,15,035,38,11,33,066,49,12,44,085,47,20,02,090,,1*61
$GPGSV,3,2,10,24,09,152,44,25,82,034,39,28,44,302,37,29,57,212,38,1*61
$GPGSV,3,3,10,31,21,312,39,32,25,251,,1*6E
$GLGSV,3,1,09,66,01,236,13,67,19,283,40,68,17,332,32,75,16,110,47,1*7E
$GLGSV,3,2,09,76,71,067,46,77,48,315,,8531,035,43,86,62,116,53,1*7B
$GLGSV,3,3,09,87,30,175,46,1*4C
$GAGSV,3,1,11,03,32,281,40,05,23,224,32,08,12,330,,10,28,140,46,7*7A
$GAGSV,3,2,11,11,12,163,36,12,37,113,40,16,72,300,36,24,74,062,,7*75
$GAGSV,3,3,11,25,47,282,,31,22,088,39,33,27,048,41,7*4B
$GBGSV,3,1,11,02,00,103,,05,15,124,42,08,07,082,40,10,10,064,7,1*73
$GBGSV,3,2,11,13,05,089,,14,03,350,,17,11,114,,21,07,280,33,1*7D
$GNRMC,120039.00,A,484.25991,N,00920.55481,E,0.035,,080225,,,A,V*1D
$GNGGA,120039.00,4843.25991,N,00920.55481,E,1,12,0.46,247.5,M,47.6,M,,*40
$GPGSV,3,1,10,06,15,035,38,11,33,066,49,12,44,085,48,20,02,090,,1*6E
$GPGSV,3,2,10,24,09,152,44,25,82,034,38,28,44,302,37,29,57,212,38,1*60
$GPGSV,3,3,10,31,21,312,39,32,25,251,,1*6E
$GLGSV,3,1,09,66,01,236,11,67,19,283,39,68,17,332,32,75,16,110,45,1*70
$GLGSV,3,2,09,76,71,067,46,77,48,315,,85,31,035,45,86,62,116,52,1*7C
$GLGSV,3,3,09,87,30,175,45,1*4F
$GAGSV,3,1,11,03,32,281,40,05,23,224,33,08,12,330,,10,28,140,46,7*7B
$GAGSV,3,2,11,11,12,163,36,12,37,113,39,16,72,300,35,24,74,062,,7*78
$GAGSV,3,3,11,25,47,282,,31,22,088,40,33,27,048,4,7*45
$GBGSV,3,1,11,02,00,103,,05,15,124,42,08,07,082,40,10,10,064,37,1*73
$GBGSV,3,2,11,13,05,089,,14,03,350,,17,11,114,,21,07,280,31,1*7F
$GNRMC,120040.00,A,4843.25992,N,00920.55479,E,0.012,,080225,,,A,V*12
$GNGGA,120040.00,4843.25992,N,00920.55479,E,1,12,0.46,247.4,M,47.6,M,,*4B
$GPGSV,3,1,10,06,15,035,38,11,33,066,48,12,44,085,48,20,02,090,,1*6F
$GPGSV,3,2,10,24,09,152,44,25,82,034,39,28,44,302,37,29,57,212,38,1*61
$GPGSV,3,3,10,31,21,312,39,32,25,251,,1*6E
$GLGSV,3,1,09,66,01,236,10,67,19,283,40,68,17332,32,75,16,110,46,1*7C
$GLGSV,3,2,09,76,71,067,46,77,48,15,,85,31,035,44,86,62,116,51,1*7E
$GLGSV,3,3,09,87,30,175,46,1*4C
$GAGSV,3,1,11,03,32,281,39,05,23,224,32,08,12,330,,10,28,140,46,7*74
$GAGSV,3,2,11,11,12,163,36,12,37,113,39,16,72,300,37,24,74,062,,7*7A
$GAGSV,3,3,11,25,47,282,,31,22,088,40,33,27,048,41,7*45
$GBGSV,3,1,11,02,00,103,,05,15,124,42,08,07,082,40,10,10,064,36,1*72
$GBGSV,3,2,11,13,05,089,,14,03,350,,17,11,114,,21,07,280,32,1*7C
$GNRMC,120041.00,A,4843.25992,N,00920.55476,E,0.012,,080225,,,A,V*1C
$GNGGA,120041.00,4843.25992,N,00920.55476,E,1,12,0.46,247.4,M,47.6,M,,*45
$GPGSV,3,1,10,06,15,035,38,11,33,066,48,12,44,085,48,20,02,090,,1*6F
$GPGSV,3,2,10,24,09,152,44,25,82,034,39,28,44,302,37,29,57,212,38,1*61
$GPGSV,3,3,10,31,21,312,40,32,25,251,,1*60
$GLGSV,3,1,09,66,01,236,11,67,19,283,37,68,17,332,32,75,16,110,46,1*7D
$GLGSV,3,2,09,76,71,067,47,77,48,315,,85,31,035,44,86,62,116,52,1*7C
$GLGSV,3,3,09,87,30,175,44,1*4E
$GAGSV,3,1,11,03,32,281,40,05,23,224,33,08,12,330,,10,28,140,46,7*7B
$GAGSV,3,2,11,11,12,163,36,12,37,113,38,16,72,300,37,24,74,062,,7*7B
$GAGSV,3,3,11,25,47,282,,31,22,088,40,33,27,048,40,7*44
$GBGSV,3,1,11,02,00,103,,05,15,124,43,08,07,082,40,10,10,064,36,1*73
$GBGSV,3,2,11,13,05,089,,14,03,350,,17,11,114,,21,07,280,22,1*7D
$GBGSV,3,3,11,27,24,047,47,29,37,190,43,30,63,099,46,1*41
$GNRMC,120042.00,A,4843.25993,N,00920.55473,E,0.001,,080225,,,A,V*19
$GNGGA,120042.00,4843.25993,N,00920.55473,E,1,12,0.46,247.4,M,47.6,M,,*42
$GPGSV,3,1,10,06,15,035,38,11,33,066,48,12,44,085,48,20,02,090,,1*6F
$GPGSV,3,2,10,24,09,152,44,25,82,034,37,28,44,302,37,29,57,212,38,1*6F
$GPGSV,3,3,10,31,21,312,39,32,25,251,,1*6E
$GLGSV,3,1,09,66,01,236,14,67,19,283,40,68,17,332,31,75,16,110,45,1*78
$GLGSV,3,2,09,76,71,067,46,77,48,315,,85,31,035,44,86,62,116,52,1*7D
$GLGSV,3,3,09,87,30,175,45,1*4F
$GAGSV,3,1,11,03,32,281,40,05,23,224,34,08,12,330,,10,28,140,46,7*7C
$GAGSV,3,2,11,11,12,163,36,12,37,113,38,16,72,300,38,24,74,062,,7*74
$GAGSV,3,3,11,25,47,282,,31,22,088,39,33,27,048,40,7*4A
$GBGSV,3,1,11,02,00,103,,05,15,124,43,08,07,082,40,10,10,064,36,1*73
$GBGSV,3,2,11,13,05,089,,14,03,350,,17,11,114,,21,07,280,33,1*7D
$GBGSV,3,3,11,27,24,047,47,29,37,190,41,30,63,099,46,1*43
$GNRMC,120043.00,A,4843.25994,N,00920.55471,E,0.012,,080225,,,A,V*1F
$GNGGA,120043.00,4843.25994,N,00920.55471,E,1,12,0.47,247.3,M,47.6,M,,*40
$GPGSV,3,1,10,06,15,035,38,11,33,066,48,12,44,085,48,20,02,090,,1*6F
$GPGSV,3,2,10,24,09,152,44,25,82,034,38,28,44,302,37,29,57,212,39,1*61
$GPGSV,3,3,10,31,21,312,39,32,25,251,,1*6E
$GLGSV,3,1,09,66,01,236,09,67,19,283,40,68,17,332,32,75,16,110,46,1*74
$GLGSV,3,2,09,76,71,067,47,77,48,315,,85,31,035,44,86,62,116,51,1*7F
$GLGSV,3,3,09,87,30,175,46,1*4C
$GAGSV,3,1,11,03,32,281,40,05,23,224,34,08,12,330,,10,28,140,46,7*7C
$GAGSV,3,2,11,11,12,163,36,12,37,113,38,16,72,300,37,24,74,062,,7*7B
$GAGSV,3,3,11,25,47,282,,31,22,088,39,33,27,048,41,7*4B
$GBGSV,3,1,11,02,00,103,,05,15,124,43,08,07,082,40,10,10,064,37,1*72
$GBGSV,3,2,11,13,05,089,,14,03,350,,17,11,114,,21,07,280,32,1*7C
$GNRMC,120044.00,A,4843.25996,N,00920.55470,E,0.015,,080225,,,A,V*1C
$GNGGA,120044.00,4843.25996,N,00920.55470,E,1,12,0.46,247.3,M,47.6,M,,*45
$GPGSV,3,1,10,06,15,035,38,11,33,066,48,12,44,085,48,20,02,090,,1*6F
$GPGSV,3,2,10,24,09,152,44,25,82,034,38,28,44,302,37,29,57,212,39,1*61
$GPGSV,3,3,10,31,21,312,39,32,25,251,,1*6E
$GLGSV,3,1,09,66,01,236,13,67,19,283,40,68,17,332,31,75,16,110,44,1*7E
$GLGSV,3,2,09,76,71,067,47,77,48,315,,85,31,035,44,86,62,116,51,1*7F
$GLGSV,3,3,09,87,30,175,45,1*4F
$GAGSV,3,1,11,03,32,281,40,05,23,224,34,08,12,330,,10,28,140,46,7*7C
$GAGSV,3,2,11,11,12,163,36,12,37,113,37,16,72,300,37,24,74,062,,7*74
$GAGSV,3,3,11,25,47,282,,31,22,088,39,33,27,048,41,7*4B
$GBGSV,3,1,11,02,00,103,,05,15,124,42,08,07,082,40,10,10,064,36,1*72
$GBGSV,3,2,11,13,05,089,,14,03,350,,17,11,114,,21,07,280,32,1*7C
$GBGSV,3,3,11,27,24,047,47,29,37,190,44,30,63,099,46,1*46
$GNRMC,120045.00,A,4843.25996,N,00920.55468,E,0.016,,080225,,,A,V*17
$GNGGA,120045.00,4843.25996,N,00920.55468,E,1,12,0.46,247.2,M,47.6,M,,*4C
$GPGSV,3,1,10,06,15,035,38,11,33,066,48,12,44,085,48,20,02,090,,1*6F
$GPGSV,3,2,10,24,09,152,44,25,82,034,38,28,44,302,37,29,57,212,38,1*60
$GPGSV,3,3,10,31,21,312,39,32,25,251,,1*6E
$GLGSV,3,1,09,66,01,236,13,67,19,283,40,68,17,332,30,75,16,110,46,1*7D
$GLGSV,3,2,09,76,71,067,47,77,48,315,,85,31,035,44,86,62,116,51,1*7F
$GLGSV,3,3,09,87,30,175,45,1*4F
$GAGSV,3,1,11,03,32,281,40,05,23,224,33,08,12,330,,10,28,140,46,7*7B
$GAGSV,3,2,11,11,12,163,36,12,37,113,39,16,72,300,37,24,74,062,,7*7A
$GAGSV,3,3,11,25,47,282,,31,22,088,39,33,27,048,41,7*4B
$GBGSV,3,1,11,02,00,103,,05,15,124,42,08,07,082,40,10,10,064,36,1*72
$GBGSV,3,2,11,13,05,089,,14,03,350,,17,11,114,,21,07,280,33,1*7D
$GBGSV,3,3,11,27,24,047,47,29,37,190,42,30,63,099,47,1*41
$GNRMC,120046.00,A,4843.25997,N,00920.55466,E,0.012,,080225,,,A,V*1F
$GNGGA,120046.00,4843.25997,N,00920.55466,E,1,12,0.46,247.2,M,47.6,M,,*40
$GPGSV,3,1,10,06,15,035,38,11,33,066,48,12,44,085,49,20,02,090,,1*6E
$GPGSV,3,2,10,24,09,152,44,25,82,034,38,28,44,302,37,29,57,212,40,1*6F
$GPGSV,3,3,10,31,21,312,39,32,25,251,,1*6E
$GLGSV,3,1,09,66,01,236,14,67,19,283,40,68,17,332,30,75,16,110,46,1*7A
$GLGSV,3,3,09,87,30,175,45,1*4F
$GAGSV,3,1,11,03,32,281,40,05,23,224,32,08,12,330,,10,28,140,46,7*7A
$GAGSV,3,2,11,11,12,163,36,12,37,113,36,16,72,300,37,24,74,062,,7*75
$GAGSV,3,3,11,25,47,282,,31,22,088,39,33,27,048,41,7*4B
$GBGSV,3,1,11,02,00,103,,05,15,124,42,08,07,082,40,10,10,064,37,1*73
$GBGSV,3,2,11,13,05,089,,14,03,350,,17,11,114,,21,07,280,33,1*7D
$GBGSV,3,3,11,27,24,047,47,29,37,190,42,30,63,099,46,1*40
$GNRMC,120047.00,A,4843.25998,N,00920.55465,E,0.008,,080225,,,A,V*19
$GNGGA,120047.00,4843.25998,N,00920.55465,E,1,12,0.46,247.1,M,47.6,M,,*4E
$GPGSV,3,1,10,06,15,035,38,11,33,066,48,12,44,085,49,20,02,090,,1*6E
$GPGSV,3,2,10,24,09,152,44,25,82,034,38,28,44,302,37,29,57,212,42,1*6D
$GPGSV,3,3,10,31,21,312,39,32,25,251,,1*6E
$GLGSV,3,1,09,66,01,236,4,67,19,283,40,68,17,332,30,75,16,110,40,1*7C
$GLGSV,3,2,09,76,71,067,46,77,48,315,,85,31,035,44,86,62,116,52,1*7D
$GLGSV,3,3,09,87,30,175,45,1*4F
$GAGSV,3,1,11,03,32,281,40,05,23,224,32,08,12,330,,10,28,140,46,7*7A
$GAGSV,3,2,11,11,12,163,36,12,37,113,39,16,72,300,37,24,74,062,,7*7A
$GAGSV,3,3,11,25,47,282,,31,22,088,39,33,27,048,40,7*4A
$GBGSV,3,1,11,02,00,103,,05,15,124,42,08,07,082,40,10,10,064,37,1*73
$GBGSV,3,2,11,13,05,089,,14,03,350,,17,11,114,,21,07,280,34,1*7A
$GNRMC,120048.00,A,4843.25999,N,00920.55464,E,0.008,,080225,,,A,V*16
$GNGGA,120048.00,4843.25999,N,00920.55464,E,1,12,0.46,247.1,M,47.6,M,,*41
$GPGSV,3,1,10,06,15,035,38,11,33,066,49,12,44,085,49,20,02,090,,1*6F
$GPGSV,3,2,10,24,09,152,44,25,82,034,38,28,44,302,36,29,57,212,40,1*6E
$GPGSV,3,3,10,31,21,312,39,32,25,251,,1*6E
$GLGSV,3,1,09,66,01,236,13,67,19,283,40,68,17,332,30,75,16,110,42,1*79
$GLGSV,3,2,09,76,71,067,45,77,48,315,,85,31,035,44,86,62,116,52,1*7E
$GLGSV,3,3,09,87,30,175,46,1*4C
$GAGSV,3,1,11,03,32,281,39,05,23,224,33,08,12,330,,10,28,140,46,7*75
$GAGSV,3,2,11,11,12,163,37,12,37,113,36,16,72,300,37,24,74,062,,7*74
$GAGSV,3,3,11,25,47,282,,31,22,088,39,33,27,048,41,7*4B
$GBGSV,3,1,11,02,00,103,,05,15,124,42,08,07,082,40,10,10,064,36,1*72
$GBGSV,3,2,11,13,05,089,,14,03,350,,17,11,114,,21,07,280,34,1*7A
$GBGSV,3,3,11,27,24,047,47,29,37,190,42,30,63,099,46,1*40
$GNRMC,120049.00,A,4843.26000,N,00920.55464,E,0.012,,080225,,,A,V*16
$GNGGA,120049.00,4843.26000,N,00920.55464,E,1,12,0.47,247.0,M,47.6,M,,*4A
$GPGSV,3,1,10,06,15,035,38,11,33,066,49,12,44,085,50,20,02,090,,1*67
$GPGSV,3,2,10,24,09,152,44,25,82,034,38,28,44,302,35,29,57,212,40,1*6D
$GPGSV,3,3,10,31,21,312,39,32,25,251,,1*6E
$GLGSV,3,1,09,66,01,236,14,67,19,283,40,68,17,332,31,75,16,110,44,1*79
$GLGSV,3,2,09,76,71,067,46,77,48,315,,85,31,035,43,86,62,116,52,1*7A
$GLGSV,3,3,09,87,30,175,44,1*4E
$GAGSV,3,1,11,03,32,281,39,05,23,224,33,08,12,330,,10,28,140,46,7*75
$GAGSV,3,2,11,11,12,163,37,12,37,113,39,16,72,300,38,24,74,062,,7*74
$GAGSV,3,3,11,25,47,282,,31,22,088,39,33,27,048,40,7*4A
$GBGSV,3,1,11,02,00,103,,05,15,124,42,08,07,082,41,10,10,064,37,1*72
$GBGSV,3,2,11,13,05,089,,14,03,350,,17,11,114,,21,07,280,35,1*7B
$GNRMC,120050.00,A,4843.26001,N,00920.55463,E,0.007,,080225,,,A,V*1C
$GNGGA,120050.00,4843.26001,N,00920.55463,E,1,12,0.46,247.0,M,47.6,M,,*45
$GPGSV,3,1,10,06,15,035,37,11,33,066,49,12,44,085,49,20,02,090,,1*60
$GPGSV,3,2,10,24,09,152,44,25,82,034,36,28,44,302,35,29,57,212,40,1*63
$GPGSV,3,3,10,31,21,312,39,32,25,251,,1*6E
$GLGSV,3,1,09,66,01,236,13,67,19,283,39,68,17,332,30,75,16,110,42,1*77
$GLGSV,3,2,09,76,71,067,46,77,48,315,,85,31,035,42,86,62,116,52,1*7B
$GLGSV,3,3,09,87,30,175,45,1*4F
$GAGSV,3,1,11,03,32,281,39,05,23,224,32,08,12,330,,10,28,140,46,7*74
$GAGSV,3,2,11,11,12,163,36,12,37,113,38,16,72,300,38,24,74,062,,7*74
$GAGSV,3,3,11,25,47,282,,31,22,088,39,33,27,048,40,7*4A
$GBGSV,3,1,11,02,00,103,,05,15,124,42,08,07,082,41,10,10,064,36,1*73
$GBGSV,3,2,11,13,05,089,,14,03,350,,17,11,114,,21,07,280,36,1*78
$GBGSV,3,3,11,27,24,047,47,29,37,190,43,30,63,099,46,1*41
$GNRMC,120051.00,A,4843.26001,N,00920.55463,E,0.014,,080225,,,A,V*1F
$GNGGA,120051.00,4843.26001,N,00920.55463,E,1,12,0.46,246.9,M,47.6,M,,*4C
$GPGSV,3,1,10,06,15,035,37,11,33,066,49,12,44,085,50,20,02,090,,1*68
$GPGSV,3,2,10,24,09,152,44,25,82,034,38,28,44,302,35,29,57,212,40,1*6D
$GPGSV,3,3,10,31,21,312,39,32,25,251,,1*6E
$GLGSV,3,1,09,66,01,236,11,67,19,283,39,68,17,332,32,75,16,110,40,1*75
$GLGSV,3,2,09,76,71,067,46,77,48,315,,85,31,035,42,86,62,116,53,1*7A
$GLGSV,3,3,09,87,30,175,44,1*4E
$GAGSV,3,1,11,03,32,281,39,05,23,224,32,08,12,330,,10,28,140,45,7*77
$GAGSV,3,2,11,11,12,163,36,12,37,113,38,16,72,300,38,24,74,062,,7*74
$GAGSV,3,3,11,25,47,282,,31,22,088,39,33,27,048,40,7*4A
$GBGSV,3,1,11,02,00,103,,05,15,124,42,08,07,082,41,10,10,064,36,1*73
$GBGSV,3,2,11,13,05,089,,14,03,350,,17,11,114,,21,07,280,36,1*78
$GBGSV,3,3,11,27,24,047,47,29,37,190,43,30,63,099,46,1*41
$GNRMC,120052.00,A,4843.26002,N,00920.55462,E,0.004,,080225,,,A,V*1F
$GNGGA,120052.00,4843.26002,N,00920.55462,E,1,12,0.46,246.9,M,47.6,M,,*4D
$GPGSV,3,1,10,06,15,035,37,11,33,066,49,12,44,085,49,20,02,090,,1*60
$GPGSV,3,2,10,24,09,152,44,25,82,034,38,28,44,302,35,29,57,212,40,1*6D
$GPGSV,3,3,10,31,21,312,39,32,25,251,,1*6E
$GLGSV,3,1,09,66,01,236,14,67,19,283,39,68,17,332,32,75,16,110,39,1*7E
$GLGSV,3,2,09,76,71,067,46,77,48,315,,85,31,035,42,86,62,116,53,1*7A
$GLGSV,3,3,09,87,30,175,45,1*4F
$GAGSV,3,1,11,03,32,281,39,05,23,224,32,08,12,330,,10,28,140,45,7*77
$GAGSV,3,2,11,11,12,163,36,12,37,113,38,16,72,300,38,24,74,062,,7*74
$GAGSV,3,3,11,25,47,282,,31,22,088,39,33,27,048,40,7*4A
$GBGSV,3,1,11,02,00,103,,05,15,124,42,08,07,082,41,10,10,064,36,1*73
$GBGSV,3,2,11,13,05,089,,14,03,350,,17,11,114,,21,07,280,36,1*78
$GNRMC,120053.00,A,4843.26003,N,00920.55462,E,0.009,,080225,,,A,V*12
$GNGGA,120053.00,4843.26003,N,00920.55462,E,1,12,0.46,246.9,M,47.6,M,,*4D
$GPGSV,3,1,10,06,15,035,37,11,33,066,49,12,44,085,50,20,02,090,,1*68
$GPGSV,3,2,10,24,09,152,44,25,82,034,39,28,44,302,36,29,57,212,42,1*6D
$GPGSV,3,3,10,31,21,312,39,32,25,251,,1*6E
$GLGSV,3,1,09,66,01,236,13,67,19,283,39,68,17,332,32,75,16,110,40,1*77
$GLGSV,3,2,09,76,71,067,45,77,48,315,,85,31,035,42,86,62,116,52,1*78
$GLGSV,3,3,09,87,30,175,44,1*4E
$GAGSV,3,1,11,03,32,281,39,05,23,224,32,08,12,330,,10,28,140,45,7*77
$GAGSV,3,2,11,11,12,163,36,12,37,113,38,16,72,300,38,24,74,062,,7*74
$GAGSV,3,3,11,25,47,282,,31,22,088,39,33,27,048,40,7*4A
$GBGSV,3,1,11,02,00,103,,05,15,124,42,08,07,082,41,10,10,064,36,1*73
$GBGSV,3,2,11,13,05,089,,14,03,350,,17,11,114,,21,07,280,36,1*78
$GNRMC,120054.00,A,4843.26003,N,0920.55461,E,0.017,,080225,,,A,V*19
$GNGGA,120054.00,4843.26003,N,00920.55461,E,1,12,0.46,246.9,M,47.6,M,,*49
$GPGSV,3,1,10,06,15,035,36,11,33,066,49,12,44,085,50,20,02,090,,1*69
$GPGSV,3,2,10,24,09,152,44,25,82,034,38,28,44,302,36,29,57,212,41,1*6F
$GPGSV,3,3,10,31,21,312,39,32,25,251,,1*6E
$GLGSV,3,1,09,66,01,236,15,67,19,283,40,68,17,332,31,75,16,110,41,1*7D
$GLGSV,3,2,09,76,71,067,46,77,48,315,,85,31,035,42,86,62,116,53,1*7A
$GLGSV,3,3,09,87,30,175,45,1*4F
$GAGSV,3,1,11,03,32,281,39,05,23,224,32,08,12,330,,10,28,140,45,7*77
$GAGSV,3,2,11,11,12,163,36,12,37,113,38,16,72,300,38,24,74,062,,7*74
$GNRMC,120055.00,A,4843.26003,N,00920.55460,E,0.004,,080225,,,A,V*1B
$GNGGA,120055.00,4843.26003,N,00920.55460,E,1,12,0.46,246.9,M,47.6,M,,*49
$GPGSV,3,1,10,06,15,035,36,11,33,066,48,12,44,085,50,20,02,090,,1*68
$GPGSV,3,2,10,24,09,152,44,25,82,034,39,28,44,302,36,29,57,212,41,1*6E
$GPGSV,3,3,10,31,21,312,39,32,25,251,,1*6E
$GLGSV,3,1,09,66,01,236,15,67,19,283,40,68,17,332,32,75,16,110,40,1*7F
$GLGSV,3,2,09,76,71,067,46,77,48,315,,85,31,035,42,86,62,116,52,1*7B
$GLGSV,3,3,09,87,30,175,43,1*49
$GAGSV,3,1,11,03,32,281,39,05,23,224,31,08,12,330,,10,28,140,44,7*75
$GAGSV,3,2,11,11,12,163,36,12,37,113,38,16,72,300,38,24,74,062,,7*74
$GAGSV,3,3,11,25,47,282,,31,22,088,39,33,27,048,40,7*4A
$GBGSV,3,1,11,02,00,103,,05,15,124,42,08,07,082,41,10,10,064,36,1*73
$GBGSV,3,2,11,13,05,089,,14,03,350,,17,11,114,,21,07,280,35,1*7B
$GBGSV,3,3,11,27,24,047,47,29,37,190,43,30,63,099,46,1*41
$GNRMC,120056.00,A,4843.26004,N,00920.55459,E,0.008,,080225,,,A,V*19
$GNGGA,120056.00,4843.26004,N,00920.55459,E,1,12,0.46,246.9,M,47.6,M,,*47
$GPGSV,3,1,10,06,15,035,36,11,33,066,48,12,44,085,50,20,02,090,,1*68
$GPGSV,3,2,10,24,09,152,44,25,82,034,39,28,44,302,36,29,57,212,41,1*6E
$GPGSV,3,3,10,31,21,312,40,32,25,251,,1*60
$GLGSV,3,1,09,66,01,236,12,67,19,283,39,68,17,332,32,75,16,110,40,1*76
$GLGSV,3,2,09,76,71,067,46,77,48,315,,85,31,035,40,86,62,116,53,1*78
$GLGSV,3,3,09,87,30,175,44,1*4E
$GAGSV,3,1,11,03,32,281,39,05,23,224,30,08,12,330,,10,28,140,44,7*74
$GAGSV,3,2,11,11,12,163,37,12,37,113,38,16,72,300,38,24,74,062,,7*75
$GAGSV,3,3,11,25,47,282,,31,22,088,39,33,27,048,40,7*4A
$GBGSV,3,1,11,02,00,103,,05,15,124,42,08,07,082,41,10,10,064,35,1*70
$GBGSV,3,2,11,13,05,089,,14,03,350,,17,11,114,,21,07,280,36,1*78
$GNRMC,120057.00,A,4843.26003,N,00920.55458,E,0.010,,080225,,,A,V*17
$GNGGA,120057.00,4843.26003,N,00920.55458,E,1,12,0.48,246.9,M,47.6,M,,*4E
$GPGSV,3,1,10,06,15,035,35,11,33,066,48,12,44,085,50,20,02,090,,1*6B
$GPGSV,3,2,10,24,09,152,43,25,82,034,39,28,44,302,35,29,57,212,41,1*6A
$GPGSV,3,3,10,31,21,312,41,32,25,251,,1*61
$GLGSV,3,1,09,66,01,236,12,67,19,283,39,68,17,332,32,75,16,110,40,1*76
$GLGSV,3,2,09,76,71,067,47,77,48,315,,85,31,035,41,86,62,116,52,1*79
$GLGSV,3,3,09,87,30,175,44,1*4E
$GAGSV,3,1,11,03,32,281,39,05,23,224,29,08,12,330,,10,28,140,44,7*7C
$GAGSV,3,2,11,11,12,163,37,12,37,113,38,16,72,300,39,24,74,062,,*74
$GAGSV,3,3,11,25,47,282,,31,22,088,39,33,27,048,40,7*4A
$GBGSV,3,1,11,02,00,103,,05,15,124,42,08,07,082,41,10,10,064,36,1*73
$GBGSV,3,2,11,13,05,089,,14,03,350,,17,11,114,,21,07,280,36,1*78
$GBGSV,3,3,11,27,24,047,47,29,37,190,44,30,63,099,45,1*45
$GNRMC,120058.00,A,4843.26003,N,00920.55457,E,0.012,,080225,,,A,V*15
$GNGGA,120058.00,4843.26003,N,00920.55457,E,1,12,0.48,246.9,M,47.6,M,,*4E
$GPGSV,3,1,10,06,15,035,35,11,33,066,48,12,44,085,50,20,02,090,,1*6B
$GPGSV,3,2,10,24,08,152,43,25,82,034,39,28,44,302,35,29,57,212,41,1*6B
$GPGSV,3,3,10,31,21,312,41,32,25,251,,1*61
$GLGSV,3,1,09,66,01,236,12,67,19,283,39,68,17,332,33,75,16,110,40,1*77
$GLGSV,3,2,09,76,71,067,47,77,48,315,,85,31,035,41,86,62,116,52,1*79
$GLGSV,3,3,09,87,30,175,44,1*4E
$GAGSV,3,1,11,03,32,281,40,05,23,224,28,08,12,330,,10,28,140,43,7*74
$GAGSV,3,2,11,11,12,163,37,12,37,113,38,16,72,300,39,24,74,062,,7*74
$GAGSV,3,3,11,25,47,282,,31,22,088,39,33,27,048,40,7*4A
$GBGSV,3,1,11,02,00,103,,05,15,124,42,08,07,082,41,10,10,064,35,1*70
$GBGSV,3,2,11,13,05,089,,14,03,350,,17,11,114,,21,07,280,3,1*78
$GNRMC,120059.00,A,4843.26003,N,00920.55457,E,0.012,,080225,,,A,V*14
$GNGGA,120059.00,4843.26003,N,00920.55457,E,1,12,0.48,246.8,M,47.6,M,,*4E
$GPGSV,3,1,10,06,15,035,35,11,33,066,48,12,44,085,50,20,02,090,,1*6B
$GPGSV,3,2,10,24,08,152,43,25,82,037,39,28,44,302,34,29,57,212,40,1*68
$GPGSV,3,3,10,31,21,312,40,32,25,251,,1*60
$GLGSV,3,1,09,66,01,236,12,67,19,283,38,68,17,332,33,75,16,110,40,1*76
$GLGSV,3,2,09,76,71,067,46,77,48,315,,85,31,035,41,86,62,116,53,1*79
$GLGSV,3,3,09,87,30,175,42,1*48
$GAGSV,3,1,11,03,32,281,40,05,23,224,28,08,12,330,,10,28,140,43,7*74
$GAGSV,3,2,11,11,12,163,37,12,37,113,38,16,72,300,39,24,74,062,,7*74
$GAGSV,3,3,11,25,47,282,,31,22,088,39,33,27,048,40,7*4A
$GBGSV,3,1,11,02,00,103,,05,15,124,42,08,07,082,41,10,10,064,35,1*70
$GBGSV,3,2,11,13,05,089,,14,03,350,,17,11,114,,21,07,280,36,1*78
$GBGSV,3,3,11,27,24,047,47,29,37,190,42,30,63,099,46,1*40
$GNRMC,120100.00,A,4843.26003,N,00920.55456,E,0.013,,080225,,,A,V*19
$GNGGA,120100.00,4843.26003,N,00920.55456,E,1,12,0.48,246.8,M,47.6,M,,*42
$GPGSV,3,1,11,06,15,035,35,11,33,066,48,12,44,085,50,20,02,090,,1*6A
$GPGSV,3,2,11,24,08,152,44,25,82,037,37,26,00,282,,28,44,302,34,1*60
$GPGSV,3,3,11,29,57,212,40,31,21,312,40,32,25,251,,1*5D
$GLGSV,3,1,09,66,01,236,16,67,19,283,39,68,17,332,33,75,16,110,39,1*7D
$GLGSV,3,2,09,76,71,067,46,77,48,315,,85,31,035,40,86,62,116,52,1*79
$GLGSV,3,3,09,87,30,175,45,1*4F
$GAGSV,3,1,11,03,32,281,40,05,23,224,28,08,12,330,,10,28,140,43,7*74
$GAGSV,3,2,11,11,12,163,37,12,37,113,37,16,72,300,39,24,74,062,,7*7B
$GAGSV,3,3,11,25,47,282,,31,22,088,39,33,27,048,40,7*4A
$GBGSV,3,1,11,02,00,103,,05,15,124,42,08,07,082,41,10,10,064,35,1*70
$GBGSV,3,2,11,13,05,089,,14,03,350,,17,11,114,,21,07,280,37,1*79
$GBGSV,3,3,11,27,24,047,47,29,37,90,42,30,63,099,46,1*40
$GNRMC,120101.00,A,4843.26002,N,00920.55456,E,0.009,,080225,,,A,V*12
$GNGGA,120101.00,4843.26002,N,00920.55456,E,1,12,0.48,246.8,M,47.6,M,,*42
$GPGSV,3,1,11,06,15,035,34,11,33,066,48,12,44,085,51,20,02,090,,1*6A
$GPGSV,3,2,11,24,08,152,44,25,82,037,37,26,00,282,,28,44,302,34,1*60
$GPGSV,3,3,11,29,57,212,40,31,21,312,40,32,25,251,,1*5D
$GLGSV,3,1,09,66,01,236,10,67,19,283,39,68,17,332,34,75,16,110,41,1*73
$GLGSV,3,2,09,76,71,067,46,77,48,315,,85,31,035,41,86,62,116,52,1*78
$GLGSV,3,3,09,87,30,175,43,1*49
$GAGSV,3,1,11,03,32,281,40,05,23,224,28,08,12,330,,10,28,140,42,7*75
$GAGSV,3,2,11,11,12,163,36,12,37,113,38,16,72,300,38,24,74,062,,7*74
$GAGSV,3,3,11,25,47,282,,31,22,088,39,33,27,048,41,7*4B
$GBGSV,3,1,11,02,00,103,,05,15,124,41,08,07,082,41,10,10,064,34,1*72
$GBGSV,3,2,11,13,05,089,,14,03,350,,17,11,114,,21,07,280,37,1*79
$GNRMC,120102.00,A,4843.26002,N,00920.55455,E,0.003,,080225,,,A,V*18
$GNGGA,120102.00,4843.26002,N,00920.55455,E,1,12,0.48,246.8,M,47.6,M,,*42
$GPGSV,3,1,11,06,15,035,34,11,33,066,48,12,44,085,50,20,02,090,,1*6B
$GPGSV,3,2,11,24,08,152,44,25,82,037,34,26,00,282,,28,44,302,34,1*63
$GPGSV,3,3,11,29,57,212,40,31,21,312,40,32,25,251,,1*5D
$GLGSV,3,1,09,66,01,236,14,67,19,283,39,68,17,332,34,75,16,110,42,1*74
$GLGSV,3,2,09,76,71,067,46,77,48,315,,85,31,035,41,86,62,116,53,1*79
$GLGSV,3,3,09,87,30,175,44,1*4E
$GAGSV,3,1,11,03,32,281,40,05,23,224,28,08,12,330,,10,28,140,43,7*74
$GAGSV,3,2,11,11,12,163,37,12,37,113,37,16,72,300,38,24,74,062,,7*7A
$GAGSV,3,3,11,25,47,282,,31,22,088,39,33,27,048,41,7*4B
$GBGSV,3,1,11,02,00,103,,05,15,124,41,08,07,082,41,10,10,064,34,1*72
$GBGSV,3,2,11,13,05,089,,14,03,350,,17,11,114,,21,07,280,37,1*79
$GBGSV,3,3,11,27,24,047,47,29,37,190,42,30,63,099,45,1*43
$GNRMC,120103.00,A,4843.26002,N,00920.55453,E,0.029,,080225,,,A,V*17
$GNGGA,120103.00,4843.26002,N,00920.55453,E,1,12,0.48,246.8,M,47.6,M,,*45
$GPGSV,3,1,11,06,15,035,34,11,33,066,48,12,44,085,50,20,02,090,1*6B
$GPGSV,3,2,11,24,08,152,44,25,82,037,38,26,00,282,,28,44,302,33,1*68
$GPGSV,3,3,11,29,57,212,40,31,21,312,41,32,25,251,,1*5C
$GLGSV,3,1,09,66,01,236,11,67,19,283,37,68,17,332,35,75,16,110,42,1*7E
$GLGSV,3,2,09,76,71,067,47,77,48,315,,85,31,035,40,86,62,116,52,1*78
$GLGSV,3,3,09,87,30,175,44,1*4E
$GNRMC,120104.00,A,4843.26001,N,00920.55453,E,0.006,,080225,,,A,V*1E
$GNGGA,120104.00,4843.26001,N,00920.55453,E,1,12,0.46,246.7,M,47.6,M,,*40
$GPGSV,3,1,11,06,15,035,34,11,33,066,48,12,44,085,50,20,02,090,,1*6B
$GPGSV,3,2,11,24,08,152,44,25,82,037,38,26,00,282,,28,44,302,32,1*69
$GPGSV,3,3,11,29,57,212,39,31,21,312,41,32,25,251,,1*52
$GLGSV,3,1,09,66,01,236,10,67,19,283,38,68,17,332,35,75,16,110,41,1*73
$GLGSV,3,2,09,76,71,067,47,77,48,315,,85,31,035,41,86,62,116,53,1*78
$GLGSV,3,3,09,87,30,175,44,1*4E
$GAGSV,3,1,11,03,32,281,40,05,23,224,25,08,12,330,,10,28,140,42,7*78
$GAGSV,3,2,11,11,12,163,36,12,37,113,37,16,72,300,38,24,74,062,,7*7B
$GAGSV,3,3,11,25,47,282,,31,22,088,39,33,27,048,40,7*4A
$GBGSV,3,1,11,02,00,103,,05,15,124,42,08,07,082,41,10,10,064,33,1*76
$GBGSV,3,2,11,13,05,089,,14,03,350,,17,11,114,,21,07,280,36,1*78
$GBGSV,3,3,11,27,24,047,47,29,37,190,41,30,63,099,47,1*42
$GNRMC,120105.00,A,4843.26000,N,00920.55452,E,0.003,,080225,,,A,V*1A
$GNGGA,120105.00,4843.26000,N,00920.55452,E,1,12,0.46,246.7,M,47.6,M,,*41
$GPGSV,3,1,11,06,15,035,34,11,33,066,48,12,44,085,50,20,02,090,,1*6B
$GPGSV,3,2,11,24,08,152,44,25,82,037,38,26,00,282,,28,44,302,33,1*68
$GPGSV,3,3,11,29,57,212,39,31,21,312,41,32,25,251,,1*52
$GLGSV,3,1,09,66,01,236,11,67,19,283,40,68,17,332,34,75,16,110,42,1*7F
$GLGSV,3,2,09,76,71,067,47,77,48,315,,85,31,035,41,86,62,116,52,1*79
$GLGSV,3,3,09,87,30,175,44,1*4E
$GAGSV,3,1,11,03,32,281,40,05,23,224,24,08,12,330,,10,28,140,42,7*79
$GAGSV,3,2,11,11,12,163,36,12,37,113,37,16,72,300,38,24,74,062,,7*7B
$GAGSV,3,3,11,25,47,282,,31,22,088,39,33,27,048,40,7*4A
$GBGSV,3,1,11,02,00,103,,05,15,124,43,08,07,082,41,10,10,064,33,1*77
$GBGSV,3,2,11,13,05,089,,14,03,350,,17,11,114,,21,07,280,36,1*78
$GBGSV,3,3,11,27,24,047,47,29,37,190,42,30,63,099,46,1*40
$GNRMC,120106.00,A,4843.25999,N,00920.55451,E,0.013,,080225,,,A,V*11
$GNGGA,120106.00,4843.25999,N,00920.55451,E,1,12,0.46,246.7,M,47.6,M,,*4B
$GPGSV,3,1,11,06,15,035,35,11,33,066,48,12,44,085,50,20,02,090,,1*6A
$GPGSV,3,2,11,24,08,152,44,25,82,037,38,26,00,282,,28,44,302,34,1*6F
$GPGSV,3,3,11,29,57,212,38,31,21,312,41,32,25,250,,1*52
$GLGSV,3,1,09,66,01,236,15,67,19,283,39,68,17,332,33,75,16,110,39,1*7E
$GLGSV,3,2,09,76,71,067,47,77,48,315,,85,31,035,40,86,62,116,53,1*79
$GLGSV,3,3,09,87,30,175,43,1*49
$GAGSV,3,1,11,03,32,281,40,05,23,224,26,08,12,330,,10,28,140,42,7*7B
$GAGSV,3,2,11,11,12,163,36,12,37,113,37,16,72,300,38,24,74,062,,7*7B
$GAGSV,3,3,11,25,47,282,,31,22,088,39,33,27,048,40,7*4A
$GBGSV,3,1,11,02,00,103,,05,15,124,43,08,07,082,41,10,10,064,32,1*76
$GBGSV,3,2,11,13,05,089,,14,03,350,,17,11,114,,21,07,280,33,1*7D
$GNRMC,120107.00,A,4843.25998,N,00920.55452,E,0.017,,080225,,,A,V*16
$GNGGA,120107.00,4843.25998,N,00920.55452,E,1,12,0.46,246.7,M,47.6,M,,*48
$GPGSV,3,1,11,06,15,035,33,11,33,066,49,12,44,085,50,20,02,090,,1*6D
$GPGSV,3,2,11,24,08,152,44,25,82,037,37,26,00,282,,28,44,302,33,1*67
$GPGSV,3,3,11,29,57,212,36,31,21,312,41,32,25,250,,1*5C
$GLGSV,3,1,09,66,01,236,14,67,19,283,40,68,17,332,32,75,16,110,41,1*7F
$GLGSV,3,2,09,76,71,067,46,77,48,315,,85,31,035,40,86,62,116,52,1*79
$GLGSV,3,3,09,87,30,175,42,1*48
$GAGSV,3,1,11,03,32,281,40,05,23,224,27,08,12,330,,10,28,140,41,7*79
$GAGSV,3,2,11,11,12,163,36,12,37,113,37,16,72,300,38,24,74,062,,7*7B
$GAGSV,3,3,11,25,47,282,,31,22,088,39,33,27,048,40,7*4A
$GBGSV,3,1,11,02,00,103,,05,15,124,43,08,07,082,42,10,10,064,32,1*75
$GBGSV,3,2,11,13,05,089,,14,03,350,,17,11,114,,21,07,280,35,1*7B
$GNRMC,120108.00,A,4843.25997,N,00920.55452,E,0.022,,080225,,,A,V*10
$GNGGA,120108.00,4843.25997,N,00920.55452,E,1,12,0.48,246.6,M,47.6,M,,*47
$GPGSV,3,1,11,06,15,035,34,11,33,066,48,12,44,085,50,20,02,090,,1*6B
$GPGSV,3,2,11,24,08,152,44,25,82,037,39,26,00,282,,28,44,302,34,1*6E
$GPGSV,3,3,11,29,57,212,39,31,21,312,41,32,25,250,,1*53
$GLGSV,3,1,09,66,01,236,12,67,19,283,41,68,17,332,31,75,16,110,42,1*78
$GLGSV,3,2,09,76,71,067,45,77,48,315,,85,31,035,40,86,62,116,53,1*7B
$GLGSV,3,3,09,87,30,175,43,1*49
$GAGSV,3,1,11,03,32,281,40,05,23,224,24,08,12,330,,10,28,140,41,7*7A
$GAGSV,3,2,11,11,12,163,36,12,37,113,35,16,72,300,38,24,74,062,,7*79
$GAGSV,3,3,11,25,47,282,,31,22,088,39,33,27,048,40,7*4A
$GBGSV,3,1,11,02,00,103,,05,15,124,43,08,07,082,42,10,10,064,31,1*76
$GBGSV,3,2,11,13,05,089,,14,03,350,,17,11,114,,21,07,280,35,1*7B
$GBGSV,3,3,11,27,24,047,47,29,37,190,41,30,63,099,47,1*42
$GNRMC,120109.00,A,4843.25996,N,00920.55452,E,0.005,,080225,,,A,V*15
$GNGGA,120109.00,4843.25996,N,00920.55452,E,1,12,0.48,246.6,M,47.6,M,,*47
$GPGSV,3,1,11,06,15,035,34,11,33,066,48,12,44,085,50,20,02,090,,1*6B
$GPGSV,3,2,11,24,08,152,44,25,82,037,39,26,00,282,,28,44,302,34,1*6E
$GPGSV,3,3,11,29,57,212,38,31,21,312,41,32,25,250,,1*52
$GLGSV,3,1,09,66,01,236,14,67,19,283,41,68,17,332,30,75,16,110,42,1*7F
$GLGSV,3,2,09,76,71,067,47,77,48,315,,85,31,035,41,86,62,116,53,1*78
$GLGSV,3,3,09,87,30,175,43,1*49
$GAGSV,3,1,11,03,32,281,40,05,23,224,25,08,12,330,,10,28,140,41,7*7B
