$GNRMC,190000.00,A,4843.26073,N,00920.55401,E,0.006,,070225,,,A,V*1D
$GNGGA,190000.00,4843.26073,N,00920.55401,E,1,12,0.50,247.9,M,47.6,M,,*44
$GPGSV,3,1,09,01,25,265,35,02,31,274,39,08,77,264,28,10,60,067,46,1*63
$GPGSV,3,2,09,14,07,330,,16,11,185,42,23,20,047,45,27,59,145,46,1*69
$GPGSV,3,3,09,32,23,125,49,1*56
$GLGSV,3,1,09,65,52,083,46,66,32,151,49,72,17,025,40,73,01,358,,1*7C
$GLGSV,3,2,09,79,25,252,47,80,27,312,45,81,60,324,42,82,17,291,40,1*7D
$GLGSV,3,3,09,88,48,077,48,1*41
$GAGSV,3,1,11,03,23,060,38,05,02,016,,07,00,158,,08,22,114,40,7*7D
$GAGSV,3,2,11,13,77,027,37,15,27,073,44,21,40,223,35,23,38,293,33,7*74
$GAGSV,3,3,11,26,40,268,30,27,06,180,,31,05,333,,7*42
$GBGSV,2,1,08,02,04,100,38,05,19,122,39,08,13,040,37,13,20,044,42,1*7B
$GBGSV,2,2,08,21,53,114,48,22,29,047,43,23,17,276,36,25,05,229,,1*76
$GNRMC,190001.00,A,4843.26073,N,00920.55403,E,0.017,,070225,,,A,V*1E
$GNGGA,190001.00,4843.26073,N,00920.55403,E,1,12,0.50,248.0,M,47.6,M,,*41
$GPGSV,3,1,09,01,25,265,35,02,31,274,39,08,77,264,29,10,60,067,47,1*63
$GPGSV,3,2,09,14,07,330,,16,11,185,42,23,20,047,45,27,59,145,46,1*69
$GPGSV,3,3,09,32,23,125,49,1*56
$GLGSV,3,1,09,65,52,083,46,66,32,151,49,72,17,025,40,73,01,358,,1*7C
$GLGSV,3,2,09,79,25,252,47,80,27,312,44,81,60,324,42,82,17,291,40,1*7C
$GLGSV,3,3,09,88,48,077,47,1*4E
$GAGSV,3,1,11,03,23,060,38,05,02,016,,07,00,158,,08,22,114,40,7*7D
$GAGSV,3,2,11,13,77,027,38,15,27,073,44,21,40,223,35,23,38,293,33,7*7B
$GAGSV,3,3,11,26,40,268,30,27,06,180,,31,05,333,,7*42
$GBGSV,2,1,08,02,04,100,38,05,19,122,39,08,13,040,36,13,20,044,42,1*7A
$GBGSV,2,2,08,21,53,114,48,22,29,047,43,23,17,276,36,25,05,229,,1*76
$GNRMC,190002.00,A,4843.26073,N,00920.55405,E,0.008,,070225,,,A,V*15
$GNGGA,190002.00,4843.26073,N,00920.55405,E,1,12,0.50,248.1,M,47.6,M,,*45
$GPGSV,3,1,09,01,25,265,35,02,31,274,39,08,77,264,29,10,60,067,45,1*61
$GPGSV,3,2,09,14,07,329,,16,11,185,43,23,20,047,45,27,59,145,45,1*63
$GPGSV,3,3,09,32,23,125,49,1*56
$GLGSV,3,1,09,65,52,083,46,66,32,151,48,72,17,025,41,73,01,358,,1*7C
$GLGSV,3,2,09,79,25,252,47,80,27,312,44,81,60,324,42,82,17,291,40,1*7C
$GLGSV,3,3,09,88,48,077,46,1*4F
$GAGSV,3,1,11,03,23,060,38,05,02,016,,07,00,158,,08,22,114,39,7*73
$GAGSV,3,2,11,13,77,027,38,15,27,073,44,21,40,223,36,23,38,293,33,7*78
$GAGSV,3,3,11,26,40,268,28,27,06,180,,31,05,333,,7*4B
$GBGSV,2,1,08,02,04,100,38,05,19,122,40,08,13,040,36,13,20,044,42,1*74
$GBGSV,2,2,08,21,53,114,48,22,29,047,43,23,17,276,36,25,05,229,,1*76
$GNRMC,190003.00,A,4843.26072,N,00920.55405,E,0.006,,070225,,,A,V*1B
$GNGGA,190003.00,4843.26072,N,00920.55405,E,1,12,0.50,248.1,M,47.6,M,,*45
$GPGSV,3,1,09,01,25,265,36,02,31,274,39,08,77,264,29,10,60,067,46,1*61
$GPGSV,3,2,09,14,07,329,,16,11,185,43,23,20,047,45,27,59,145,45,1*63
$GPGSV,3,3,09,32,23,125,49,1*56
$GLGSV,3,1,09,65,52,083,45,66,32,151,48,72,17,025,40,73,01,358,,1*7E
$GLGSV,3,2,09,79,25,252,47,80,27,312,44,81,60,324,42,82,17,291,40,1*7C
$GLGSV,3,3,09,88,48,077,46,1*4F
$GAGSV,3,1,11,03,23,060,38,05,02,016,,07,00,158,,08,22,114,38,7*72
$GAGSV,3,2,11,13,77,027,38,15,27,073,44,21,40,223,36,23,38,293,34,7*7F
$GAGSV,3,3,11,26,40,268,26,27,06,180,,31,05,333,,7*45
$GBGSV,2,1,08,02,04,100,38,05,19,122,40,08,13,040,37,13,20,044,42,1*75
$GBGSV,2,2,08,21,53,114,48,22,29,047,43,23,17,276,36,25,05,229,,1*76
$GNRMC,190004.00,A,4843.26071,N,00920.55405,E,0.006,,070225,,,A,V*1F
$GNGGA,190004.00,4843.26071,N,00920.55405,E,1,12,0.50,248.2,M,47.6,M,,*42
$GPGSV,3,1,09,01,25,265,37,02,31,274,39,08,77,264,30,10,60,067,46,1*68
$GPGSV,3,2,09,14,07,329,,16,10,185,43,23,20,047,45,27,59,145,44,1*63
$GPGSV,3,3,09,32,23,125,49,1*56
$GLGSV,3,1,09,65,52,083,45,66,32,151,47,72,17,025,41,73,01,358,,1*70
$GLGSV,3,2,09,79,25,252,47,80,27,312,44,81,60,324,41,82,17,291,40,1*7F
$GLGSV,3,3,09,88,48,077,44,1*4D
$GAGSV,3,1,11,03,23,060,38,05,02,016,,07,00,158,,08,22,114,38,7*72
$GAGSV,3,2,11,13,77,027,38,15,27,073,44,21,40,223,36,23,38,293,34,7*7F
$GAGSV,3,3,11,26,40,268,25,27,06,180,,31,05,333,,7*46
$GBGSV,2,1,08,02,04,100,38,05,19,122,40,08,13,040,37,13,20,044,42,1*75
$GBGSV,2,2,08,21,53,114,48,22,29,047,43,23,17,276,35,25,05,229,,1*75
$GNRMC,190005.00,A,4843.26069,N,00920.55405,E,0.013,,070225,,,A,V*13
$GNGGA,190005.00,4843.26069,N,00920.55405,E,1,12,0.50,248.2,M,47.6,M,,*4A
$GPGSV,3,1,09,01,25,265,37,02,31,274,41,08,77,264,31,10,60,067,47,1*67
$GPGSV,3,2,09,14,07,329,,16,10,185,43,23,20,047,46,27,59,145,44,1*60
$GPGSV,3,3,09,32,23,125,49,1*56
$GLGSV,3,1,09,65,52,083,45,66,32,151,47,72,17,025,41,73,01,358,,1*70
$GLGSV,3,2,09,79,25,252,47,80,27,312,44,81,60,324,42,82,17,291,41,1*7D
$GLGSV,3,3,09,88,48,077,44,1*4D
$GAGSV,3,1,11,03,23,060,38,05,02,016,,07,00,158,,08,22,114,38,7*72
$GAGSV,3,2,11,13,77,027,38,15,27,073,44,21,40,223,37,23,38,293,34,7*7E
$GAGSV,3,3,11,26,40,268,22,27,06,180,,31,05,333,,7*41
$GBGSV,2,1,08,02,04,100,38,05,19,122,40,08,13,040,37,13,20,044,42,1*75
$GBGSV,2,2,08,21,53,114,48,22,29,047,42,23,17,276,36,25,05,229,,1*77
$GNRMC,190006.00,A,4843.26068,N,00920.55406,E,0.012,,070225,,,A,V*13
$GNGGA,190006.00,4843.26068,N,00920.55406,E,1,12,0.50,248.3,M,47.6,M,,*4A
$GPGSV,3,1,09,01,25,265,37,02,31,274,40,08,77,264,31,10,60,067,47,1*66
$GPGSV,3,2,09,14,07,329,,16,10,185,43,23,20,047,46,27,59,145,44,1*60
$GPGSV,3,3,09,32,23,125,49,1*56
$GLGSV,3,1,09,65,52,083,44,66,32,151,46,72,17,025,41,73,01,358,,1*70
$GLGSV,3,2,09,79,25,252,47,80,27,312,44,81,60,324,41,82,17,291,40,1*7F
$GLGSV,3,3,09,88,48,077,38,1*46
$GAGSV,3,1,11,03,23,060,38,05,02,016,,07,00,158,,08,22,114,39,7*73
$GAGSV,3,2,11,13,77,027,38,15,27,073,44,21,40,223,38,23,38,293,34,7*71
$GAGSV,3,3,11,26,40,268,20,27,06,180,,31,05,333,,7*43
$GBGSV,2,1,08,02,04,100,38,05,19,122,41,08,13,040,37,13,20,044,42,1*74
$GBGSV,2,2,08,21,53,114,48,22,29,047,42,23,17,276,36,25,05,229,,1*77
$GNRMC,190007.00,A,4843.26067,N,00920.55406,E,0.009,,070225,,,A,V*17
$GNGGA,190007.00,4843.26067,N,00920.55406,E,1,12,0.50,248.3,M,47.6,M,,*44
$GPGSV,3,1,09,01,25,265,37,02,31,274,40,08,77,264,32,10,60,067,47,1*65
$GPGSV,3,2,09,14,07,329,,16,10,185,43,23,20,047,46,27,59,145,44,1*60
$GPGSV,3,3,09,32,23,125,49,1*56
$GLGSV,3,1,09,65,52,083,44,66,32,151,46,72,17,025,41,73,01,358,,1*70
$GLGSV,3,2,09,79,25,252,47,80,27,312,44,81,60,324,41,82,17,291,40,1*7F
$GLGSV,3,3,09,88,48,077,43,1*4A
$GAGSV,3,1,11,03,23,060,38,05,02,016,,07,00,158,,08,22,114,40,7*7D
$GAGSV,3,2,11,13,77,027,38,15,27,073,44,21,40,223,38,23,38,293,34,7*71
$GAGSV,3,3,11,26,40,268,16,27,06,180,,31,05,333,,7*46
$GBGSV,2,1,08,02,04,100,38,05,19,122,41,0813,040,37,13,20,044,42,1*74
$GBGSV,2,2,08,21,53,114,48,22,29,047,42,23,17,276,36,25,05,229,,1*77
$GNRMC,190008.00,A,4843.26066,N,00920.55406,E,0.014,,070225,,,A,V*15
$GNGGA,190008.00,4843.26066,N,00920.55406,E,1,12,0.51,248.4,M,47.6,M,,*4C
$GPGSV,3,1,09,01,25,265,38,02,31,274,40,08,77,264,33,10,60,067,47,1*6B
$GPGSV,3,2,09,14,07,329,,16,10,185,43,23,20,047,46,27,59,145,43,1*67
$GPGSV,3,3,09,32,23,125,49,1*56
$GLGSV,3,1,09,65,52,083,44,66,32151,45,72,17,025,41,73,01,358,,1*73
$GLGSV,3,2,09,79,25,252,47,80,27,312,44,81,60,324,41,82,17,291,40,1*7F
$GLGSV,3,3,09,88,48,077,43,1*4A
$GAGSV,3,1,11,03,23,060,38,05,02,016,,07,00,158,,08,22,114,41,7*7C
$GAGSV,3,2,11,13,77,027,38,15,27,073,44,21,40,223,37,23,38,293,33,7*79
$GAGSV,3,3,11,26,40,268,13,27,06,180,,31,05,333,,7*43
$GBGSV,2,1,08,02,04,100,38,05,19,122,41,08,13,040,37,13,20,044,42,1*74
$GBGSV,2,2,08,21,53,114,48,22,29,047,42,23,17,276,36,25,05,229,,1*77
$GNRMC,190009.00,A,4843.26066,N,00920.55403,E,0.060,,070225,,,A,V*12
$GNGGA,190009.00,4843.26066,N,00920.55403,E,1,12,0.49,248.4,M,47.6,M,,*41
$GPGSV,3,1,09,01,25,265,38,02,31,274,39,08,77,264,34,10,60,067,47,1*62
$GPGSV,3,2,09,14,07,329,,16,10,185,43,23,20,047,46,27,59,145,45,1*61
$GPGSV,3,3,09,32,23,125,49,1*56
$GLGSV,3,1,09,65,52,083,45,66,32,151,45,72,17,025,40,73,01,358,,1*73
$GLGSV,3,2,09,79,25,252,47,80,27,312,44,81,60,324,41,82,17,291,40,1*7F
$GLGSV,3,3,09,88,48,077,45,1*4C
$GAGSV,3,1,11,03,23,060,38,05,02,016,,07,00,158,,08,22,114,41,7*7C
$GAGSV,3,2,11,13,77,027,38,15,27,073,44,21,40,223,36,23,38,293,34,7*7F
$GAGSV,3,3,11,26,40,268,22,27,06,180,,31,05,333,,7*41
$GBGSV,2,1,08,02,04,100,38,05,19,122,41,08,13,040,36,13,20,044,42,1*75
$GBGSV,2,2,08,21,53,114,48,22,29,047,42,23,17,276,36,25,05,229,,1*77
$GNRMC,190010.00,A,4843.26066,N,00920.55400,E,0.010,,070225,,,A,V*1E
$GNGGA,190010.00,4843.26066,N,00920.55400,E,1,12,0.49,248.4,M,47.6,M,,*4A
$GPGSV,3,1,09,01,25,265,38,02,31,274,39,08,77,264,34,10,60,067,47,1*62
$GPGSV,3,2,09,14,07,329,,16,10,185,43,23,19,047,46,27,59,145,44,1*6A
$GPGSV,3,3,09,32,23,125,49,1*56
$GLGSV,3,1,09,65,52,082,45,66,32,151,43,72,16,024,41,73,01,358,,1*75
$GLGSV,3,2,09,79,25,252,46,80,27,311,44,81,60,324,41,82,18,291,40,1*72
$GLGSV,3,3,09,88,48,077,46,1*4F
$GAGSV,3,1,11,03,23,060,38,05,02,016,,07,00,158,,08,22,114,41,7*7C
$GAGSV,3,2,11,13,77,027,38,15,27,073,44,21,40223,36,23,38,293,34,7*7F
$GAGSV,3,3,11,26,40,268,19,27,06,180,,31,05,333,,7*49
$GBGSV,2,1,08,02,04,100,38,05,19,122,41,08,13,040,36,13,20,044,42,1*75
$GBGSV,2,2,08,21,53,114,48,22,29,047,4223,17,276,36,25,05,229,,1*77
$GNRMC,190011.00,A,4843.26066,N,00920.55397,E,0.009,,070225,,,A,V*1E
$GNGGA,190011.00,4843.26066,N,00920.55397,E,1,12,0.49,248.4,M,47.6,M,,*42
$GPGSV,3,1,09,01,25,265,38,02,31,274,40,08,77,264,35,10,60,067,47,1*6D
$GPGSV,3,2,09,14,07,329,,16,10,185,43,23,19,047,45,27,59,145,44,1*69
$GPGSV,3,3,09,32,23,125,49,1*56
$GLGSV,3,1,09,65,52,082,45,66,32,151,41,72,16,024,41,73,01,358,,1*77
$GLGSV,3,2,09,79,25,252,46,80,27,311,44,81,60,324,41,82,18,291,40,1*72
$GLGSV,3,3,09,88,48,077,47,1*4E
$GAGSV,3,1,11,03,23,060,38,05,02,016,,07,00,158,,08,22,114,41,7*7C
$GAGSV,3,2,11,13,77,027,37,15,27,073,44,21,40,223,36,23,38,293,34,7*70
$GAGSV,3,3,11,26,40,268,22,27,06,180,,31,05,333,,7*41
$GBGSV,2,1,08,02,04,100,38,05,19,122,41,08,13,040,37,13,20,044,42,1*74
$GBGSV,2,2,08,21,53,114,48,22,29,047,42,23,17,276,36,25,05,229,,1*77
$GNRMC,190012.00,A,4843.26065,N,00920.55394,E,0.007,,070225,,,A,V*13
$GNGGA,190012.00,4843.26065,N,00920.55394,E,1,12,0.49,248.5,M,47.6,M,,*40
$GPGSV,3,1,09,01,25,265,38,02,31,274,39,08,77,264,35,10,60,067,47,1*63
$GPGSV,3,2,09,14,07,329,,16,10,185,43,23,19,047,45,27,59,145,44,1*69
$GPGSV,3,3,09,32,23,125,49,1*56
$GLGSV,3,1,09,65,52,082,46,66,32,151,41,72,16,024,41,73,01,358,,1*74
$GLGSV,3,2,09,79,25,252,46,80,27,311,44,81,60,324,40,82,18,291,40,1*73
$GLGSV,3,3,09,88,48,077,48,1*41
$GAGSV,3,1,11,03,23,060,38,05,02,016,,07,00,158,,08,22,114,42,7*7F
$GAGSV,3,2,11,13,77,027,37,15,27,073,44,21,40,223,35,23,38,293,34,7*73
$GAGSV,3,3,11,26,40,268,24,27,06,180,,31,05,333,,7*47
$GBGSV,2,1,08,02,04,100,38,05,19,122,41,08,13,040,36,13,20,044,42,1*75
$GBGSV,2,2,08,21,53,114,48,22,29,047,42,23,17,276,36,25,05,229,,1*77
$GNRMC,190013.00,A,4843.26065,N,00920.55391,E,0.007,,070225,,,A,V*17
$GNGGA,190013.00,4843.26065,N,00920.55391,E,1,12,0.49,248.5,M,47.6,M,,*44
$GPGSV,3,1,09,01,25,265,38,02,31,274,40,08,77,264,36,10,60,067,47,1*6E
$GPGSV,3,2,09,14,07,329,,16,10,185,43,23,19,047,45,27,59,145,44,1*69
$GPGSV,3,3,09,32,23,125,49,1*56
$GLGSV,3,1,09,65,52,082,46,66,32,151,40,72,16,024,41,73,01,358,,1*75
$GLGSV,3,2,09,79,25,252,46,80,27,311,44,81,60,324,40,82,18,291,40,1*73
$GLGSV,3,3,09,88,48,077,48,1*41
$GAGSV,3,1,11,03,23,060,38,05,02,016,,07,00,158,,08,22,114,42,7*7F
$GAGSV,3,2,11,13,77,027,37,15,27,073,44,21,40,223,35,23,38,293,34,7*73
$GAGSV,3,3,11,26,40,268,24,27,06,180,,31,05,333,,7*47
$GBGSV,2,1,08,02,04,100,38,05,19,122,41,08,13,040,36,13,20,044,42,1*75
$GBGSV,2,2,08,21,53,114,48,22,29,047,42,23,17,276,36,25,05,229,,1*77
$GNRMC,190014.00,A,4843.26065,N,00920.55388,E,0.008,,070225,,,A,V*17
$GNGGA,190014.00,4843.26065,N,00920.55388,E,1,12,0.49,248.5,M,47.6,M,,*4B
$GPGSV,3,1,09,01,25,265,38,02,31,274,40,08,77,264,36,10,60,067,47,1*6E
$GPGSV,3,2,09,14,07,329,,16,10,185,43,23,19,047,45,27,58,145,44,1*68
$GPGSV,3,3,09,32,23,125,49,1*56
$GLGSV,3,1,09,65,52,082,46,66,32,151,4072,16,024,40,73,01,358,,1*74
$GLGSV,3,2,09,79,25,252,46,80,27,311,44,81,60,324,40,82,18,291,40,1*73
$GLGSV,3,3,09,88,48,077,47,1*4E
$GAGSV,3,1,11,03,23,060,38,05,02,016,,07,00,158,,08,22,114,42,7*7F
$GAGSV,3,2,11,13,77,027,37,15,27,073,44,21,40,223,35,23,38,293,34,7*73
$GAGSV,3,3,11,26,40,268,23,27,06,180,,31,05,333,,7*40
$GBGSV,2,1,08,02,04,100,38,05,19,122,41,08,13,040,36,13,20,044,42,1*75
$GBGSV,2,2,08,21,53,114,48,22,29,047,42,23,17,276,36,25,05,229,,1*77
$GNRMC,190015.00,A,4843.26065,N,00920.55384,E,0.018,,070225,,,A,V*1B
$GNGGA,190015.00,4843.26065,N,00920.55384,E,1,12,0.49,248.5,M,47.6,M,,*46
$GPGSV,3,1,09,01,25,265,39,02,31,274,40,08,77,264,37,10,60,067,47,1*6E
$GPGSV,3,2,09,14,07,329,,16,10,185,43,23,19,047,45,27,58,145,44,1*68
$GPGSV,3,3,09,32,23,125,49,1*56
$GLGSV,3,1,09,65,52,082,46,66,32,151,38,72,16,024,40,73,01,358,,1*7B
$GLGSV,3,2,09,79,25,252,46,80,27,311,44,81,60,324,40,82,18,291,40,1*73
$GLGSV,3,3,09,88,48,077,47,1*4E
$GAGSV,3,1,11,03,23,060,38,05,02,016,,07,00,158,,08,22,114,43,7*7E
$GAGSV,3,2,11,13,77,027,36,15,27,073,44,21,40,223,36,23,38,293,34,7*71
$GAGSV,3,3,11,26,40,268,22,27,06,180,,31,05,333,,7*41
$GBGSV,2,1,08,02,04,100,38,05,19,122,41,08,13,040,36,13,20,044,42,1*75
$GBGSV,2,2,08,21,53,114,48,22,29,047,42,23,17,276,36,25,05,229,,1*77
$GNRMC,190016.00,A,4843.26065,N,00920.55381,E,0.003,,070225,,,A,V*17
$GNGGA,190016.00,4843.26065,N,00920.55381,E,1,12,0.49,248.5,M,47.6,M,,*40
$GPGSV,3,1,09,01,25,265,39,02,31,274,40,08,77,264,37,10,60,067,48,1*61
$GPGSV,3,2,09,14,07,329,,16,10,185,43,23,19,047,45,27,58,145,44,1*68
$GPGSV,3,3,09,32,23,125,49,1*56
$GLGSV,3,1,09,65,52,082,46,66,32,151,39,72,16,024,40,73,01,358,,1*7A
$GLGSV,3,2,09,79,25,252,46,80,27,311,45,81,60,324,39,82,18,291,40,1*7C
$GLGSV,3,3,09,88,48,077,47,1*4E
$GAGSV,3,1,11,03,23,060,38,05,02,016,,07,00,158,,08,22,114,43,7*7E
$GAGSV,3,2,11,13,77,027,37,15,27,073,45,21,40,223,36,23,38,293,34,7*71
$GAGSV,3,3,11,26,40,268,20,27,06,180,,31,05,333,,7*43
$GBGSV,2,1,08,02,04,100,38,05,19,122,41,08,12,040,36,13,20,044,42,1*74
$GBGSV,2,2,08,21,53,113,48,22,28,047,42,23,17,276,36,25,05,229,,1*71
$GNRMC,190017.00,A,4843.26065,N,00920.55377,E,0.012,,070225,,,A,V*1F
$GNGGA,190017.00,4843.26065,N,00920.55377,E,1,12,0.49,248.5,M,47.6,M,,*48
$GPGSV,3,1,09,01,25,265,39,02,31,274,40,08,77,264,37,10,60,067,46,1*6F
$GPGSV,3,2,09,14,07,329,,16,10,185,42,23,19,047,45,27,58,145,44,1*69
$GPGSV,3,3,09,32,23,125,49,1*56
$GLGSV,3,1,09,65,52,082,46,66,32,151,35,72,16,024,40,73,01,358,,1*76
$GLGSV,3,2,09,79,25,252,46,80,27,311,45,81,60,324,40,82,18,291,40,1*72
$GLGSV,3,3,09,88,48,077,48,1*41
$GAGSV,3,1,11,03,23,060,38,05,02,016,,07,00,158,,08,22,114,43,7*7E
$GAGSV,3,2,11,13,77,027,37,15,27,073,45,21,40,223,35,23,38,293,34,7*72
$GAGSV,3,3,11,26,40,268,20,27,06,180,,31,05,333,,7*43
$GBGSV,2,1,08,02,04,100,38,05,19,122,41,08,12,040,36,13,20,044,42,1*74
$GBGSV,2,2,08,21,53,113,48,22,28,047,42,23,17,276,36,25,05,229,,1*71
$GNRMC,190018.00,A,4843.26064,N,00920.55373,E,0.010,,070225,,,A,V*17
$GNGGA,190018.00,4843.26064,N,00920.55373,E,1,12,0.49,248.5,M,47.6,M,,*42
$GPGSV,3,1,09,01,25,265,39,02,31,274,40,08,77,264,37,10,60,067,47,1*6E
$GPGSV,3,2,09,14,07,329,,16,10,185,42,23,19,047,45,27,58,145,45,1*68
$GPGSV,3,3,09,32,23,125,49,1*56
$GLGSV,3,1,09,65,52,082,46,66,32,151,35,72,16,024,40,73,01,358,,1*76
$GLGSV,3,2,09,79,25,252,46,80,27,311,45,81,60,324,40,82,18,291,40,1*72
$GLGSV,3,3,09,88,48,077,49,1*40
$GAGSV,3,1,11,03,23,060,38,05,02,016,,07,00,158,,08,22,114,44,7*79
$GAGSV,3,2,11,13,77,027,37,15,27,073,45,21,40,223,35,23,38,293,34,7*72
$GAGSV,3,3,11,26,40,268,21,27,06,180,,31,05,333,,7*42
$GBGSV,2,1,08,02,04,100,38,05,19,122,41,08,12,040,36,13,20,044,41,1*77
$GBGSV,2,2,08,21,53,113,48,22,28,047,42,23,17,276,35,25,05,229,,1*72
$GNRMC,190019.00,A,4843.26064,N,00920.55369,E,0.006,,070225,,,A,V*1A
$GNGGA,190019.00,4843.26064,N,00920.55369,E,1,12,0.49,248.6,M,47.6,M,,*4B
$GPGSV,3,1,09,01,25,265,39,02,31,274,40,08,77,264,37,10,60,067,46,1*6F
$GPGSV,3,2,09,14,07,329,,16,10,185,43,23,19,047,45,27,58,145,46,1*6A
$GPGSV,3,3,09,32,24,124,49,1*50
$GLGSV,3,1,09,65,52,082,46,66,32,151,35,72,16,024,40,73,01,358,,1*76
$GLGSV,3,2,09,79,25,252,46,80,27,311,45,81,60,324,41,82,18,291,40,1*73
$GLGSV,3,3,09,88,48,077,49,1*40
$GAGSV,3,1,11,03,23,060,38,05,02,016,,07,00,158,,08,22,114,43,7*7E
$GAGSV,3,2,11,13,77,027,37,15,27,073,45,21,40,223,34,23,38,293,34,7*73
$GAGSV,3,3,11,26,40,268,22,27,06,180,,31,05,333,,7*41
$GBGSV,2,1,08,02,04,100,38,05,19,122,41,08,12,040,36,13,20,044,42,1*74
$GBGSV,2,2,08,21,53,113,48,22,28,047,41,23,17,276,35,25,05,229,,1*71
$GNRMC,190020.00,A,4843.26064,N,00920.55365,E,0.012,,070225,,,A,V*19
$GNGGA,190020.00,4843.26064,N,00920.55365,E,1,12,0.49,248.6,M,47.6,M,,*4D
$GPGSV,3,1,09,01,25,265,39,02,31,274,40,08,77,264,36,10,60,067,46,1*6E
$GPGSV,3,2,09,14,07,329,,16,10,185,42,23,19,047,45,27,58,145,46,1*6B
$GPGSV,3,3,09,32,24,124,49,1*50
$GLGSV,3,1,09,65,52,082,46,66,32,151,39,72,16,024,40,73,01,358,,1*7A
$GLGSV,3,2,09,79,25,252,46,80,27,311,45,81,60,324,41,82,18,291,39,1*7D
$GLGSV,3,3,09,88,48,077,49,1*40
$GAGSV,3,1,11,03,23,060,38,05,02,016,,07,00,158,,08,22,114,44,7*79
$GAGSV,3,2,11,13,77,027,37,15,27,073,45,21,40,223,34,23,38,293,34,7*73
$GAGSV,3,3,11,26,40,268,23,27,06,180,,31,05,333,,7*40
$GBGSV,2,1,08,02,04,100,38,05,19,122,41,08,12,040,36,13,20,044,42,1*74
$GBGSV,2,2,08,21,53,113,48,22,28,047,41,23,17,276,35,25,05,229,,1*71
$GNRMC,190021.00,A,4843.26064,N,00920.55361,E,0.006,,070225,,,A,V*19
$GNGGA,190021.00,4843.26064,N,00920.55361,E,1,12,0.49,248.6,M,47.6,M,,*48
$GPGSV,3,1,09,01,25,265,39,02,31,274,40,08,77,264,36,10,60,067,47,1*6F
$GPGSV,3,2,09,14,07,329,,16,10,185,42,23,19,047,45,27,58,145,46,1*6B
$GPGSV,3,3,09,32,24,124,49,1*50
$GLGSV,3,1,09,65,52,082,46,66,32,151,38,72,16,024,39,73,01,358,,1*75
$GLGSV,3,2,09,79,25,252,46,80,27,311,45,81,60,324,41,82,18,291,40,1*73
$GLGSV,3,3,09,88,48,077,50,1*48
$GAGSV,3,1,11,03,23,060,38,05,02,016,,07,00,158,,08,22,114,43,7*7E
$GAGSV,3,2,11,13,77,027,36,15,27,073,44,21,40,223,33,23,38,293,33,7*73
$GAGSV,3,3,11,26,40,268,25,27,06,180,,31,05,333,,7*46
$GBGSV,2,1,08,02,04,100,38,05,19,122,40,08,12,040,36,13,20,044,42,1*75
$GBGSV,2,2,08,21,53,113,48,22,28,047,41,23,17,276,35,25,05,229,,1*71
$GNRMC,190022.00,A,4843.26063,N,00920.55357,E,0.009,,070225,,,A,V*17
$GNGGA,190022.00,4843.26063,N,00920.55357,E,1,12,0.49,248.6,M,47.6,M,,*49
$GPGSV,3,1,09,01,25,265,39,02,31,274,40,08,77,264,35,10,60,067,46,1*6D
$GPGSV,3,2,09,14,07,329,,16,10,185,42,23,19,047,45,27,58,145,47,1*6A
$GPGSV,3,3,09,32,24,124,49,1*50
$GLGSV,3,1,09,65,52,082,47,66,32,151,39,72,16,024,40,73,01,358,,1*7B
$GLGSV,3,2,09,79,25,252,46,80,27,311,45,81,60,324,42,82,18,291,39,1*7E
$GLGSV,3,3,09,88,48,077,51,1*49
$GAGSV,3,1,11,03,23,060,38,05,02,016,,07,00,158,,08,22,114,43,7*7E
$GAGSV,3,2,11,13,77,027,36,15,27,073,44,21,40,223,33,23,38,293,33,7*73
$GAGSV,3,3,11,26,40,268,27,27,06,180,,31,05,333,,7*44
$GBGSV,2,1,08,02,04,100,38,05,19,122,40,08,12,040,35,13,20,044,42,1*76
$GBGSV,2,2,08,21,53,113,48,22,28,047,41,23,17,276,35,25,05,229,,1*71
$GNRMC,190023.00,A,4843.26063,N,00920.55355,E,0.003,,070225,,,A,V*1E
$GNGGA,190023.00,4843.26063,N,00920.55355,E,1,12,0.49,248.5,M,47.6,M,,*49
$GPGSV,3,1,09,01,25,265,39,02,31,274,39,08,77,264,34,10,60,067,46,1*62
$GPGSV,3,2,09,14,07,329,,16,10,185,42,23,19,047,45,27,58,145,48,1*65
$GPGSV,3,3,09,32,24,124,49,1*50
$GLGSV,3,1,09,65,52,082,47,66,32,151,38,72,16,024,39,73,01,358,,1*74
$GLGSV,3,2,09,79,25,252,46,80,27,311,45,81,60,324,42,82,18,291,39,1*7E
$GLGSV,3,3,09,8,48,077,51,1*49
$GAGSV,3,1,11,03,23,059,38,05,02,016,,07,00,158,,08,22,114,42,7*75
$GAGSV,3,2,11,13,77,027,36,15,27,073,44,2140,223,32,23,38,293,33,7*72
$GAGSV,3,3,11,26,40,268,29,27,06,180,,31,05,333,,7*4A
$GBGSV,2,1,08,02,04,100,38,05,19,122,39,08,12,040,36,13,20,044,42,1*7B
$GBGSV,2,2,08,21,53,113,48,22,28,047,41,23,17,276,35,25,05,229,,1*71
$GNRMC,190024.00,A,4843.26062,N,00920.55352,E,0.012,,070225,,,A,V*1F
$GNGGA,190024.00,4843.26062,N,00920.55352,E,1,12,0.49,248.5,M,47.6,M,,*48
$GPGSV,3,1,09,01,25,265,36,02,31,274,39,08,77,264,33,10,60,067,46,1*6A
$GPGSV,3,2,09,14,07,329,,16,10,185,42,23,19,047,45,27,58,145,48,1*65
$GPGSV,3,3,09,32,24,124,48,1*51
$GLGSV,3,1,09,65,52,082,45,66,32,151,42,72,16,024,40,73,01,358,,1*75
$GLGSV,3,2,09,79,25,252,46,80,27,311,45,81,60,324,43,82,18,291,40,1*71
$GLGSV,3,3,09,88,48,077,50,1*48
$GAGSV,3,1,11,03,23,059,39,05,02,016,,07,00,158,,08,22,114,42,7*74
$GAGSV,3,2,11,13,77,027,36,15,27,073,44,21,40,223,32,23,38,293,34,7*75
$GAGSV,3,3,11,26,40,268,30,27,06,180,,31,05,333,,7*42
$GBGSV,2,1,08,02,04,100,38,05,19,122,39,08,12,040,35,13,20,044,42,1*78
$GBGSV,2,2,08,21,53,113,48,22,28,47,41,23,17,276,34,25,05,229,,1*70
$GNRMC,190025.00,A,4843.26061,N,00920.55351,E,0.006,,070225,,,A,V*1B
$GNGGA,190025.00,4843.26061,N,00920.55351,E,1,12,0.49,248.4,M,47.6,M,,*48
$GPGSV,3,1,09,01,25,265,38,02,31,274,39,08,77,264,32,10,60,067,46,1*65
$GPGSV,3,2,09,14,07,329,,16,10,185,42,23,19,047,45,27,58,145,48,1*65
$GPGSV,3,3,09,32,24,124,48,1*51
$GLGSV,3,1,09,65,52,082,47,66,32,151,41,72,16,024,40,73,01,358,,1*74
$GLGSV,3,2,09,79,25,252,45,80,27,311,45,81,60,324,43,82,18,291,39,1*7C
$GLGSV,3,3,09,88,48,077,50,1*48
$GAGSV,3,1,11,03,23,059,39,05,01,015,,07,00,158,,08,22,114,42,7*74
$GAGSV,3,2,11,13,77,027,36,15,27,073,44,21,39,223,31,23,38,293,34,7*78
$GAGSV,3,3,11,26,40,268,31,27,06,180,,31,05,333,,7*43
$GBGSV,2,1,08,02,04,100,38,05,19,122,39,08,12,040,35,13,20,044,42,1*78
$GBGSV,2,2,08,21,53,113,48,22,28,047,41,23,17,276,35,25,05,229,,1*71
$GNRMC,190026.00,A,4843.26060,N,00920.55349,E,0.007,,070225,,,A,V*11
$GNGGA,190026.00,4843.2606,N,00920.55349,E,1,12,0.49,248.3,M,47.6,M,,*44
$GPGSV,3,1,09,01,25,265,39,02,31,274,39,08,77,264,31,10,60,067,46,1*67
$GPGSV,3,2,09,14,07,329,,16,10,185,42,23,19,047,45,27,58,145,48,1*65
$GPGSV,3,3,09,32,24,124,48,1*51
$GLGSV,3,1,09,65,52,082,46,66,32,151,42,72,16,024,39,73,01,358,,1*78
$GLGSV,3,2,09,79,25,252,45,80,27,311,46,81,60,324,43,82,18,291,39,1*7F
$GLGSV,3,3,09,88,48,077,49,1*40
$GAGSV,3,1,11,03,23,059,38,05,01,015,,07,00,158,,08,22,114,42,7*75
$GAGSV,3,2,11,13,77,027,36,15,27,073,44,21,39,223,31,23,38,293,34,7*78
$GAGSV,3,3,11,26,40,268,31,27,06,180,,31,05,333,,7*43
$GBGSV,2,1,08,02,04,100,38,05,19,122,39,08,12,040,35,13,20,044,42,1*78
$GBGSV,2,2,08,21,53,113,48,22,28,047,40,23,17,276,35,25,05,229,,1*70
$GNRMC,190027.00,A,4843.26060,N,00920.55347,E,0.001,,070225,,,A,V*18
$GNGGA,190027.00,4843.26060,N,00920.55347,E,1,12,0.49,248.2,M,47.6,M,,*4A
$GPGSV,3,1,09,01,25,265,39,02,31,274,38,08,77,264,31,10,60,067,46,1*66
$GPGSV,3,2,09,14,07,329,,16,10,185,43,23,19,047,45,27,58,145,49,1*65
$GPGSV,3,3,09,32,24,124,48,1*51
$GLGSV,3,1,09,65,52,082,45,66,32,151,41,72,16,024,39,73,01,358,,1*78
$GLGSV,3,2,09,79,25,252,45,80,27,311,45,81,60,324,42,82,18,291,40,1*73
$GLGSV,3,3,09,88,48,077,49,1*40
$GAGSV,3,1,11,03,23,059,38,05,01,015,,07,01,158,,08,22,114,42,7*74
$GAGSV,3,2,11,13,77,027,36,15,27,073,44,21,39,223,30,23,38,293,34,7*79
$GAGSV,3,3,11,26,40,268,31,27,06,180,,31,05,333,,7*43
$GBGSV,2,1,08,02,04,100,38,05,19,122,39,08,12,040,35,13,20,044,42,1*78
$GBGSV,2,2,08,21,53,113,48,22,28,047,40,23,17,276,35,25,05,229,,1*70
$GNRMC,190028.00,A,4843.26059,N,00920.55345,E,0.004,,070225,,,A,V*1A
$GNGGA,190028.00,4843.26059,N,00920.55345,E,1,12,0.49,248.1,M,47.6,M,,*4E
$GPGSV,3,1,09,01,25,265,39,02,31,274,39,08,77,264,30,10,60,067,46,1*66
$GPGSV,3,2,09,14,07,329,,16,10,185,43,23,19,047,45,27,58,145,49,1*65
$GPGSV,3,3,09,32,24,124,48,1*51
$GLGSV,3,1,09,65,52,082,47,66,32,151,43,72,16,024,39,73,01,358,,1*78
$GLGSV,3,2,09,79,25,252,45,80,27,311,46,81,60,324,42,82,18,291,40,1*70
$GLGSV,3,3,09,88,48,077,48,1*41
$GAGSV,3,1,11,03,23,059,38,05,01,015,,07,01,158,,8,23,114,42,7*75
$GAGSV,3,2,11,13,77,027,35,15,27,073,44,21,39,223,30,23,38,293,34,7*7A
$GAGSV,3,3,11,26,40,268,31,27,06,180,,31,05,333,,7*43
$GBGSV,2,1,08,02,04,100,38,05,19,122,39,08,12,040,35,13,20,044,42,1*78
$GBGSV,2,2,08,21,53,113,48,22,28,047,40,23,17,276,35,25,05,229,,1*70
$GNRMC,190029.00,A,4843.26059,N,00920.55344,E,0.005,,070225,,,A,V*1B
$GNGGA,190029.00,4843.26059,N,00920.55344,E,1,12,0.51,248.0,M,47.6,M,,*46
$GPGSV,3,1,09,01,25,265,32,02,31,274,38,08,77,264,30,10,60,067,46,1*6C
$GPGSV,3,2,09,14,07,329,,16,10,185,43,23,19,047,45,27,58,145,49,1*65
$GPGSV,3,3,09,32,24,124,48,1*51
$GLGSV,3,1,09,65,52,082,46,66,32,151,45,72,16,024,40,73,01,358,,1*71
$GLGSV,3,2,09,79,25,252,43,80,27,311,46,81,60,324,41,82,18,291,38,1*7A
$GLGSV,3,3,09,88,48,077,46,1*4F
$GAGSV,3,1,11,03,23,059,38,05,01,015,,07,01,158,,08,23,114,40,7*77
$GAGSV,3,2,11,13,77,027,35,15,27,073,44,21,39,223,,23,38,293,37,7*7A
$GAGSV,3,3,11,26,40,268,32,27,06,180,,31,05,333,,7*40
$GBGSV,2,1,08,02,04,100,38,05,19,122,39,08,12,040,35,13,20,044,42,1*78
$GBGSV,2,2,08,21,53,113,48,22,28,047,40,23,17,276,34,25,05,229,,1*71
$GNRMC,190030.00,A,4843.26059,N,00920.55343,E,0.019,,070225,,,A,V*19
$GNGGA,190030.00,4843.26059,N,00920.55343,E,1,12,0.50,247.9,M,47.6,M,,*4E
$GPGSV,3,1,09,01,25,265,39,02,31,274,38,08,77,264,29,10,60,067,46,1*6F
$GPGSV,3,2,09,14,07,329,,16,10,185,43,23,19,047,45,27,58,145,49,1*65
$GPGSV,3,3,09,32,24,124,48,1*51
$GLGSV,3,1,09,65,52,082,47,66,32,151,44,72,16,024,40,73,01,358,,1*71
$GLGSV,3,2,09,79,25,252,4580,27,311,46,8160,324,40,82,18,291,40,1*72
$GLGSV,3,3,09,88,48,077,48,1*41
$GAGSV,3,1,11,03,23,059,38,05,01,015,,07,01,158,,08,23,114,42,7*75
$GAGSV,3,2,11,13,77,027,35,15,27,073,44,21,39,223,,23,38,293,34,7*79
$GAGSV,3,3,11,26,40,268,32,27,06,180,,31,05,333,,7*40
$GBGSV,2,1,08,02,04,100,38,05,19,122,39,08,12,040,35,13,20,044,42,1*78
$GBGSV,2,2,08,21,53,113,48,22,28,047,40,23,17,276,35,25,05,229,,1*70
$GNRMC,190031.00,A,4843.26060,N,00920.55341,E,0.008,,070225,,,A,V*10
$GNGGA,190031.00,4843.26060,N,00920.55341,E,1,12,0.50,247.8,M,47.6,M,,*46
$GPGSV,3,1,09,01,25,265,39,02,31,274,38,08,77,264,29,10,60,067,46,1*6F
$GPGSV,3,2,09,14,07,329,,16,10,185,43,23,19,047,45,27,58,145,50,1*6D
$GPGSV,3,3,09,32,24,124,48,1*51
$GLGSV,3,1,09,65,52,082,46,66,32,151,44,72,16,024,40,73,01,358,,1*70
$GLGSV,3,2,09,79,25,252,45,80,27,311,46,81,60,324,40,82,18,291,41,1*73
$GLGSV,3,3,09,88,48,077,47,1*4E
$GAGSV,3,1,11,03,23,059,38,05,01,015,,07,01,158,,08,23,114,41,7*76
$GAGSV,3,2,11,13,77,027,35,15,27,073,44,21,39,223,,23,38,293,34,7*79
$GAGSV,3,3,11,26,40,268,32,27,06,180,,31,05,333,,7*40
$GBGSV,2,1,08,02,04,100,38,05,19,122,38,08,12,040,35,13,20,044,41,1*7A
$GBGSV,2,2,08,21,53,113,48,22,28,047,40,23,17,276,35,25,05,229,,1*70
$GNRMC,190032.00,A,4843.26060,N,00920.55340,E,0.011,,070225,,,A,V*1A
$GNGGA,190032.00,4843.26060,N,00920.55340,E,1,12,0.50,247.7,M,47.6,M,,*4B
$GPGSV,3,1,09,01,25,265,39,02,31,274,38,08,77,264,29,10,60,067,46,1*6F
$GPGSV,3,2,09,14,07,329,,16,10,185,43,23,19,047,45,27,58,145,49,1*65
$GPGSV,3,3,09,32,24,124,48,1*51
$GLGSV,3,1,09,65,52,082,46,66,32,151,45,72,16,024,40,73,01,358,,1*71
$GLGSV,3,2,09,79,25,252,45,80,27,311,46,81,60,324,40,82,18,291,40,1*72
$GLGSV,3,3,09,88,48,077,47,1*4E
$GAGSV,3,1,11,03,23,059,38,05,01,015,,07,01,158,,08,23,114,41,7*76
$GAGSV,3,2,11,13,77,027,34,15,27,073,44,21,39,223,,23,38,293,34,7*78
$GAGSV,3,3,11,26,40,268,32,27,06,180,,31,05,333,,7*40
$GBGSV,2,1,08,02,04,100,38,05,19,122,39,08,12,040,34,13,20,044,42,1*79
$GBGSV,2,2,08,21,53,113,48,22,28,047,40,23,17,276,35,25,05,229,,1*70
$GNRMC,190033.00,A,4843.26061,N,00920.55339,E,0.003,,070225,,,A,V*17
$GNGGA,190033.00,4843.26061,N,00920.55339,E,1,12,0.50,247.6,M,47.6,M,,*44
$GPGSV,3,1,09,01,25,265,39,02,31,274,38,08,77,264,29,10,60,067,46,1*6F
$GPGSV,3,2,09,14,07,329,,16,10,185,43,23,19,047,45,27,58,145,49,1*65
$GPGSV,3,3,09,32,24,124,48,1*51
$GLGSV,3,1,09,65,52,082,46,66,32,151,45,72,16,024,39,73,01,358,,1*7F
$GLGSV,3,2,09,79,25,252,45,80,27,311,46,81,60,324,40,82,18,291,41,1*73
$GLGSV,3,3,09,88,48,077,48,1*41
$GAGSV,3,1,11,03,23,059,38,05,01,015,,07,01,158,,08,23,114,41,7*76
$GAGSV,3,2,11,13,77,029,34,15,27,073,44,21,39,223,,23,38,293,34,7*76
$GAGSV,3,3,11,26,40,268,33,27,06,180,,31,05,333,,7*41
$GBGSV,2,1,08,02,04,100,38,05,19,122,39,08,12,040,34,13,20,044,41,1*7A
$GBGSV,2,2,08,21,53,113,48,22,28,047,40,23,17,276,35,25,05,229,,1*70
$GNRMC,190034.00,A,4843.26062,N,00920.55338,E,0.005,,070225,,,A,V*14
$GNGGA,190034.00,4843.26062,N,00920.55338,E,1,12,0.50,247.5,M,47.6,M,,*42
$GPGSV,3,1,09,01,25,265,39,02,31,274,38,08,77,264,29,10,60,067,46,1*6F
$GPGSV,3,2,09,14,07,329,,16,10,185,43,23,19,047,45,27,58,145,49,1*65
$GPGSV,3,3,09,32,24,124,48,1*51
$GLGSV,3,1,09,65,52,082,46,66,32,151,46,72,16,024,39,73,01,358,,1*7C
$GLGSV,3,2,09,79,25,252,45,80,27,311,46,81,60,324,40,82,18,291,40,1*72
$GLGSV,3,3,09,88,48,077,47,1*4E
$GAGSV,3,1,11,03,23,059,38,05,01,015,,07,01,158,,08,23,114,40,7*77
$GAGSV,3,2,11,13,77,029,34,15,26,073,44,21,39,223,,23,38,293,34,7*77
$GAGSV,3,3,11,26,40,268,33,27,06,180,,31,05,333,,7*41
$GBGSV,2,1,08,02,04,100,38,05,19,122,39,08,12,040,34,13,20,044,41,1*7A
$GBGSV,2,2,08,21,53,113,48,22,28,047,40,23,17,276,35,25,05,229,,1*70
$GNRMC,190035.00,A,4843.26063,N,00920.55337,E,0.002,,070225,,,A,V*1C
$GNGGA,190035.00,4843.26063,N,00920.55337,E,1,12,0.50,247.4,M,47.6,M,,*4C
$GPGSV,3,1,09,01,25,265,39,02,31,274,38,08,77,264,29,10,60,067,46,1*6F
$GPGSV,3,2,09,14,07,329,,16,10,185,43,23,19,047,44,27,58,145,49,1*64
$GPGSV,3,3,09,32,24,124,48,1*51
$GLGSV,3,1,09,65,52,082,44,66,32,151,45,72,16,024,40,73,01,358,,1*73
$GLGSV,3,2,09,79,25,252,45,80,27,311,46,81,60,324,41,82,18,291,40,1*73
$GLGSV,3,3,09,88,48,077,45,1*4C
$GAGSV,3,1,11,03,23,059,38,05,01,015,,07,01,158,,08,23,114,41,7*76
$GAGSV,3,2,11,13,77,029,35,15,26,073,44,21,39,223,,23,38,293,35,7*77
$GAGSV,3,3,11,26,40,268,32,27,06,180,,31,05,333,,7*40
$GBGSV,2,1,08,02,04,100,38,05,19,122,39,08,12,040,34,13,20,044,42,1*79
$GBGSV,2,2,08,21,53,113,47,22,28,047,40,23,17,276,35,25,05,229,,1*7F
$GNRMC,190036.00,A,4843.26063,N,00920.55336,E,0.009,,070225,,,A,V*15
$GNGGA,190036.00,4843.26063,N,00920.55336,E,1,12,0.50,247.4,M,47.6,M,,*4E
$GPGSV,3,1,09,01,25,265,40,02,31,274,39,08,77,264,29,10,60,067,46,1*60
$GPGSV,3,2,09,14,07,329,,16,10,185,43,23,19,047,44,27,58,145,48,1*65
$GPGSV,3,3,09,32,24,124,48,1*51
$GLGSV,3,1,09,65,52,082,44,66,32,151,45,72,16,024,40,73,01,358,,1*73
$GLGSV,3,2,09,79,25,252,44,80,27,311,46,81,60,324,41,82,18,291,40,1*72
$GLGSV,3,3,09,88,48,077,46,1*4F
$GAGSV,3,1,11,03,23,059,38,05,01,015,,07,01,158,,08,23,114,40,7*77
$GAGSV,3,2,11,13,77,029,35,15,26,073,44,21,39,223,,23,38,293,35,7*77
$GAGSV,3,3,11,26,40,268,32,27,06,180,,31,05,333,,7*40
$GBGSV,2,1,08,02,04,100,38,05,19,122,39,08,12,040,34,13,20,044,42,1*79
$GBGSV,2,2,08,21,53,113,47,22,28,047,39,23,17,276,35,25,05,229,,1*71
$GNRMC,190037.00,A,4843.26063,N,00920.55335,E,0.005,,070225,,,A,V*1B
$GNGGA,190037.00,4843.26063,N,00920.55335,E,1,12,0.50,247.3,M,47.6,M,,*4B
$GPGSV,3,1,09,01,25,265,39,02,31,274,39,08,77,264,29,10,60,067,46,1*6E
$GPGSV,3,2,09,14,07,329,,16,10,185,43,23,19,047,44,27,58,145,48,1*65
$GPGSV,3,3,09,32,24,124,48,1*51
$GLGSV,3,1,09,65,52,082,43,66,32,151,45,72,16,024,40,73,01,358,,1*74
$GLGSV,3,2,09,79,25,252,44,80,27,311,47,81,60,324,42,82,18,291,40,1*70
$GLGSV,3,3,09,88,48,077,44,1*4D
$GAGSV,3,1,11,03,23,059,39,05,01,015,,07,01,158,,08,23,114,40,7*76
$GAGSV,3,2,11,13,77,029,35,15,26,073,45,21,39,223,,23,38,293,35,7*76
$GAGSV,3,3,11,26,40,268,31,27,06,180,,31,05,333,,7*43
$GBGSV,2,1,08,02,04,100,38,05,19,122,39,08,12,040,34,13,20,044,42,1*79
$GBGSV,2,2,08,21,53,113,47,22,28,047,39,23,17,276,35,25,05,229,,1*71
$GNRMC,190038.00,A,4843.26063,N,00920.55336,E,0.011,,070225,,,A,V*12
$GNGGA,190038.00,4843.26063,N,00920.55336,E,1,12,0.50,247.2,M,47.6,M,,*46
$GPGSV,3,1,09,01,25,265,39,02,31,274,39,08,77,264,30,10,60,067,47,1*67
$GPGSV,3,2,09,14,07,329,,16,10,185,43,23,19,047,44,27,58,145,47,1*6A
$GPGSV,3,3,09,32,24,124,48,1*51
$GLGSV,3,1,09,65,52,082,41,66,32,151,44,72,16,024,40,73,01,358,,1*77
$GLGSV,3,2,09,79,25,252,44,80,27,311,47,81,60,324,41,82,18,291,40,1*73
$GLGSV,3,3,09,88,48,077,44,1*4D
$GAGSV,3,1,11,03,23,059,39,05,01,015,,07,01,158,,08,23,114,40,7*76
$GAGSV,3,2,11,13,77,029,36,15,26,073,45,21,39,223,,23,38,292,36,7*77
$GAGSV,3,3,11,26,40,268,31,27,06,180,,31,05,333,,7*43
$GBGSV,2,1,08,02,04,100,37,05,19,122,40,08,12,040,34,13,20,044,42,1*78
$GBGSV,2,2,08,21,53,113,46,22,28,047,39,23,17,276,35,25,05,229,,1*70
$GNRMC,190039.00,A,4843.26062,N,00920.55336,E,0.009,,070225,,,A,V*1B
$GNGGA,190039.00,4843.26062,N,00920.55336,E,1,12,0.50,247.2,M,47.6,M,,*46
$GPGSV,3,1,09,01,25,265,39,02,31,274,39,08,77,264,30,10,60,067,47,1*67
$GPGSV,3,2,09,14,07,329,,16,10,185,43,23,19,047,44,27,58,145,46,1*6B
$GPGSV,3,3,09,32,24,124,49,1*50
$GLGSV,3,1,09,65,52,082,40,66,32,151,44,72,16,024,40,73,01,358,,1*76
$GLGSV,3,2,09,79,25,252,44,80,27,311,47,81,60,324,41,82,18,291,41,1*72
$GLGSV,3,3,09,88,48,077,42,1*4B
$GAGSV,3,1,11,03,23,059,39,05,01,015,,07,01,158,,08,23,114,41,7*77
$GAGSV,3,2,11,13,77,029,36,15,26,073,45,21,39,223,,23,38,292,36,7*77
$GAGSV,3,3,11,26,40,268,30,27,06,180,,31,05,333,,7*42
$GBGSV,2,1,08,02,04,100,37,05,19,122,39,08,1,040,34,13,20,044,42,1*76
$GBGSV,2,2,08,21,53,113,46,22,28,047,39,23,17,276,35,25,05,229,,1*70
$GNRMC,190040.00,A,4843.26061,N,00920.55335,E,0.005,,070225,,,A,V*19
$GNGGA,190040.00,4843.26061,N,00920.55335,E,1,12,0.50,247.2,M,47.6,M,,*48
$GPGSV,3,1,09,01,25,265,39,02,31,274,39,08,77,264,31,10,60,067,47,1*66
$GPGSV,3,2,09,14,07,329,,16,10,185,44,23,19,047,44,27,58,145,47,1*6D
$GPGSV,3,3,09,32,24,124,48,1*51
$GLGSV,3,1,09,65,52,082,41,66,32,151,44,72,16,024,40,73,01,358,,1*77
$GLGSV,3,2,09,79,25,252,44,80,27,311,47,81,60,324,40,82,18,291,40,1*72
$GLGSV,3,3,09,88,48,077,44,1*4D
$GAGSV,3,1,11,03,23,059,39,05,01,015,,07,01,158,,08,23,114,41,7*77
$GAGSV,3,2,11,13,77,029,36,15,26,073,45,21,39,223,,23,38,292,36,7*77
$GAGSV,3,3,11,26,40,268,29,27,06,180,,31,05,333,,7*4A
$GBGSV,2,1,08,02,04,100,38,05,19,122,40,08,12,040,34,13,20,044,42,1*77
$GBGSV,2,2,08,21,53,113,46,22,28,047,39,23,17,276,35,25,05,229,,1*70
$GNRMC,190041.00,A,4843.26060,N,00920.55335,E,0.019,,070225,,,A,V*14
$GNGGA,190041.00,4843.26060,N,00920.55335,E,1,12,0.50,247.2,M,47.6,M,,*48
$GPGSV,3,1,09,01,25,265,39,02,31,274,39,08,77,264,31,10,60,067,47,1*66
$GPGSV,3,2,09,14,07,329,,16,10,185,44,23,19,047,44,27,58,145,47,1*6D
$GPGSV,3,3,09,32,24,124,48,1*51
$GLGSV,3,1,09,65,52,082,40,66,32,151,43,72,16,024,40,73,01,358,,1*71
$GLGSV,3,2,09,79,25,252,43,80,27,311,47,81,60,324,40,82,18,291,40,1*75
$GLGSV,3,3,09,88,48,077,44,1*4D
$GAGSV,3,1,11,03,23,059,39,05,01,015,,07,01,158,,08,23,114,41,7*77
$GAGSV,3,2,11,13,77,029,35,15,26,073,45,21,39,223,,23,38,292,36,7*74
$GAGSV,3,3,11,26,41,269,28,27,06,180,,31,05,333,,7*4B
$GBGSV,2,1,08,02,04,100,38,05,19,122,40,08,12,040,34,13,20,044,42,1*77
$GBGSV,2,2,08,21,53,113,46,22,28,047,39,23,17,276,35,25,05,229,,1*70
$GNRMC,190042.00,A,4843.26058,N,00920.55335,E,0.012,,070225,,,A,V*17
$GNGGA,190042.00,4843.26058,N,00920.55335,E,1,12,0.49,247.2,M,47.6,M,,*48
$GPGSV,3,1,09,01,25,265,38,02,31,274,39,08,77,264,31,10,60,067,46,1*66
$GPGSV,3,2,09,14,07,329,,16,10,185,44,23,19,047,43,27,58,145,46,1*6B
$GPGSV,3,3,09,32,24,124,49,1*50
$GLGSV,3,1,09,65,52,082,42,66,32,151,43,72,16,024,40,73,01,358,,1*73
$GLGSV,3,2,09,79,25,252,43,80,27,311,47,81,60,324,40,82,18,291,41,1*74
$GLGSV,3,3,09,88,48,077,45,1*4C
$GAGSV,3,1,11,03,23,059,39,05,01,015,,07,01,158,,08,23,114,41,7*77
$GAGSV,3,2,11,13,77,029,35,15,26,073,45,21,39,223,35,23,38,292,36,7*72
$GAGSV,3,3,11,26,41,269,28,27,06,180,,31,05,333,,7*4B
$GBGSV,2,1,08,02,04,100,37,05,19,122,39,08,12,040,33,13,20,044,42,1*71
$GBGSV,2,2,08,21,53,113,46,22,28,047,39,23,17,276,35,25,05,229,,1*70
$GNRMC,190043.00,A,4843.26056,N,00920.55334,E,0.007,,070225,,,A,V*1D
$GNGGA,190043.00,4843.26056,N,00920.55334,E,1,12,0.49,247.2,M,47.6,M,,*46
$GPGSV,3,1,09,01,25,265,38,02,31,274,39,08,77,264,31,10,60,067,46,1*66
$GPGSV,3,2,09,14,07,329,,16,10,185,43,23,19,047,43,27,58,145,46,1*6C
$GPGSV,3,3,09,32,24,124,49,1*50
$GLGSV,3,1,09,65,52,082,42,66,32,151,44,72,16,024,40,73,01,358,,1*74
$GLGSV,3,2,09,79,25,252,43,80,27,311,47,81,60,324,39,82,18,291,41,1*7A
$GLGSV,3,3,09,88,48,077,44,1*4D
$GAGSV,3,1,11,03,23,059,40,05,01,015,,07,01,158,,08,23,114,42,7*7A
$GAGSV,3,2,11,13,77,029,36,15,26,073,44,21,39,223,35,23,38,292,36,7*70
$GAGSV,3,3,11,26,41,269,28,27,06,180,,31,05,333,,7*4B
$GBGSV,2,1,08,02,04,100,38,05,19,122,39,08,12,040,33,13,20,044,42,1*7E
$GBGSV,2,2,08,21,53,113,46,22,28,047,39,23,17,276,35,25,05,229,,1*70
$GNRMC,190044.00,A,4843.26054,N,00920.55334,E,0.005,,070225,,,A,V*1A
$GNGGA,190044.00,4843.26054,N,00920.55334,E,1,12,0.49,247.2,M,47.6,M,,*43
$GPGSV,3,1,09,01,25,265,38,02,31,274,39,08,77,264,32,10,60,067,46,1*65
$GPGSV,3,2,09,14,07,329,,16,10,185,43,23,19,047,43,27,58,145,46,1*6C
$GPGSV,3,3,09,32,24,124,49,1*50
$GLGSV,3,1,09,65,52,082,41,66,32,151,44,72,16,024,40,73,01,358,,1*77
$GLGSV,3,2,09,79,25,252,44,80,27,311,47,81,60,324,39,82,18,291,41,1*7D
$GLGSV,3,3,09,88,48,077,44,1*4D
$GAGSV,3,1,11,03,23,059,40,05,01,015,,07,01,158,,08,23,114,42,7*7A
$GAGSV,3,2,11,13,77,029,36,15,26,073,44,21,39,223,35,23,38,292,37,7*71
$GAGSV,3,3,11,26,41,269,28,27,06,180,,31,05,333,,7*4B
$GBGSV,2,1,08,02,04,100,37,05,19,122,40,08,12,040,33,13,20,044,42,1*7F
$GBGSV,2,2,08,21,53,113,46,22,28,047,40,23,17,276,35,25,05,229,,1*7E
$GNGGA,190045.00,4843.26052,N,00920.55333,E,1,12,0.49,247.2,M,47.6,M,,*43
$GPGSV,3,1,09,01,25,265,38,02,31,274,39,08,77,264,32,10,60,067,46,1*65
$GPGSV,3,2,09,14,07,329,,16,10,185,43,23,19,047,43,27,58,145,45,1*6F
$GPGSV,3,3,09,32,24,124,49,1*50
$GLGSV,3,1,09,65,52,082,39,66,32,151,43,72,16,024,40,73,01,358,,1*7F
$GLGSV,3,2,09,79,25,252,44,80,27,311,47,81,60,324,39,82,18,291,41,1*7D
$GLGSV,3,3,09,88,48,077,41,1*48
$GAGSV,3,1,11,03,23,059,40,05,01,015,,07,01,158,,08,23,114,42,7*7A
$GAGSV,3,2,11,13,77,029,36,15,26,073,45,21,39,223,36,23,38,292,36,7*72
$GAGSV,3,3,11,26,41,269,25,27,06,180,,31,05,333,,7*46
$GBGSV,2,1,08,02,04,100,38,05,19,122,40,08,12,040,33,13,20,044,42,1*70
$GBGSV,2,2,08,21,53,113,46,22,28,047,40,23,17,276,35,25,05,229,,1*7E
$GNRMC,190046.00,A,4843.26050,N,00920.55333,E,0.012,,070225,,,A,V*1D
$GNGGA,190046.00,4843.26050,N,00920.55333,E,1,12,0.49,247.2,M,47.6,M,,*42
$GPGSV,3,1,09,01,25,265,38,02,31,274,39,08,77,264,33,10,60,067,47,1*65
$GPGSV,3,2,09,14,07,329,,16,10,185,43,23,19,047,43,27,58,145,45,1*6F
$GPGSV,3,3,09,32,24,124,49,1*50
$GLGSV,3,1,09,65,52,082,39,66,32,151,43,72,16,024,40,73,01,358,,1*7F
$GLGSV,3,2,09,79,25,252,44,80,27,311,47,81,60,324,40,82,18,291,41,1*73
$GLGSV,3,3,09,88,48,077,38,1*46
$GAGSV,3,1,11,03,23,059,40,05,01,015,,07,01,158,,08,23,114,42,7*7A
$GAGSV,3,,11,13,77,029,37,15,26,073,44,21,39,223,36,23,38,292,36,7*72
$GAGSV,3,3,11,26,41,269,24,27,06,180,,31,05,333,,7*47
$GBGSV,2,1,08,02,04,100,37,05,19,122,40,08,12,040,32,13,20,044,42,1*7E
$GBGSV,2,2,08,21,53,113,46,22,28,047,40,23,17,276,35,25,05,229,,1*7E
$GNRMC,190047.00,A,4843.26047,N,00920.55333,E,0.010,,070225,,,A,V*18
$GNGGA,190047.00,4843.26047,N,00920.55333,E,1,12,0.49,247.3,M,47.6,M,,*44
$GPGSV,3,1,09,01,25,265,38,02,31,274,39,08,77,264,34,10,60,067,47,1*62
$GPGSV,3,2,09,14,07,329,,16,10,185,43,23,19,047,43,27,58,145,45,1*6F
$GPGSV,3,3,09,32,24,124,50,1*58
$GLGSV,3,1,09,65,52,082,39,66,32,151,43,72,16,024,40,73,01,358,,1*7F
$GLGSV,3,2,09,79,25,252,45,80,27,311,47,81,60,324,40,82,18,291,40,1*73
$GLGSV,3,3,09,88,48,077,41,1*48
$GAGSV,3,1,11,03,23,059,40,05,01,015,,07,01,158,,08,23,114,42,7*7A
$GAGSV,3,2,11,13,77,029,37,15,26,073,44,21,39,223,36,23,38,292,36,7*72
$GAGSV,3,3,11,26,41,269,23,27,06,180,,31,05,333,,7*40
$GBGSV,2,1,08,02,04,100,37,05,19,122,40,08,12,040,32,13,20,044,42,1*7E
$GBGSV,2,2,08,21,53,113,46,22,28,047,40,23,17,276,35,25,05,229,,1*7E
$GNRMC,190048.00,A,4843.26045,N,00920.55333,E,0.008,,070225,,,A,V*1C
$GNGGA,190048.00,4843.26045,N,00920.55333,E,1,12,0.49,247.3,M,47.6,M,,*49
$GPGSV,3,1,09,01,25,265,38,02,31,274,40,08,77,264,34,10,60,067,47,1*6C
$GPGSV,3,2,09,14,07,329,,16,10,185,43,23,19,047,43,27,58,145,45,1*6F
$GPGSV,3,3,09,32,24,124,49,1*50
$GLGSV,3,1,09,65,52,082,39,66,32,151,42,72,16,024,40,73,01,358,,1*7E
$GLGSV,3,2,09,79,25,252,45,80,27,311,47,81,60,324,40,82,18,291,41,1*72
$GLGSV,3,3,09,88,48,077,39,1*47
$GAGSV,3,1,11,03,23,059,40,05,01,015,,07,01,158,,08,23,114,42,7*7A
$GAGSV,3,2,11,13,77,029,38,15,26,073,45,21,39,223,36,23,38,292,36,7*7C
$GAGSV,3,3,11,26,41,269,23,27,06,180,,31,05,333,,7*40
$GBGSV,2,1,08,02,04,100,38,05,19,122,40,08,12,040,32,13,20,044,41,1*72
$GBGSV,2,2,08,21,53,113,46,22,28,047,40,23,17,276,35,25,05,229,,1*7E
$GNRMC,190049.00,A,4843.26043,N,00920.55333,E,0.006,,070225,,,A,V*15
$GNGGA,190049.00,4843.26043,N,00920.55333,E,1,12,0.49,247.4,M,47.6,M,,*49
$GPGSV,3,1,09,01,25,265,37,02,31,274,40,08,77,264,34,10,60,067,47,1*63
$GPGSV,3,2,09,14,07,329,,16,10,185,43,23,19,047,43,27,58,145,45,1*6F
$GPGSV,3,3,09,32,24,124,49,1*50
$GLGSV,3,1,09,65,52,082,39,66,32,151,42,72,16,024,40,73,01,358,,1*7E
$GLGSV,3,2,09,79,25,252,45,80,27,311,47,81,60,324,41,82,18,291,40,1*72
$GLGSV,3,3,09,88,48,077,42,1*4B
$GAGSV,3,1,11,03,23,059,40,05,01,015,,07,01,158,,08,23,114,42,7*7A
$GAGSV,3,2,11,13,77,029,38,15,26,073,44,21,39,223,36,23,38,292,37,7*7C
$GAGSV,3,3,11,26,41,269,24,27,06,180,,31,05,333,,7*47
$GBGSV,2,1,08,02,04,100,37,05,19,122,41,08,12,040,32,13,20,044,42,1*7F
$GBGSV,2,2,08,21,53,113,45,22,28,047,40,23,17,276,35,25,05,229,,1*7D
$GNGGA,190050.00,4843.26041,N,00920.55334,E,1,12,0.49,247.4,M,47.6,M,,*44
$GPGSV,3,1,09,01,25,265,37,02,31,274,41,08,77,264,35,10,60,067,47,1*63
$GPGSV,3,2,09,14,07,329,,16,10,185,43,23,19,047,43,27,58,145,45,1*6F
$GPGSV,3,3,09,32,24,124,49,1*50
$GLGSV,3,1,09,65,52,082,41,66,32,151,42,72,16,024,40,73,01,358,,1*71
$GLGSV,3,2,09,79,25,252,45,80,27,311,47,81,60,324,42,82,18,291,40,1*71
$GLGSV,3,3,09,88,48,077,40,1*49
$GAGSV,3,1,11,03,23,059,40,05,01,015,,07,01,158,,08,23,114,42,7*7A
$GAGSV,3,2,11,13,77,029,38,15,26,073,45,21,39,223,36,23,38,292,37,7*7D
$GAGSV,3,3,11,26,41,269,23,27,06,180,,31,05,333,,7*40
$GBGSV,2,1,08,02,04,100,37,05,19,122,41,08,12,040,33,13,20,044,41,1*7D
$GBGSV,2,2,08,21,53,113,46,22,28,047,40,23,17,276,35,25,05,229,,1*7E
$GNRMC,190051.00,A,4843.26040,N,00920.55335,E,0.008,,070225,,,A,V*17
$GNGGA,190051.00,4843.26040,N,00920.55335,E,1,12,0.49,247.5,M,47.6,M,,*44
$GPGSV,3,1,09,01,25,265,37,02,31,274,41,08,77,264,34,10,60,067,47,1*62
$GPGSV,3,2,09,14,07,329,,16,10,185,43,23,19,047,44,27,58,145,45,1*68
$GPGSV,3,3,09,32,24,124,49,1*50
$GLGSV,3,1,09,65,52,082,41,66,32,151,41,72,16,024,40,73,01,358,,1*72
$GLGSV,3,2,09,79,25,252,45,80,27,311,47,81,60,324,42,82,18,291,40,1*71
$GLGSV,3,3,09,88,48,077,44,1*4D
$GAGSV,3,1,11,03,23,059,40,05,01,015,,07,01,158,,08,23,114,42,7*7A
$GAGSV,3,2,11,13,77,029,38,15,26,073,45,21,39,223,36,23,38,292,36,7*7C
$GAGSV,3,3,11,26,41,269,23,27,06,180,,31,05,333,,7*40
$GBGSV,2,1,08,02,04,100,38,05,19,122,41,08,12,040,33,13,20,044,41,1*72
$GBGSV,2,2,08,21,53,113,45,22,28,047,40,23,17,276,35,25,05,229,,1*7D
$GNRMC,190052.00,A,4843.26037,N,00920.55336,E,0.003,,070225,,,A,V*1C
$GNGGA,190052.00,4843.26037,N,00920.55336,E,1,12,0.49,247.5,M,47.6,M,,*44
$GPGSV,3,1,09,01,25,265,36,02,31,274,41,08,77,264,34,10,60,067,47,1*63
$GPGSV,3,2,09,14,07,329,,16,10,185,43,23,19,047,44,27,58,145,44,1*69
$GPGSV,3,3,09,32,24,124,49,1*50
$GLGSV,3,1,09,65,52,082,39,66,32,151,41,72,16,024,40,73,01,358,,1*7D
$GLGSV,3,2,09,79,25,252,45,80,27,311,47,81,60,324,42,82,18,291,40,1*71
$GLGSV,3,3,09,88,48,077,43,1*4A
$GAGSV,3,1,11,03,23,059,40,05,01,015,,07,01,158,,08,23,114,42,7*7A
$GAGSV,3,2,11,13,77,029,38,15,26,073,45,21,39,223,36,23,38,292,37,7*7D
$GAGSV,3,3,11,26,41,269,23,27,06,180,,31,05,333,31,7*42
$GBGSV,2,1,08,02,04,100,38,05,19,122,41,08,12,040,33,13,20,044,42,1*71
$GBGSV,2,2,08,21,53,113,45,22,28,047,40,23,17,276,35,25,05,229,,1*7D
$GNRMC,190053.00,A,4843.26035,N,00920.55337,E,0.015,,070225,,,A,V*19
$GNGGA,190053.00,4843.26035,N,00920.55337,E,1,12,0.49,247.6,M,47.6,M,,*45
$GPGSV,3,1,09,01,25,265,33,02,31,274,41,08,77,264,33,10,60,067,46,1*60
$GPGSV,3,2,09,14,07,329,,16,10,185,42,23,19,047,44,27,58,145,45,1*69
$GPGSV,3,3,09,32,24,124,49,1*50
$GLGSV,3,1,09,65,52,082,39,66,32,151,41,72,16,024,40,73,01,358,,1*7D
$GLGSV,3,2,09,79,25,252,45,80,27,311,45,81,60,324,42,82,18,291,40,1*73
$GLGSV,3,3,09,88,48,077,44,1*4D
$GAGSV,3,1,11,03,23,059,40,05,01,015,,07,01,158,,08,23,114,42,7*7A
$GAGSV,3,2,11,13,77,029,38,15,26,073,45,21,39,223,37,23,38,292,37,7*7C
$GAGSV,3,3,11,26,41,269,23,27,06,180,,31,05,333,32,7*41
$GBGSV,2,1,08,02,04,100,37,05,19,122,41,08,12,040,32,13,20,044,42,1*7F
$GBGSV,2,2,08,21,53,113,45,22,28,047,40,23,17,276,30,25,05,229,,1*78
$GNRMC,190054.00,A,4843.26032,N,00920.55337,E,0.013,,070225,,,A,V*1F
$GNGGA,190054.00,4843.26032,N,00920.55337,E,1,12,0.49,247.6,M,47.6,M,,*45
$GPGSV,3,1,09,01,25,265,35,02,31,274,41,08,77,264,33,10,60,067,47,1*67
$GPGSV,3,2,09,14,07,329,,16,10,185,42,23,19,047,44,27,58,145,45,1*69
$GPGSV,3,3,09,32,24,124,49,1*50
$GLGSV,3,1,09,65,52,082,39,66,32,151,38,72,16,024,40,73,01,358,,1*73
$GLGSV,3,2,09,79,25,252,46,80,27,311,46,81,60,324,43,82,18,291,40,1*72
$GLGSV,3,3,09,88,48,077,44,1*4D
$GAGSV,3,1,11,03,23,059,41,05,01,015,,07,01,158,,08,23,114,42,7*7B
$GAGSV,3,2,11,13,77,029,38,15,26,073,45,21,39,223,36,23,38,292,36,7*7C
$GAGSV,3,3,11,26,41,269,22,27,06,80,,31,05,333,32,7*40
$GBGSV,2,1,08,02,04,100,37,05,19,122,40,08,12,040,32,13,20,044,42,1*7E
$GBGSV,2,2,08,21,53,113,45,22,28,047,40,23,17,276,34,25,05,229,,1*7C
$GNRMC,190055.00,A,4843.26029,N,00920.55339,E,0.013,,070225,,,A,V*1A
$GNGGA,190055.00,4843.26029,N,00920.55339,E,1,12,0.49,247.7,M,47.6,M,,*41
$GPGSV,3,1,09,01,25,265,35,02,31,274,41,08,77,264,33,10,60,067,47,1*67
$GPGSV,3,2,09,14,07,329,,16,10,185,42,23,19,047,44,27,58,145,46,1*6A
$GPGSV,3,3,09,32,24,124,49,1*50
$GLGSV,3,1,09,65,52,082,40,66,32,151,39,72,16,024,40,73,01,358,,1*7C
$GLGSV,3,2,09,79,25,252,46,80,27,311,46,81,60,324,43,82,18,291,40,1*72
$GLGSV,3,3,09,88,48,077,43,1*4A
$GAGSV,3,1,11,03,23,059,41,05,01,015,,07,01,158,,08,23,114,42,7*7B
$GAGSV,3,2,11,13,77,029,38,15,26,073,45,21,39,223,36,23,38,292,36,7*7C
$GAGSV,3,3,11,26,41,269,23,27,06,180,,31,05,333,33,7*40
$GBGSV,2,1,08,02,04,100,38,05,19,122,40,08,12,041,32,13,20,044,42,1*70
$GBGSV,2,2,08,21,53,113,45,22,28,047,40,23,17,276,35,25,05,229,,1*7D
$GNRMC,190056.00,A,4843.26026,N,00920.55340,E,0.008,,070225,,,A,V*12
$GNGGA,190056.00,4843.26026,N,00920.55340,E,1,12,0.49,247.8,M,47.6,M,,*4C
$GPGSV,3,1,09,01,25,265,35,02,31,274,41,08,77,264,33,10,60,067,46,1*66
$GPGSV,3,2,09,14,07,329,,16,10,185,42,23,19,047,44,27,58,145,44,1*68
$GPGSV,3,3,09,32,24,124,49,1*50
$GLGSV,3,1,09,65,52,082,41,66,32,151,39,72,16,024,40,73,01,358,,1*7D
$GLGSV,3,2,09,79,25,252,46,80,27,311,46,81,60,324,42,82,18,291,40,1*73
$GLGSV,3,3,09,88,48,077,41,1*48
$GAGSV,3,1,11,03,23,059,41,05,01,015,,07,01,158,,08,23,114,42,7*7B
$GAGSV,3,2,11,13,77,029,38,15,26,073,44,21,39,223,36,23,38,292,36,7*7D
$GAGSV,3,3,11,26,41,269,23,27,06,180,,31,05,333,33,7*40
$GBGSV,2,1,08,02,04,100,38,05,19,122,40,08,12,041,32,13,20,044,42,1*70
$GBGSV,2,2,08,21,53,113,45,22,28,047,40,23,17,276,35,25,05,229,,1*7D
$GNRMC,190057.00,A,4843.26023,N,00920.55341,E,0.012,,070225,,,A,V*1C
$GNGGA,190057.00,4843.26023,N,00920.55341,E,1,12,0.49,247.8,M,47.6,M,,*49
$GPGSV,3,1,09,01,25,265,35,02,31,274,40,08,77,264,33,10,60,067,47,1*66
$GPGSV,3,2,09,14,07,329,,16,10,185,42,23,19,047,44,27,58,145,44,1*68
$GPGSV,3,3,09,32,24,124,49,1*50
$GLGSV,3,1,09,65,52,082,43,66,32,151,41,72,16,024,40,73,01,358,,1*70
$GLGSV,3,2,09,79,25,252,46,80,27,311,46,81,60,324,42,82,18,291,41,1*72
$GLGSV,3,3,09,88,48,077,38,1*46
$GAGSV,3,1,11,03,23,059,41,05,01,015,,07,01,158,,08,23,114,42,7*7B
$GAGSV,3,2,11,13,77,029,38,15,26,073,44,21,39,223,36,23,38,292,36,7*7D
$GAGSV,3,3,11,26,41,269,24,27,06,180,,31,05,333,33,7*47
$GBGSV,2,1,08,02,04,100,38,05,19,122,39,08,12,041,32,13,20,044,42,1*7E
$GBGSV,2,2,08,21,53,113,45,22,28,047,41,23,17,276,35,25,05,229,,1*7C
$GNRMC,190058.00,A,4843.26020,N,00920.55341,E,0.009,,070225,,,A,V*1A
$GNGGA,190058.00,4843.26020,N,00920.55341,E,1,12,0.49,247.8,M,47.6,M,,*45
$GPGSV,3,1,09,01,25,265,34,02,31,274,40,08,77,264,34,10,60,067,47,1*60
$GPGSV,3,2,09,14,07,329,,16,10,185,42,23,19,047,44,27,58,145,45,1*69
$GPGSV,3,3,09,32,24,124,50,1*58
$GLGSV,3,1,09,65,52,082,44,66,32,151,42,72,16,024,40,73,01,358,,1*74
$GLGSV,3,2,09,79,25,252,46,80,27,311,45,81,60,324,42,82,18,291,41,1*71
$GLGSV,3,3,09,88,48,077,36,1*48
$GAGSV,3,1,11,03,23,059,41,05,01,015,,07,01,158,,08,23,114,43,7*7A
$GAGSV,3,2,11,13,77,029,37,15,26,073,44,21,39,223,36,23,38,292,35,7*71
$GAGSV,3,3,11,26,41,269,23,27,06,180,,31,05,333,33,7*40
$GBGSV,2,1,08,02,04,100,38,05,19,122,39,08,12,041,32,13,20,044,42,1*7E
$GBGSV,2,2,08,21,53,113,45,22,28,047,41,23,17,276,35,25,05,229,,1*7C
$GNRMC,190059.00,A,4843.26016,N,00920.55341,E,0.013,,070225,,,A,V*15
$GNGGA,190059.00,4843.26016,N,00920.55341,E,1,12,0.49,247.9,M,47.6,M,,*40
$GPGSV,3,1,09,01,25,265,33,02,31,274,40,08,77,264,34,10,60,067,47,1*67
$GPGSV,3,2,09,14,07,329,,16,10,185,42,23,19,047,44,27,58,145,45,1*69
$GPGSV,3,3,09,32,24,124,50,1*58
$GLGSV,3,1,09,65,52,082,45,66,32,151,42,72,16,024,40,73,01,358,,1*75
$GLGSV,3,2,09,79,25,252,46,80,27,311,45,81,60,324,42,82,18,291,41,1*71
$GLGSV,3,3,09,88,48,077,39,1*47
$GAGSV,3,1,11,03,23,059,41,05,01,015,,07,01,158,,08,23,114,43,7*7A
$GAGSV,3,2,11,13,77,029,37,15,26,073,44,21,39,223,35,23,38,292,35,7*72
$GAGSV,3,3,11,26,41,269,22,27,06,180,,31,05,333,33,7*41
$GBGSV,2,1,08,02,04,100,38,05,19,122,39,08,12,041,32,13,20,044,42,1*7E
$GBGSV,2,2,08,21,53,113,45,22,28,047,41,23,17,276,35,25,05,229,,1*7C
$GNRMC,190100.00,A,4843.26013,N,00920.55341,E,0.014,,070225,,,A,V*1A
$GNGGA,190100.00,4843.26013,N,00920.55341,E,1,12,0.49,247.9,M,47.6,M,,*48
$GPGSV,3,1,09,01,25,265,33,02,31,274,39,08,77,264,35,10,60,067,47,1*68
$GPGSV,3,2,09,14,07,329,,16,10,185,42,23,19,047,44,27,58,145,46,1*6A
$GPGSV,3,3,09,32,24,124,50,1*58
$GLGSV,3,1,09,65,52,082,46,66,32,151,44,72,16,024,40,73,01,358,,1*70
$GLGSV,3,2,09,79,25,252,47,80,27,311,45,81,60,324,42,82,18,291,41,1*70
$GLGSV,3,3,09,88,48,077,37,1*49
$GAGSV,3,1,11,03,23,059,42,05,01,015,,07,01,158,,08,23,114,44,7*7E
$GAGSV,3,2,11,13,77,029,36,15,26,073,44,21,39,223,35,23,38,292,35,7*73
$GAGSV,3,3,11,26,41,269,22,27,06,180,,31,05,333,33,7*41
$GBGSV,2,1,08,02,04,100,38,05,19,122,39,08,12,041,32,13,20,044,42,1*7E
$GBGSV,2,2,08,21,53,113,46,22,28,047,41,23,17,276,35,25,05,229,,1*7F
$GNRMC,190101.00,A,4843.26010,N,00920.55340,E,0.009,,070225,,,A,V*15
$GNGGA,190101.00,4843.26010,N,00920.55340,E,1,12,0.49,248.0,M,47.6,M,,*4D
$GPGSV,3,1,09,01,25,265,34,02,31,274,39,08,77,264,35,10,60,067,46,1*6E
$GPGSV,3,2,09,14,07,329,,16,10,185,42,23,19,047,44,27,58,145,45,1*69
$GPGSV,3,3,09,32,24,124,50,1*58
$GLGSV,3,1,09,65,52,082,46,66,32,151,44,72,16,024,39,73,01,358,,1*7E
$GLGSV,3,2,09,79,25,252,47,80,27,311,44,81,60,324,41,82,18,291,42,1*71
$GLGSV,3,3,09,88,48,077,38,1*46
$GAGSV,3,1,11,03,23,059,41,05,01,015,,07,01,158,,08,23,114,44,7*7D
$GAGSV,3,2,11,13,77,029,36,15,26,073,44,21,39,223,34,23,38,292,34,7*73
$GAGSV,3,3,11,26,41,269,21,27,06,180,,31,05,333,33,7*42
$GBGSV,2,1,08,02,04,100,38,05,19,122,39,08,12,041,32,13,20,044,42,1*7E
$GBGSV,2,2,08,21,53,113,46,22,28,047,41,23,17,276,35,25,05,229,,1*7F
$GNRMC,190102.00,A,4843.26008,N,00920.55339,E,0.005,,070225,,,A,V*1D
$GNGGA,190102.00,4843.26008,N,00920.55339,E,1,12,0.49,248.0,M,47.6,M,,*49
$GPGSV,3,1,09,01,25,265,33,02,31,274,39,08,77,264,35,10,60,067,46,1*69
$GPGSV,3,2,09,14,07,329,,16,10,185,42,23,19,047,44,27,58,145,46,1*6A
$GPGSV,3,3,09,32,24,124,50,1*58
$GLGSV,3,1,09,65,52,082,46,66,32,151,46,72,16,024,39,73,01,358,,1*7C
$GLGSV,3,2,09,79,25,252,47,80,27,311,44,81,60,324,41,82,18,291,42,1*71
$GLGSV,3,3,09,88,48,077,37,1*49
$GAGSV,3,1,11,03,23,059,41,05,01,015,,07,01,158,,08,23,114,45,7*7C
$GAGSV,3,2,11,13,77,029,36,15,26,073,44,21,39,223,34,23,38,292,34,7*73
$GAGSV,3,3,11,26,41,269,21,27,06,180,,31,05,333,33,7*42
$GBGSV,2,1,08,02,04,100,38,05,19,122,39,08,12,041,33,13,20,044,42,1*7F
$GBGSV,2,2,08,21,53,113,46,22,28,047,41,23,17,276,35,25,05,229,,1*7F
$GNRMC,190103.00,A,4843.26006,N,00920.55338,E,0.004,,070225,,,A,V*12
$GNGGA,190103.00,4843.26006,N,00920.55338,E,1,12,0.49,248.0,M,47.6,M,,*47
$GPGSV,3,1,09,01,25,265,34,02,31,274,39,08,77,264,35,10,60,067,46,1*6E
$GPGSV,3,2,09,14,07,329,,16,10,185,41,23,19,047,44,27,58,145,46,1*69
$GPGSV,3,3,09,32,24,124,51,1*59
$GLGSV,3,1,09,65,52,082,45,66,32,151,46,72,16,024,39,73,01,358,,1*7F
$GLGSV,3,2,09,79,25,252,47,80,27,311,44,81,60,324,41,82,18,291,41,1*72
$GLGSV,3,3,09,88,48,077,37,1*49
$GAGSV,3,1,11,03,23,059,41,05,01,015,,07,01,158,,08,23,114,45,7*7C
$GAGSV,3,2,11,13,77,029,35,15,26,073,44,21,39,223,34,23,38,292,34,7*70
$GAGSV,3,3,11,26,41,269,21,27,06,180,,31,05,333,33,7*42
$GBGSV,2,1,08,02,04,100,38,05,19,122,39,08,12,041,33,13,20,044,42,1*7F
$GBGSV,2,2,08,21,53,113,46,22,28,047,41,23,17,276,35,25,05,229,,1*7F
$GNRMC,190104.00,A,4843.26004,N,00920.55338,E,0.026,,070225,,,A,V*17
$GNGGA,190104.00,4843.26004,N,00920.55338,E,1,12,0.49,248.1,M,47.6,M,,*43
$GPGSV,3,1,09,01,25,265,34,02,31,274,32,08,77,264,35,10,60,067,46,1*65
$GPGSV,3,2,09,14,07,329,,16,10,185,41,23,19,047,43,27,58,145,47,1*6F
$GPGSV,3,3,09,32,24,124,51,1*59
$GLGSV,3,1,09,65,52,082,45,66,32,151,44,72,16,024,39,73,01,358,,1*7D
$GLGSV,3,2,09,79,25,252,34,80,27,311,43,81,60,324,41,82,18,291,35,1*72
$GLGSV,3,3,09,88,48,077,38,1*46
$GAGSV,3,1,11,03,23,059,41,05,01,015,,07,01,158,,08,23,114,45,7*7C
$GAGSV,3,2,11,13,77,029,35,15,26,073,45,21,39,223,34,23,38,292,34,7*71
$GAGSV,3,3,11,26,41,269,21,27,06,180,,31,05,333,33,7*42
$GBGSV,2,1,08,02,04,100,38,05,19,122,38,08,12,041,33,13,20,044,42,1*7E
$GBGSV,2,2,08,21,53,113,46,22,28,047,41,23,17,275,30,25,05,229,,1*79
$GNRMC,190105.00,A,4843.26002,N,00920.55338,E,0.018,,070225,,,A,V*1D
$GNGGA,190105.00,4843.26002,N,00920.55338,E,1,12,0.49,248.2,M,47.6,M,,*47
$GPGSV,3,1,09,01,25,265,33,02,31,274,31,08,77,264,34,10,60,067,47,1*61
$GPGSV,3,2,09,14,07,329,,16,10,185,41,23,19,047,42,27,58,145,46,1*6F
$GPGSV,3,3,09,32,24,124,52,1*5A
$GLGSV,3,1,09,65,52,082,45,66,32,151,48,72,16,024,38,73,01,358,,1*70
$GLGSV,3,2,09,79,25,252,38,80,27,311,36,81,60,324,41,82,18,291,30,1*79
$GLGSV,3,3,09,88,48,077,40,1*49
$GAGSV,3,1,11,03,23,059,40,05,01,015,,07,01,158,,08,23,114,46,7*7E
$GAGSV,3,2,11,13,77,029,36,15,26,073,44,21,39,223,34,23,38,292,30,7*77
$GAGSV,3,3,11,26,41,269,19,27,06,180,,31,05,333,23,7*48
$GBGSV,2,1,08,02,04,100,37,05,19,122,36,08,12,041,34,13,20,044,43,1*79
$GBGSV,2,2,08,21,53,113,47,22,28,047,43,23,17,275,29,25,05,229,,1*72
$GNGGA,190106.00,4843.26002,N,00920.55337,E,1,12,0.49,248.3,M,47.6,M,,*4A
$GPGSV,3,1,09,01,25,265,33,02,31,274,38,08,77,264,33,10,60,067,47,1*6F
$GPGSV,3,2,09,14,07,329,,16,10,185,41,23,19,047,42,27,58,145,47,1*6E
$GPGSV,3,3,09,32,24,124,51,1*59
$GLGSV,3,1,09,65,52,082,47,66,32,151,48,72,16,024,38,73,01,358,,1*72
$GLGSV,3,2,09,79,25,252,47,80,27,311,42,81,60,324,41,82,18,291,41,1*74
$GLGSV,3,3,09,88,48,077,40,1*49
$GAGSV,3,1,11,03,23,059,40,05,01,015,,07,01,158,,08,23,114,46,7*7E
$GAGSV,3,2,11,13,77,029,35,15,26,073,44,21,39,223,32,23,38,292,35,7*77
$GAGSV,3,3,11,26,41,269,21,27,06,180,,31,05,333,23,7*43
$GBGSV,2,1,08,02,04,100,37,05,19,122,39,08,12,041,33,13,20,044,42,1*70
$GBGSV,2,2,08,21,53,113,46,22,28,047,41,23,17,275,34,25,04,229,,1*7C
$GNRMC,190107.00,A,4843.26003,N,00920.55337,E,0.021,,070225,,,A,V*1B
$GNGGA,190107.00,4843.26003,N,00920.55337,E,1,12,0.49,248.3,M,47.6,M,,*4A
$GPGSV,3,1,09,01,25,265,34,02,31,274,38,08,77,264,33,10,60,067,46,1*69
$GPGSV,3,2,09,14,07,329,,16,10,185,41,23,19,047,43,27,58,145,46,1*6E
$GPGSV,3,3,09,32,24,124,51,1*59
$GLGSV,3,1,09,65,52,082,46,66,32,151,48,72,16,024,38,73,01,358,,1*73
$GLGSV,3,2,09,79,25,252,47,80,27,311,43,81,60,324,41,82,18,291,41,1*75
$GLGSV,3,3,09,88,48,077,39,1*47
$GAGSV,3,1,11,03,23,059,41,05,01,015,,07,01,158,,08,23,114,46,7*7F
$GAGSV,3,2,11,13,77,029,34,15,26,073,45,21,39,223,32,23,38,292,34,7*76
$GAGSV,3,3,11,26,41,269,22,27,06,180,,31,05,333,29,7*4A
$GBGSV,2,1,08,02,04,100,38,05,19,122,39,08,12,041,33,13,20,044,42,1*7F
$GBGSV,2,2,08,21,53,113,47,22,28,047,41,23,17,275,35,25,04,229,,1*7C
$GNRMC,190108.00,A,4843.26004,N,00920.55335,E,0.008,,070225,,,A,V*1A
$GNGGA,190108.00,4843.26004,N,00920.55335,E,1,12,0.49,248.4,M,47.6,M,,*47
$GPGSV,3,1,09,01,25,265,35,02,31,274,38,08,77,264,33,10,60,067,45,1*6B
$GPGSV,3,2,09,14,07,329,,16,10,185,41,23,19,047,43,27,58,145,47,1*6F
$GPGSV,3,3,09,32,24,124,51,1*59
$GLGSV,3,1,09,65,52,082,46,66,32,151,48,72,16,024,38,73,01,358,,1*73
$GLGSV,3,2,09,79,25,252,47,80,27,311,42,81,60,324,40,82,18,291,41,1*75
$GLGSV,3,3,09,88,48,077,39,1*47
$GAGSV,3,1,11,03,23,059,41,05,01,015,,07,01,158,,08,23,114,46,7*7F
$GAGSV,3,2,11,13,77,029,34,15,26,073,44,21,39,223,31,23,38,292,35,7*75
$GAGSV,3,3,11,26,41,269,24,27,06,180,,31,05,333,31,7*45
$GBGSV,2,1,08,02,04,100,38,05,19,122,39,08,12,041,33,13,20,044,42,1*7F
$GBGSV,2,2,08,21,53,113,46,22,28,047,41,23,17,275,34,25,04,229,,1*7C
$GNGGA,190109.00,4843.26006,N,00920.55332,E,1,12,0.49,248.4,M,47.6,M,,*43
$GPGSV,3,1,09,01,25,265,35,02,31,274,39,08,77,264,32,10,60,067,45,1*6B
$GPGSV,3,2,09,14,07,329,,16,10,185,41,23,19,047,43,27,58,145,46,1*6E
$GPGSV,3,3,09,32,24,124,51,1*59
$GLGSV,3,1,09,65,52,082,46,66,32,151,48,72,16,024,38,73,01,358,,1*73
$GLGSV,3,2,09,79,25,252,45,80,27,311,42,81,60,324,40,82,18,291,41,1*77
$GLGSV,3,3,09,88,48,077,41,1*48
$GAGSV,3,1,11,03,23,059,40,05,01,015,,07,01,158,,08,23,114,46,7*7E
$GAGSV,3,2,11,13,77,029,33,15,26,073,44,21,39,223,31,23,38,292,35,7*72
$GAGSV,3,3,11,26,41,269,27,27,06,180,,31,05,333,32,7*45
$GBGSV,2,1,08,02,04,100,38,05,19,122,39,08,12,041,33,13,20,044,42,1*7F
$GBGSV,2,2,08,21,53,113,47,22,28,047,41,23,17,275,34,25,04,229,,1*7D
$GNRMC,190110.00,A,4843.26009,N,0920.55333,E,0.002,,070225,,,A,V*12
$GNGGA,190110.00,4843.26009,N,00920.55333,E,1,12,0.49,248.5,M,47.6,M,,*44
$GPGSV,3,1,09,01,25,265,35,02,31,274,39,08,77,264,31,10,60,067,45,1*68
$GPGSV,3,2,09,14,07,329,,16,10,185,41,23,19,047,43,27,58,145,47,1*6F
$GPGSV,3,3,09,32,24,124,51,1*59
$GLGSV,3,1,09,65,52,082,46,66,32,151,49,72,16,024,39,73,01,358,,1*73
$GLGSV,3,3,09,88,48,077,42,1*4B
$GAGSV,3,1,11,03,23,059,40,05,01,015,,07,01,158,,08,23,114,46,7*7E
$GAGSV,3,2,11,13,77,029,34,15,26,073,44,21,39,223,30,23,38,292,35,7*74
$GAGSV,3,3,11,26,41,269,29,27,06,180,,31,05,333,31,7*48
$GBGSV,2,1,08,02,04,100,38,05,19,122,39,08,12,041,33,13,20,044,41,1*7C
$GBGSV,2,2,08,21,53,113,47,22,28,047,41,23,17,275,33,25,04,229,,1*7A
$GNRMC,190111.00,A,4843.26012,N,00920.55333,E,0.028,,070225,,,A,V*11
$GNGGA,190111.00,4843.26012,N,00920.55333,E,1,12,0.50,248.6,M,47.6,M,,*44
$GPGSV,3,1,09,01,25,265,35,02,31,274,39,08,77,264,30,10,60,067,45,1*69
$GPGSV,3,2,09,14,07,329,,16,10,185,41,23,19,047,43,27,58,145,47,1*6F
$GPGSV,3,3,09,32,24,124,51,1*59
$GLGSV,3,1,09,65,52,082,46,66,32,151,49,72,16,024,39,73,01,358,,1*73
$GLGSV,3,2,09,79,25,252,47,80,27,311,42,81,60,324,40,82,18,291,41,1*75
$GLGSV,3,3,09,88,48,077,42,1*4B
$GAGSV,3,1,11,03,23,059,40,05,01,015,,07,01,158,,08,23,114,46,7*7E
$GAGSV,3,2,11,13,77,030,33,15,26,073,44,21,39,223,30,23,38,292,35,7*7B
$GAGSV,3,3,11,26,41,269,30,27,06,180,,31,05,333,32,7*43
$GBGSV,2,1,08,02,04,100,38,05,19,122,39,08,12,041,33,13,20,044,41,1*7C
$GBGSV,2,2,08,21,53,113,47,22,28,047,41,23,17,275,33,25,04,229,,1*7A
$GNRMC,190112.00,A,4843.26015,N,00920.55333,E,0.011,,070225,,,A,V*1F
$GNGGA,190112.00,4843.26015,N,00920.55333,E,1,12,0.50,248.6,M,47.6,M,,*40
$GPGSV,3,1,09,01,25,265,35,02,31,274,39,08,77,264,30,10,60,067,45,1*69
$GPGSV,3,2,09,14,07,329,,16,10,185,41,23,19,047,43,27,58,145,47,1*6F
$GPGSV,3,3,09,32,24,124,51,1*59
$GLGSV,3,1,09,65,52,082,47,66,32,151,49,72,16,024,39,73,01,358,,1*72
$GLGSV,3,2,09,79,25,252,46,80,27,311,42,81,60,324,40,82,18,291,41,1*74
$GLGSV,3,3,09,88,48,077,42,1*4B
$GAGSV,3,1,11,03,23,059,40,05,01,015,,07,01,158,,08,23,114,46,7*7E
$GAGSV,3,2,11,13,77,030,33,15,26,074,44,21,39,223,29,23,38,292,35,7*74
$GBGSV,2,1,08,02,04,100,38,05,19,122,39,08,12,041,32,13,20,044,42,1*7E
$GBGSV,2,2,08,21,53,113,47,22,28,047,41,23,17,275,33,25,04,229,,1*7A
$GNRMC,190113.00,A,4843.26018,N,00920.55334,E,0.006,,070225,,,A,V*12
$GNGGA,190113.00,4843.26018,N,00920.55334,E,1,12,0.50,248.7,M,47.6,M,,*4A
$GPGSV,3,1,09,01,25,265,35,02,31,274,39,08,77,264,29,10,60,067,45,1*61
$GPGSV,3,2,09,14,07,329,,16,10,185,41,23,19,047,43,27,58,145,46,1*6E
$GPGSV,3,3,09,32,24,124,51,1*59
$GLGSV,3,1,09,65,52,081,47,66,32,151,49,72,16,024,39,73,01,358,,1*71
$GLGSV,3,2,09,79,25,252,47,80,27,311,41,81,60,324,40,82,18,291,41,1*76
$GLGSV,3,3,09,88,48,077,41,1*48
$GAGSV,3,1,11,03,23,059,40,05,01,015,,07,01,158,,08,23,114,46,7*7E
