$GNRMC,160000.00,A,4843.26019,N,00920.55525,E,0.018,,070225,,,A,V*16
$GNGGA,160000.00,4843.26019,N,00920.55525,E,1,12,0.54,248.8,M,47.6,M,,*4A
$GPGSV,3,1,12,05,11,032,37,07,04,336,,08,04,279,,10,12,166,44,1*63
$GPGSV,3,2,12,15,01,081,,16,66,284,37,18,64,064,42,23,37,131,44,1*6E
$GPGSV,3,3,12,26,64,200,43,27,37,283,29,29,19,088,46,31,13,213,,1*66
$GLGSV,3,1,10,70,13,017,36,71,18,064,48,72,04,109,,76,09,169,45,1*72
$GLGSV,3,2,10,77,50,195,32,78,50,307,37,79,05,334,38,86,22,052,48,1*7A
$GLGSV,3,3,10,87,67,021,40,88,41,254,,1*76
$GAGSV,3,1,09,04,00,335,,06,01,358,,09,02,020,,13,35,218,41,7*73
$GAGSV,3,2,09,15,82,126,40,21,38,306,41,27,76,201,38,30,29,146,45,7*7A
$GAGSV,3,3,09,34,34,050,47,7*4C
$GBGSV,3,1,11,02,02,101,39,05,17,123,40,08,36,044,42,13,40,054,42,1*73
$GBGSV,3,2,11,19,19,069,45,20,08,023,,22,11,120,,24,47,222,,1*76
$GBGSV,3,3,11,25,36,299,42,26,13,178,42,35,38,069,48,1*40
$GNRMC,160001.00,A,4843.26018,N,00920.55526,E,0.039,,070225,,,A,V*16
$GNGGA,160001.00,4843.26018,N,00920.55526,E,1,12,0.54,248.8,M,47.6,M,,*49
$GPGSV,3,1,12,05,11,032,37,07,04,336,,08,04,279,,10,12,166,43,1*64
$GPGSV,3,2,12,15,01,081,,16,66,284,37,18,64,064,42,23,37,131,44,1*6E
$GPGSV,3,3,12,26,64,200,43,27,37,83,29,29,19,088,46,31,13,213,,1*66
$GLGSV,3,1,10,70,13,017,36,71,18,064,48,72,04,109,,76,09,169,45,1*72
$GLGSV,3,2,10,77,50,195,32,78,50,307,37,79,05,334,37,86,22,052,48,1*75
$GLGSV,3,3,10,87,67,021,40,88,41,254,,1*76
$GAGSV,3,1,09,04,00,335,,06,01,358,,09,02,020,,13,35,218,40,7*72
$GAGSV,3,2,09,15,82,126,40,21,38,306,41,27,76,201,38,30,29,146,45,7*7A
$GAGSV,3,3,09,34,34,050,48,7*43
$GBGSV,3,1,11,02,02,101,39,05,17,123,40,08,36,044,42,13,40,054,42,1*73
$GBGSV,3,2,11,19,19,069,45,20,08,023,,22,11,120,,24,47,222,,1*76
$GBGSV,3,3,11,25,36,299,42,26,13,178,42,35,38,069,48,1*40
$GNRMC,160002.00,A,4843.26018,N,00920.55526,E,0.003,,070225,,,A,V*1C
$GNGGA,160002.00,4843.26018,N,00920.55526,E,1,12,0.54,248.8,M,47.6,M,,*4A
$GPGSV,3,1,12,05,10,031,37,07,04,336,,08,04,279,,10,13,166,43,1*67
$GPGSV,3,2,12,15,01,081,,16,67,282,37,18,63,063,43,23,37,131,44,1*68
$GPGSV,3,3,12,26,64,199,44,27,37,283,29,29,18,089,46,31,13,213,,1*62
$GLGSV,3,1,10,70,13,017,36,71,18,064,48,72,04,109,,76,09,169,44,1*73
$GLGSV,3,2,10,77,50,195,32,78,50,307,38,79,05,334,37,86,22,052,48,1*7A
$GLGSV,3,3,10,87,67,021,40,88,41,254,,1*76
$GAGSV,3,1,09,04,00,335,,06,01,358,,09,02,020,,13,35,218,40,7*72
$GAGSV,3,2,09,15,82,126,40,21,38,306,41,27,76,201,38,30,29,146,45,7*7A
$GAGSV,3,3,09,34,34,050,48,7*43
$GBGSV,3,1,11,02,02,101,38,05,17,123,40,08,36,044,42,13,40,054,42,1*72
$GBGSV,3,2,11,19,19,069,45,20,08,023,,22,11,120,,24,47,222,,1*76
$GBGSV,3,3,11,25,36,299,42,26,13,178,42,35,3,069,48,1*40
$GNRMC,160003.00,A,4843.26017,N,00920.55525,E,0.025,,070225,,,A,V*15
$GNGGA,160003.00,4843.26017,N,00920.55525,E,1,12,0.54,248.8,M,47.6,M,,*47
$GPGSV,3,1,12,05,10,031,37,07,04,336,,08,04,279,,10,13,166,43,1*67
$GPGSV,3,2,12,15,01,081,,16,67,282,36,18,63,063,43,23,37,131,45,1*68
$GPGSV,3,3,12,26,64,199,43,27,37,283,29,29,18,089,46,31,13,213,,1*65
$GLGSV,3,1,10,70,13,017,35,71,18,064,47,72,04,109,,76,09,169,45,1*7E
$GLGSV,3,2,10,77,50,195,31,78,50,307,38,79,05,334,37,86,22,052,46,1*77
$GLGSV,3,3,10,87,67,021,40,88,41,254,,1*76
$GAGSV,3,1,09,04,00,335,,06,01,358,,09,02,020,,13,35,218,40,7*72
$GAGSV,3,2,09,15,82,126,40,21,38,306,41,27,76,201,38,30,29,146,45,7*7A
$GAGSV,3,3,09,34,34,050,48,7*43
$GBGSV,3,1,11,02,02,101,38,05,17,123,40,08,36,044,42,13,40,054,42,1*72
$GBGSV,3,2,11,19,19,069,44,20,08,023,,22,11,120,,24,47,222,,1*77
$GBGSV,3,3,11,25,36,299,41,26,13,178,42,35,38,069,48,1*43
$GNRMC,160004.00,A,4843.26017,N,00920.55524,E,0.035,,070225,,,A,V*12
$GNGGA,160004.00,4843.26017,N,00920.55524,E,1,12,0.54,248.8,M,47.6,M,,*41
$GPGSV,3,1,12,05,10,031,37,07,05,336,,08,04,279,,10,13,166,43,1*66
$GPGSV,3,2,12,15,01,081,,16,67,282,36,18,63,063,43,23,37,131,45,1*68
$GPGSV,3,3,12,26,64,199,43,27,37,283,29,29,18,089,46,31,13,213,,1*65
$GLGSV,3,1,10,70,13,017,35,71,18,064,47,72,04,109,,76,09,169,45,1*7E
$GLGSV,3,2,10,77,50,195,31,78,50,307,38,79,05,334,33,86,22,052,47,1*72
$GLGSV,3,3,10,87,67,021,40,88,41,254,,1*76
$GAGSV,3,1,09,04,00,335,,06,01,358,,09,02,020,,13,35,218,40,7*72
$GAGSV,3,2,09,15,82,126,40,21,38,306,41,27,76,201,38,30,29,146,45,7*7A
$GAGSV,3,3,09,34,34,050,48,7*43
$GBGSV,3,1,11,02,02,101,39,05,17,123,40,08,36,044,42,13,40,054,42,1*73
$GBGSV,3,2,11,19,19,069,44,20,08,023,,22,11,120,,24,47,222,,1*77
$GBGSV,3,3,11,25,36,299,41,26,13,178,42,35,38,069,48,1*43
$GNRMC,160005.00,A,4843.26017,N,00920.55523,E,0.019,,070225,,,A,V*1A
$GNGGA,160005.00,4843.26017,N,00920.55523,E,1,12,0.54,248.8,M,47.6,M,,*47
$GPGSV,3,1,12,05,10,031,37,07,05,336,,08,05,280,,10,13,166,43,1*61
$GPGSV,3,2,12,15,01,081,,16,67,282,36,18,63,063,43,23,37,131,45,1*68
$GPGSV,3,3,12,26,64,199,43,27,37,283,30,29,18,089,46,31,13,213,,1*6D
$GLGSV,3,1,10,70,13,017,34,71,18,064,47,72,04,109,,76,09,169,45,1*7F
$GLGSV,3,2,10,77,50,195,31,78,50,307,38,79,05,334,37,86,22,052,47,1*76
$GLGSV,3,3,10,87,67,021,40,88,41,254,,1*76
$GAGSV,3,2,09,15,82,126,41,21,38,306,41,27,76,201,38,30,29,146,44,7*7A
$GAGSV,3,3,09,34,34,050,48,7*43
$GBGSV,3,1,11,02,02,101,39,05,17,123,40,08,36,044,42,13,40,054,42,1*73
$GBGSV,3,2,11,19,19,069,44,20,08,023,,22,11,120,,24,47,222,,1*77
$GBGSV,3,3,11,25,36,299,41,26,13,178,42,35,38,069,48,1*43
$GNRMC,160006.00,A,4843.26017,N,00920.55522,E,0.008,,070225,,,A,V*18
$GNGGA,160006.00,4843.26017,N,00920.55522,E,1,12,0.54,248.8,M,47.6,M,,*45
$GPGSV,3,1,12,05,10,031,38,07,05,336,,08,05,280,,10,13,166,43,1*6E
$GPGSV,3,2,12,15,01,081,,16,67,282,36,18,63,063,43,23,37,131,45,1*68
$GPGSV,3,3,12,26,64,199,43,27,37,283,31,29,18,089,46,31,13,213,,1*6C
$GLGSV,3,1,10,70,13,017,35,71,18,064,47,72,04,109,,76,09,169,45,1*7E
$GLGSV,3,2,10,77,50,195,32,78,50,307,37,79,05,334,37,86,22,052,47,1*7A
$GLGSV,3,3,10,87,67,021,40,88,41,254,,1*76
$GAGSV,3,1,09,04,00,335,,06,01,358,,09,02,020,,13,35,218,40,7*72
$GAGSV,3,2,09,15,82,126,41,21,38,306,41,27,76,201,38,30,29,146,44,7*7A
$GAGSV,3,3,09,34,34,050,47,7*4C
$GBGSV,3,1,11,02,02,101,39,05,17,123,40,08,36,044,42,13,40,054,42,1*73
$GBGSV,3,2,11,19,19,069,44,20,08,023,,22,11,120,,24,47,222,,1*77
$GBGSV,3,3,11,25,36,299,41,26,13,178,42,35,38,069,48,1*43
$GNRMC,160007.00,A,4843.26016,N,00920.55521,E,0.035,,070225,,,A,V*15
$GNGGA,160007.00,4843.26016,N,00920.55521,E,1,12,0.54,248.7,M,47.6,M,,*49
$GPGSV,3,1,12,05,10,031,37,07,05,336,,08,05,280,,10,13,166,43,1*61
$GPGSV,3,2,12,15,01,081,,16,67,282,36,18,63,063,43,23,37,131,45,1*68
$GPGSV,3,3,12,26,64,199,42,27,37,283,31,29,18,089,46,31,13,213,,1*6D
$GLGSV,3,1,10,70,13,017,36,71,18,064,47,72,04,109,,76,09,169,45,1*7D
$GLGSV,3,2,10,77,50,195,32,78,50,307,36,79,05,334,37,86,22,052,47,1*7B
$GLGSV,3,3,10,87,67,021,40,88,41,254,,1*76
$GAGSV,3,1,09,04,00,335,,06,01,358,,09,02,020,,13,35,218,40,7*72
$GAGSV,3,2,09,15,82,126,41,21,38,306,40,27,76,201,38,30,29,146,44,7*7B
$GAGSV,3,3,09,34,34,050,47,7*4C
$GBGSV,3,1,11,02,02,101,38,05,17,123,40,08,36,044,42,13,40,054,42,1*72
$GBGSV,3,2,11,19,19,069,44,20,08,023,,22,11,120,,24,47,222,,1*77
$GBGSV,3,3,11,25,36,299,41,26,13,178,42,35,38,069,48,1*43
$GNRMC,160008.00,A,4843.26016,N,00920.55520,E,0.011,,070225,,,A,V*1D
$GNGGA,160008.00,4843.26016,N,00920.55520,E,1,12,0.54,248.7,M,47.6,M,,*47
$GPGSV,3,1,12,05,10,031,37,07,05,336,,08,05,280,,10,13,166,43,1*61
$GPGSV,3,2,12,15,01,081,,16,67,282,36,18,63,063,44,23,37,131,45,1*6F
$GPGSV,3,3,12,26,64,199,42,27,37,283,31,29,18,089,46,31,13,213,,1*6D
$GLGSV,3,1,10,70,13,017,36,71,18,064,47,72,04,109,,76,09,169,45,1*7D
$GLGSV,3,2,10,77,50,195,32,78,50,307,36,79,05,334,37,86,22,052,47,1*7B
$GLGSV,3,3,10,87,67,021,40,88,41,254,,1*76
$GAGSV,3,1,09,04,00,335,,06,01,358,,09,02,020,,13,35,218,40,7*72
$GAGSV,3,2,09,15,82,126,41,21,38,306,40,27,76,201,38,30,29,146,44,7*7B
$GAGSV,3,3,09,34,34,050,47,7*4C
$GBGSV,3,1,11,02,02,101,38,05,17,123,40,08,36,044,42,13,40,054,42,1*72
$GBGSV,3,2,11,19,19,069,45,20,08,023,,22,11,120,,24,47,222,,1*76
$GBGSV,3,3,11,25,36,299,41,26,13,178,42,35,38,069,48,1*43
$GNRMC,160009.00,A,4843.26017,N,00920.55516,E,0.053,,070225,,,A,V*1E
$GNGGA,160009.00,4843.26017,N,00920.55516,E,1,12,0.50,248.5,M,47.6,M,,*44
$GPGSV,3,1,12,05,10,031,37,07,05,336,,08,05,280,,10,13,166,43,1*61
$GPGSV,3,2,12,15,01,081,,16,67,282,35,18,63,063,44,23,37,131,45,1*6C
$GPGSV,3,3,12,26,64,199,42,27,37,283,31,29,18,089,46,31,13,213,,1*6D
$GLGSV,3,1,10,70,13,017,36,71,18,064,47,72,04,109,,76,09,169,45,1*7D
$GLGSV,3,2,10,77,50,195,31,78,50,307,36,79,05,334,37,86,22,052,47,1*78
$GLGSV,3,3,10,87,67,021,40,88,41,254,,1*76
$GAGSV,3,1,09,04,00,335,,06,01,358,,09,02,020,,13,35,218,40,7*72
$GAGSV,3,2,09,15,82,126,41,21,38,306,40,27,76,201,38,30,29,146,43,7*7C
$GAGSV,3,3,09,34,34,050,47,7*4C
$GBGSV,3,1,11,02,02,101,39,05,17,123,40,08,36,044,43,13,40,054,42,1*72
$GBGSV,3,2,11,19,19,069,45,20,08,023,,22,11,120,,24,47,222,,1*76
$GBGSV,3,3,11,25,36,299,41,26,13,178,42,35,38,069,49,1*42
$GNRMC,160010.00,A,4843.26018,N,00920.55513,E,0.017,,070225,,,A,V*1C
$GNGGA,160010.00,4843.26018,N,00920.55513,E,1,12,0.50,248.4,M,47.6,M,,*47
$GPGSV,3,1,12,05,10,031,37,07,05,336,,08,05,280,,10,13,166,44,1*66
$GPGSV,3,2,12,15,01,081,,16,67,282,35,18,63,063,44,23,37,131,45,1*6C
$GPGSV,3,3,12,26,64,199,42,27,37,283,31,29,18,089,46,31,13,213,,1*6D
$GLGSV,3,1,10,70,13,017,36,71,18,064,47,72,04,109,,76,09,169,45,1*7D
$GLGSV,3,2,10,77,49,194,32,78,51,307,36,79,06,334,37,86,22,052,46,1*71
$GLGSV,3,3,10,87,67,021,39,88,41,254,,1*78
$GAGSV,3,1,09,04,00,335,,06,01,358,,09,02,020,,13,35,218,40,7*72
$GAGSV,3,2,09,15,82,126,41,21,38,306,40,27,76,201,38,30,29,146,43,7*7C
$GAGSV,3,3,09,34,34,050,47,7*4C
$GBGSV,3,1,11,02,02,101,39,05,17,123,40,08,36,044,42,13,40,054,42,1*73
$GBGSV,3,2,11,19,19,069,45,20,08,023,,22,11,120,,24,47,222,,1*76
$GBGSV,3,3,11,25,36,299,41,26,13,178,43,35,38,069,49,1*43
$GNRMC,160011.00,A,4843.26019,N,00920.55510,E,0.043,,070225,,,A,V*1E
$GNGGA,160011.00,4843.26019,N,00920.55510,E,1,12,0.50,248.3,M,47.6,M,,*43
$GPGSV,3,1,12,05,10,031,37,07,05,336,,08,05,280,,10,13,166,44,1*66
$GPGSV,3,2,12,15,01,081,,16,67,282,33,18,63,063,44,23,37,131,45,1*6A
$GPGSV,3,3,12,26,64,199,42,27,37,283,31,29,18,089,45,31,13,213,,1*6E
$GLGSV,3,1,10,70,13,017,36,71,18,064,47,72,04,109,,76,09,169,45,1*7D
$GLGSV,3,2,10,77,49,194,32,78,51,307,36,79,06,334,37,86,22,052,46,1*71
$GLGSV,3,3,10,87,67,021,39,88,41,254,,1*78
$GAGSV,3,1,09,04,00,335,,06,01,358,,09,02,020,,13,35,218,39,7*7C
$GAGSV,3,2,09,15,82,126,41,21,38,306,40,27,76,201,38,30,29,146,43,7*7C
$GAGSV,3,3,09,34,34,050,47,7*4C
$GBGSV,3,1,11,02,02,101,39,05,17,123,40,08,36,044,43,13,40,054,42,1*72
$GBGSV,3,2,11,19,19,069,45,20,08,023,,22,11,120,,24,47,222,,1*76
$GBGSV,3,3,11,25,36,299,41,26,13,178,43,35,38,069,48,1*42
$GNRMC,160012.00,A,4843.26019,N,00920.55507,E,0.033,,070225,,,A,V*1C
$GNGGA,160012.00,4843.26019,N,00920.55507,E,1,12,0.50,248.1,M,47.6,M,,*44
$GPGSV,3,1,12,05,10,031,37,07,05,336,,08,05,280,,10,13,166,44,1*66
$GPGSV,3,2,12,15,01,080,,16,67,282,33,18,63,063,44,23,37,131,45,1*6B
$GPGSV,3,3,12,26,64,199,42,27,37,283,32,29,18,089,45,31,13,213,,1*6D
$GLGSV,3,1,10,70,13,017,36,71,18,064,47,72,04,109,,76,09,169,45,1*7D
$GLGSV,3,2,10,77,49,194,32,78,51,307,35,79,06,334,37,86,22,052,46,1*72
$GLGSV,3,3,10,87,67,021,39,88,41,254,,1*78
$GAGSV,3,1,09,04,00,335,,06,01,358,,09,02,020,,13,35,218,39,7*7C
$GAGSV,3,2,09,15,82,126,41,21,38,306,40,27,76,201,38,30,29,146,43,7*7C
$GAGSV,3,3,09,34,34,050,47,7*4C
$GBGSV,3,1,11,02,02,101,39,05,17,123,40,08,36,044,42,13,40,054,41,1*70
$GBGSV,3,2,11,19,19,069,45,20,08,023,,22,11,120,,24,47,222,,1*76
$GBGSV,3,3,11,25,36,299,41,26,13,178,43,35,38,069,48,1*42
$GNRMC,160013.00,A,4843.26020,N,00920.55504,E,0.021,,070225,,,A,V*17
$GNGGA,160013.00,4843.26020,N,00920.55504,E,1,12,0.50,248.0,M,47.6,M,,*4D
$GPGSV,3,1,12,05,10,031,37,07,05,336,,08,05,280,,10,13,166,44,1*66
$GPGSV,3,2,12,15,01,080,,16,67,282,33,18,63,063,43,23,37,131,45,1*6C
$GPGSV,3,3,12,26,64,199,42,27,37,283,33,29,18,089,45,31,13,213,,1*6C
$GLGSV,3,1,10,70,13,017,35,71,18,064,47,72,04,109,,76,09,169,44,1*7F
$GLGSV,3,2,10,77,49,194,32,78,51,307,35,79,06,334,37,86,22,052,46,1*72
$GLGSV,3,3,10,87,67,021,39,88,41,254,,1*78
$GAGSV,3,1,09,04,00,335,,06,01,358,,09,02,020,,13,35,218,39,7*7C
$GAGSV,3,2,09,15,82,126,41,21,38,306,40,27,76,201,38,30,29,146,43,7*7C
$GAGSV,3,3,09,34,34,050,47,7*4C
$GBGSV,3,1,11,02,02,10,39,05,17,123,40,08,36,044,43,13,40,054,41,1*71
$GBGSV,3,2,11,19,19,069,45,20,08,023,,22,11,120,,24,47,222,,1*76
$GBGSV,3,3,11,25,36,299,41,26,13,178,43,35,38,069,48,1*42
$GNRMC,160014.00,A,4843.26021,N,00920.55501,E,0.023,,070225,,,A,V*16
$GNGGA,160014.00,4843.26021,N,00920.55501,E,1,12,0.50,247.9,M,47.6,M,,*48
$GPGSV,3,1,12,05,10,031,37,07,05,336,,08,05,280,,10,13,166,44,1*66
$GPGSV,3,2,12,15,01,080,,16,67,282,33,18,63,063,43,23,37,131,45,1*6C
$GPGSV,3,3,12,26,64,199,42,27,37,283,34,29,18,089,44,31,13,213,,1*6A
$GLGSV,3,1,10,70,13,017,35,71,18,064,47,72,04,109,,76,09,169,44,1*7F
$GLGSV,3,2,10,77,49,194,33,78,51,307,34,79,06,334,37,86,22,052,46,1*72
$GLGSV,3,3,10,87,67,021,39,88,41,254,,1*78
$GAGSV,3,1,09,04,00,335,,06,01,358,,09,02,020,,13,35,218,39,7*7C
$GAGSV,3,2,09,15,82,126,41,21,38,306,40,27,76,201,38,30,29,146,43,7*7C
$GAGSV,3,3,09,34,34,050,47,7*4C
$GBGSV,3,1,11,02,02,101,39,05,17,123,40,08,36,044,42,13,40,054,41,1*70
$GBGSV,3,2,11,19,19,069,44,20,08,023,,22,11,120,,24,47,222,,1*77
$GBGSV,3,3,11,25,36,299,41,26,13,178,42,35,38,069,48,1*43
$GNRMC,160015.00,A,4843.26021,N,00920.55499,E,0.038,,070225,,,A,V*1D
$GNGGA,160015.00,4843.26021,N,00920.55499,E,1,12,0.50,247.8,M,47.6,M,,*48
$GPGSV,3,1,12,05,10,031,38,07,05,336,,08,05,280,,10,13,166,44,1*69
$GPGSV,3,2,12,15,01,080,,16,67,282,32,18,63,063,43,23,37,131,45,1*6D
$GPGSV,3,3,12,26,64,199,42,27,37,283,34,29,18,089,44,31,13,213,,1*6A
$GLGSV,3,1,10,70,13,017,36,71,18,064,47,72,04,109,,76,09,169,45,1*7D
$GLGSV,3,2,10,77,49,14,33,78,51,307,34,79,06,334,36,86,22,052,46,1*73
$GLGSV,3,3,10,87,67,021,39,88,41,254,,1*78
$GAGSV,3,1,09,04,00,335,,06,01,358,,09,02,020,,13,35,218,39,7*7C
$GAGSV,3,2,09,15,82,126,41,21,38,306,40,27,76,201,38,30,29,146,42,7*7D
$GAGSV,3,3,09,34,34,050,47,7*4C
$GBGSV,3,1,11,02,02,101,38,05,17,123,40,08,36,044,42,13,40,054,41,1*71
$GBGSV,3,2,11,19,19,069,44,20,08,023,,22,11,120,,24,47,222,,1*77
$GBGSV,3,3,11,25,36,299,41,26,13,178,42,35,38,069,48,1*43
$GNRMC,160016.00,A,4843.26022,N,00920.55497,E,0.020,,070225,,,A,V*1A
$GNGGA,160016.00,4843.26022,N,00920.55497,E,1,12,0.50,247.7,M,47.6,M,,*49
$GPGSV,3,1,12,05,10,031,38,07,05,336,,08,05,280,,10,13,166,44,1*69
$GPGSV,3,2,12,15,01,080,,16,67,282,32,18,63,063,43,23,37,131,45,1*6D
$GPGSV,3,3,12,26,64,199,42,27,37,283,35,29,18,089,44,31,13,213,,1*6B
$GLGSV,3,1,10,70,13,017,36,71,18,064,47,72,04,109,,76,09,169,44,1*7C
$GLGSV,3,2,10,77,49,194,33,78,51,307,34,79,06,334,36,86,22,052,46,1*73
$GLGSV,3,3,10,87,67,021,39,88,41,254,,1*78
$GAGSV,3,1,09,04,00,335,,06,01,358,,09,02,020,,13,35,218,39,7*7C
$GAGSV,3,2,09,15,82,126,41,21,38,306,40,27,76,201,38,30,29,146,42,7*7D
$GAGSV,3,3,09,34,34,050,48,7*43
$GBGSV,3,1,11,02,02,101,39,05,17,123,40,08,36,044,42,13,40,054,41,1*70
$GBGSV,3,2,11,19,19,068,44,20,08,023,,22,11,120,,24,47,222,,1*76
$GBGSV,3,3,11,25,36,299,41,26,13,178,42,35,38,069,48,1*43
$GNRMC,160017.00,A,4843.26023,N,00920.55494,E,0.021,,070225,,,A,V*18
$GNGGA,160017.00,4843.26023,N,00920.55494,E,1,12,0.50,247.6,M,47.6,M,,*4B
$GPGSV,3,1,12,05,10,031,38,07,05,336,,08,05,280,,10,13,166,44,1*69
$GPGSV,3,2,12,15,01,080,,16,67,282,32,18,63,063,42,23,37,131,45,1*6C
$GPGSV,3,3,12,26,64,199,42,27,37,283,34,29,18,089,44,31,13,213,,1*6A
$GLGSV,3,1,10,70,13,017,36,1,18,064,47,72,04,109,,76,09,169,44,1*7C
$GLGSV,3,2,10,77,49,194,34,78,51,307,35,79,06,334,36,86,22,052,46,1*75
$GLGSV,3,3,10,87,67,021,39,88,41,254,,1*78
$GAGSV,3,1,09,04,00,335,,06,01,358,,09,02,020,,13,35,218,39,7*7C
$GAGSV,3,2,09,15,82,126,41,21,38,306,40,27,76,201,38,30,29,146,42,7*7D
$GAGSV,3,3,09,34,34,050,47,7*4C
$GBGSV,3,1,11,02,02,101,39,05,17,123,40,08,36,044,42,13,40,054,41,1*70
$GBGSV,3,2,11,19,19,068,44,20,08,023,,22,11,120,,24,47,222,,1*76
$GBGSV,3,3,11,25,36,299,41,26,13,178,43,35,38,069,48,1*42
$GNRMC,160018.00,A,4843.26024,N,00920.55492,E,0.025,,070225,,,A,V*12
$GNGGA,160018.00,4843.2602,N,00920.55492,E,1,12,0.50,247.5,M,47.6,M,,*46
$GPGSV,3,1,12,05,10,031,38,07,05,336,,08,05,280,,10,13,166,44,1*69
$GPGSV,3,2,12,15,01,080,,16,67,282,32,18,63,063,42,23,37,131,45,1*6C
$GPGSV,3,3,12,26,64,199,41,27,37,283,36,29,18,089,44,31,13,213,,1*6B
$GLGSV,3,1,10,70,13,017,36,71,18,064,47,72,04,109,,76,09,169,44,1*7C
$GLGSV,3,2,10,77,49,194,33,78,51,307,35,79,06,334,37,86,22,052,46,1*73
$GLGSV,3,3,10,87,67,021,39,88,41,254,,1*78
$GAGSV,3,1,09,04,00,335,,06,01,358,,09,02,020,,13,35,218,39,7*7C
$GAGSV,3,2,09,15,82,126,41,21,38,306,40,27,76,201,38,30,29,146,42,7*7D
$GAGSV,3,3,09,34,34,050,48,7*43
$GBGSV,3,1,11,02,02,101,39,05,17,123,40,08,36,044,42,13,40,054,41,1*70
$GBGSV,3,2,11,19,19,068,44,20,08,023,,22,11,120,,24,47,222,,1*76
$GBGSV,3,3,11,25,36,299,41,26,13,178,42,35,38,069,47,1*4C
$GNRMC,160019.00,A,4843.26024,N,00920.55492,E,0.016,,070225,,,A,V*13
$GNGGA,160019.00,4843.26024,N,00920.55492,E,1,12,0.50,247.4,M,47.6,M,,*46
$GPGSV,3,1,12,05,10,031,37,07,05,336,,08,05,280,,10,13,166,44,1*66
$GPGSV,3,2,12,15,01,080,,16,67,282,32,18,63,063,42,23,37,130,46,1*6E
$GPGSV,3,3,12,26,64,199,41,27,37,283,36,29,18,089,43,31,13,213,,1*6C
$GLGSV,3,1,10,70,13,017,35,71,18,064,46,72,04,109,,76,09,169,44,1*7E
$GLGSV,3,2,10,77,49,194,34,78,51,307,35,79,06,334,37,86,22,052,46,1*74
$GLGSV,3,3,10,87,67,021,38,88,41,254,,1*79
$GAGSV,3,1,09,04,00,335,,06,01,358,,09,02,020,,13,35,218,39,7*7C
$GAGSV,3,2,09,15,82,126,41,21,38,306,40,27,76,201,38,30,29,146,42,7*7D
$GAGSV,3,3,09,34,34,050,48,7*43
$GBGSV,3,1,11,02,02,101,39,05,17,123,40,08,36,044,42,13,40,054,41,1*70
$GBGSV,3,2,11,19,19,068,44,20,08,023,,22,11,120,,24,47,222,,1*76
$GBGSV,3,3,11,25,36,299,41,26,13,178,42,35,38,069,47,1*4C
$GNRMC,160020.00,A,4843.26024,N,00920.55492,E,0.035,,070225,,,A,V*18
$GNGGA,160020.00,4843.26024,N,00920.55492,E,1,12,0.50,247.4,M,47.6,M,,*4C
$GPGSV,3,1,12,05,10,031,37,07,05,336,,08,05,280,,10,13,166,44,1*66
$GPGSV,3,2,12,15,01,080,,16,67,282,33,18,63,063,42,23,37,130,45,1*6C
$GPGSV,3,3,12,26,64,199,41,27,37,283,36,29,18,089,44,31,13,213,,1*6B
$GLGSV,3,1,10,70,13,017,35,71,18,064,47,72,04,109,,76,09,169,44,1*7F
$GLGSV,3,2,10,77,49,194,34,78,51,307,36,79,06,334,32,86,22,052,47,1*73
$GLGSV,3,3,10,87,67,021,38,88,41,254,,1*79
$GAGSV,3,1,09,04,00,335,,06,01,358,,09,02,020,,13,35,218,39,7*7C
$GAGSV,3,2,09,15,82,126,41,21,38,306,40,27,76,201,37,30,29,146,42,7*72
$GAGSV,3,3,09,34,34,050,47,7*4C
$GBGSV,3,1,11,02,02,101,39,05,17,123,40,08,36,044,42,13,40,054,41,1*70
$GBGSV,3,2,11,19,19,068,43,20,08,023,,22,11,120,,24,47,222,,1*71
$GBGSV,3,3,11,25,36,299,39,26,13,178,43,35,38,069,46,1*43
$GNRMC,160021.00,A,4843.26024,N,00920.55490,E,0.031,,070225,,,A,V*1F
$GNGGA,160021.00,4843.26024,N,00920.55490,E,1,12,0.50,247.4,M,47.6,M,,*4F
$GPGSV,3,1,12,05,10,031,37,07,05,336,,08,05,280,,10,13,166,44,1*66
$GPGSV,3,2,12,15,01,080,,16,67,282,32,18,63,063,42,23,37,130,45,1*6D
$GPGSV,3,3,12,26,64,199,41,27,37,283,31,29,18,089,45,31,13,213,,1*6D
$GLGSV,3,1,10,70,13,017,35,71,18,064,47,72,04,109,,76,09,169,44,1*7F
$GLGSV,3,2,10,77,49,194,33,78,51,307,37,79,06,334,37,86,22,052,46,1*71
$GLGSV,3,3,10,87,67,021,38,88,41,254,,1*79
$GAGSV,3,1,09,04,00,335,,06,01,358,,09,02,020,,13,35,218,39,7*7C
$GAGSV,3,2,09,15,82,126,41,21,38,306,42,27,76,201,38,30,29,146,42,7*7F
$GAGSV,3,3,09,34,34,050,47,7*4C
$GBGSV,3,1,11,02,02,101,39,05,17,123,40,08,36,044,43,13,40,054,41,1*71
$GBGSV,3,2,11,19,19,068,45,20,08,023,,22,11,120,,24,47,222,,1*77
$GBGSV,3,3,11,25,36,299,40,26,13,178,43,35,38,069,46,1*4D
$GNRMC,160022.00,A,4843.26025,N,00920.55490,E,0.005,,070225,,,A,V*1A
$GNGGA,160022.00,4843.26025,N,00920.55490,E,1,12,0.50,247.4,M,47.6,M,,*4D
$GPGSV,3,1,12,05,10,031,37,07,05,336,,08,05,280,,10,13,166,45,1*67
$GPGSV,3,2,12,15,01,080,,16,67,282,30,18,63,063,42,23,37,130,46,1*6C
$GPGSV,3,3,12,26,64,199,41,27,37,283,36,29,18,089,44,31,13,213,,1*6B
$GLGSV,3,1,10,70,13,017,35,71,18,064,47,72,04,109,,76,09,169,44,1*7F
$GLGSV,3,2,10,77,49,194,33,78,51,307,38,79,06,334,37,86,22,052,46,1*7E
$GLGSV,3,3,10,87,67,021,38,88,41,254,,1*79
$GAGSV,3,1,09,04,00,335,,06,01,358,,09,02,020,,13,35,218,40,7*72
$GAGSV,3,2,09,15,82,126,41,21,38,306,40,27,76,201,37,30,29,146,42,7*72
$GAGSV,3,3,09,34,34,050,47,7*4C
$GBGSV,3,1,11,02,02,101,39,05,17,123,40,08,36,044,43,13,40,054,41,1*71
$GBGSV,3,2,11,19,19,068,44,20,08,023,,22,11,120,,24,47,222,,1*76
$GBGSV,3,3,1,25,36,299,41,26,13,178,43,35,38,069,46,1*4C
$GNRMC,160023.00,A,4843.26025,N,00920.55489,E,0.008,,070225,,,A,V*1E
$GNGGA,160023.00,4843.26025,N,00920.55489,E,1,12,0.50,247.4,M,47.6,M,,*44
$GPGSV,3,1,12,05,10,031,37,07,05,336,,08,05,280,,10,13,166,44,1*66
$GPGSV,3,2,12,15,01,080,,16,67,282,30,18,63,063,42,23,37,130,46,1*6C
$GPGSV,3,3,12,26,64,199,41,27,38,284,35,29,18,089,43,31,13,213,,1*67
$GLGSV,3,1,10,70,13,017,35,71,18,064,47,72,04,109,,76,09,169,45,1*7E
$GLGSV,3,2,10,77,49,194,33,78,51,307,38,79,06,334,37,86,22,052,46,1*7E
$GLGSV,3,3,10,87,67,021,38,88,41,254,,1*79
$GAGSV,3,1,09,04,00,335,,06,01,358,,09,02,020,,13,35,218,40,7*72
$GAGSV,3,2,09,15,82,126,40,21,38,306,40,27,76,201,37,30,29,146,42,7*73
$GAGSV,3,3,09,34,34,050,48,7*43
$GBGSV,3,1,11,02,02,101,39,05,17,123,40,08,36,044,43,13,40,054,41,1*71
$GBGSV,3,2,11,19,19,068,45,20,08,023,,22,11,120,,24,47,222,,1*77
$GBGSV,3,3,11,25,36,299,41,26,13,178,42,35,38,069,46,1*4D
$GNRMC,160024.00,A,4843.26025,N,00920.55489,E,0.028,,070225,,,A,V*1B
$GNGGA,160024.00,4843.26025,N,00920.55489,E,1,12,0.50,247.5,M,47.6,M,,*42
$GPGSV,3,1,12,05,10,031,38,07,05,336,,08,05,280,,10,13,166,44,1*69
$GPGSV,3,2,12,15,01,080,,16,67,282,31,18,63,063,41,23,37,130,47,1*6F
$GPGSV,3,3,12,26,64,199,41,27,38,284,35,29,18,089,44,31,13,213,,1*60
$GLGSV,3,1,10,70,13,017,35,71,18,064,46,72,04,109,,76,09,169,45,1*7F
$GLGSV,3,2,10,77,49,194,32,78,51,307,38,79,06,334,37,86,22,052,46,1*7F
$GLGSV,3,3,10,87,67,021,39,88,41,254,,1*78
$GAGSV,3,1,09,04,00,335,,06,01,358,,09,02,020,,13,35,218,40,7*72
$GAGSV,3,2,09,15,82,126,40,21,38,306,40,27,76,201,37,30,29,146,42,7*73
$GAGSV,3,3,09,34,34,050,47,7*4C
$GBGSV,3,1,11,02,02,101,39,05,17,123,40,08,36,044,43,13,40,054,41,1*71
$GBGSV,3,2,11,19,19,068,45,20,08,023,,22,11,120,,24,47,222,,1*77
$GBGSV,3,3,11,25,36,299,41,26,13,178,43,35,38,069,46,1*4C
$GNRMC,160025.00,A,4843.26026,N,00920.55488,E,0.011,,070225,,,A,V*12
$GNGGA,160025.00,4843.26026,N,00920.55488,E,1,12,0.50,247.5,M,47.6,M,,*41
$GPGSV,3,1,12,05,10,031,38,07,05,336,,08,05,280,,10,13,166,44,1*69
$GPGSV,3,2,12,15,01,080,,16,67,282,31,18,63,063,41,23,37,130,47,1*6F
$GLGSV,3,1,10,70,13,017,35,71,18,064,46,72,04,109,,76,09,169,45,1*7F
$GLGSV,3,2,10,77,49,194,31,78,51,307,38,79,06,334,37,86,22,052,47,1*7D
$GLGSV,3,3,10,87,67,021,39,88,41,254,,1*78
$GAGSV,3,1,09,04,00,335,,06,01,358,,09,02,020,,13,35,218,39,7*7C
$GAGSV,3,2,09,15,82,126,40,21,39,306,40,27,76,201,37,30,29,146,42,7*72
$GAGSV,3,3,09,34,34,050,47,7*4C
$GBGSV,3,1,11,02,02,101,39,05,17,123,40,08,36,044,43,13,40,054,41,1*71
$GBGSV,3,2,11,19,19,068,45,20,08,023,,22,11,120,,24,47,222,,1*77
$GBGSV,3,3,11,25,36,299,41,26,13,178,43,35,38,069,46,1*4C
$GNRMC,160026.00,A,4843.26026,N,00920.55488,E,0.006,,070225,,,A,V*17
$GNGGA,160026.00,4843.26026,N,00920.55488,E,1,12,0.50,247.5,M,47.6,M,,*42
$GPGSV,3,1,12,05,10,031,38,07,05,336,,08,05,280,,10,13,166,44,1*69
$GPGSV,3,2,12,15,01,080,,16,67,282,31,18,63,063,41,23,37,130,47,1*6F
$GPGSV,3,3,12,26,64,199,41,27,38,284,36,29,18,089,44,31,13,213,,1*63
$GLGSV,3,1,10,70,13,017,36,71,18,064,46,72,04,109,,76,09,169,45,1*7C
$GLGSV,3,2,10,77,49,194,31,78,51,307,38,79,06,334,36,86,22,052,47,1*7C
$GLGSV,3,3,10,87,67,021,39,88,41,254,,1*78
$GAGSV,3,1,09,04,00,335,,06,01,358,,09,02,020,,13,35,218,39,7*7C
$GAGSV,3,2,09,15,82,126,40,21,39,306,40,27,76,201,37,30,29,146,42,7*72
$GAGSV,3,3,09,34,34,050,47,7*4C
$GBGSV,3,1,11,02,02,101,39,05,17,123,40,08,36,044,42,13,40,054,41,1*70
$GBGSV,3,2,11,19,19,068,45,20,08,023,,22,11,120,,24,47,222,,1*77
$GBGSV,3,3,11,25,36,299,41,26,13,178,43,35,38,069,46,1*4C
$GNRMC,160027.00,A,4843.26026,N,00920.55490,E,0.003,,070225,,,A,V*1A
$GNGGA,160027.00,4843.26026,N,00920.55490,E,1,12,0.50,247.6,M,47.6,M,,*49
$GPGSV,3,1,12,05,10,031,38,07,05,336,,08,05,280,,10,13,166,44,1*69
$GPGSV,3,2,12,15,01,080,,16,67,282,32,18,63,063,40,23,37,130,47,1*6D
$GPGSV,3,3,12,26,64,199,42,27,38,284,36,29,18,089,44,31,12,212,,1*60
$GLGSV,3,1,10,70,13,017,36,71,18,064,46,72,04,109,,76,09,169,46,1*7F
$GLGSV,3,2,10,77,49,194,30,78,51,307,37,79,06,334,36,86,22,052,47,1*72
$GLGSV,3,3,10,87,67,021,38,88,41,254,,1*79
$GAGSV,3,1,09,04,00,335,,06,01,358,,09,02,020,,13,35,218,38,7*7D
$GAGSV,3,2,09,15,82,126,40,21,39,306,40,27,76,201,37,30,29,146,42,7*72
$GAGSV,3,3,09,34,34,050,47,7*4C
$GBGSV,3,1,11,02,02,101,39,05,17,123,40,08,36,044,43,13,40,054,41,1*71
$GBGSV,3,2,11,19,19,068,46,20,08,023,,22,11,120,,24,47,222,,1*74
$GBGSV,3,3,11,25,36,299,41,26,13,178,43,35,38,069,46,1*4C
$GNRMC,160028.00,A,4843.26027,N,00920.55490,E,0.007,,070225,,,A,V*10
$GNGGA,160028.00,4843.26027,N,00920.55490,E,1,12,0.50,247.6,M,47.6,M,,*47
$GPGSV,3,1,12,05,10,031,37,07,05,336,,08,05,280,,10,13,166,44,1*66
$GPGSV,3,2,12,15,01,080,,16,67,282,32,18,63,063,40,23,37,130,47,1*6D
$GPGSV,3,3,12,26,64,199,42,27,38,284,36,29,18,089,44,31,12,212,,1*60
$GLGSV,3,1,10,70,13,017,36,71,18,064,46,72,04,109,,76,09,169,46,1*7F
$GLGSV,3,2,10,77,49,194,30,78,51,307,38,79,06,334,36,86,22,052,47,1*7D
$GLGSV,3,3,10,87,67,021,39,88,41,254,,1*78
$GAGSV,3,1,09,04,00,335,,06,01,358,,09,02,020,,13,35,218,39,7*7C
$GAGSV,3,2,09,15,82,126,40,21,39,306,40,27,76,201,37,30,29,146,42,7*72
$GAGSV,3,3,09,34,34,050,47,7*4C
$GBGSV,3,1,11,02,02,101,39,05,17,123,40,08,36,044,43,13,40,054,41,1*71
$GBGSV,3,2,11,19,19,068,46,20,08,023,,22,11,120,,24,47,222,,1*74
$GBGSV,3,3,11,25,36,299,41,26,13,178,43,35,38,069,46,1*4C
$GNRMC,160029.00,A,4843.26027,N,00920.55490,E,0.017,,070225,,,A,V*10
$GNGGA,160029.00,4843.26027,N,00920.55490,E,1,12,0.50,247.6,M,47.6,M,,*46
$GPGSV,3,1,12,05,10,031,38,07,05,336,,08,05,280,,10,13,166,44,1*69
$GPGSV,3,2,12,15,01,080,,16,67,282,33,18,63,063,40,23,37,130,48,1*63
$GPGSV,3,3,12,26,64,199,42,27,38,284,36,29,18,089,45,31,12,212,,1*61
$GLGSV,3,1,10,70,13,017,36,71,18,064,46,72,04,109,,76,09,169,45,1*7C
$GLGSV,3,2,10,77,49,194,29,78,51,307,38,79,06,334,37,86,22,052,47,1*74
$GLGSV,3,3,10,87,67,021,39,88,41,254,,1*78
$GAGSV,3,1,09,04,00,335,,06,01,358,,09,02,020,,13,35,218,39,7*7C
$GAGSV,3,2,09,15,82,126,40,21,39,306,40,27,76,201,37,30,29,146,41,7*71
$GAGSV,3,3,09,34,34,050,47,7*4C
$GBGSV,3,1,11,02,02,101,39,05,17,123,40,08,36,044,43,13,40,054,41,1*71
$GBGSV,3,2,11,19,19,068,46,20,08,023,,22,11,120,,24,47,222,,1*74
$GBGSV,3,3,11,25,36,299,42,26,13,178,43,35,38,069,46,1*4F
$GNRMC,160030.00,A,4843.26028,N,00920.55490,E,0.002,,070225,,,A,V*13
$GNGGA,160030.00,4843.26028,N,00920.55490,E,1,12,0.50,247.7,M,47.6,M,,*40
$GPGSV,3,1,12,05,10,031,39,07,05,336,,08,05,280,,10,13,166,44,1*68
$GPGSV,3,2,12,15,01,080,,16,67,282,32,18,63,063,40,23,37,130,48,1*62
$GPGSV,3,3,12,26,64,199,42,27,38,284,36,29,18,089,45,31,12,212,,1*61
$GLGSV,3,1,10,70,13,017,36,71,18,064,46,72,04,109,,76,09,169,46,1*7F
$GLGSV,3,2,10,77,49,194,28,78,51,307,38,79,06,334,36,86,22,052,47,1*74
$GLGSV,3,3,10,87,67,021,39,88,41,254,,1*78
$GAGSV,3,1,09,04,00,335,,06,01,358,,09,02,020,,13,35,218,38,7*7D
$GAGSV,3,2,09,15,82,126,39,21,39,306,40,27,76,201,37,30,29,146,41,7*7F
$GAGSV,3,3,09,34,34,050,47,7*4C
$GBGSV,3,1,11,02,02,101,39,05,17,123,40,08,36,044,43,13,40,054,41,1*71
$GBGSV,3,2,11,19,19,068,46,20,08,023,,22,11,12,,24,47,222,,1*74
$GBGSV,3,3,11,25,36,299,41,26,13,178,43,35,38,069,46,1*4C
$GNRMC,160031.00,A,4843.26028,N,00920.55490,E,0.017,,070225,,,A,V*16
$GNGGA,160031.00,4843.26028,N,00920.55490,E,1,12,0.50,247.7,M,47.6,M,,*41
$GPGSV,3,1,12,05,10,031,38,07,05,336,,08,05,280,,10,13,166,44,1*69
$GPGSV,3,2,12,15,01,080,,16,67,282,32,18,63,063,40,23,37,130,48,1*62
$GPGSV,3,3,12,26,64,199,42,27,38,284,36,29,18,089,45,31,12,212,,1*61
$GLGSV,3,1,10,70,13,017,36,71,18,064,47,72,04,109,,76,09,169,46,1*7E
$GLGSV,3,2,10,77,49,194,27,78,51,307,38,79,06,334,36,86,22,052,47,1*7B
$GLGSV,3,3,10,87,67,021,39,88,41,254,,1*78
$GAGSV,3,1,09,04,00,335,,06,01,358,,09,02,020,,13,35,218,39,7*7C
$GAGSV,3,2,09,15,82,126,39,21,3306,39,27,76,201,37,30,29,146,41,7*71
$GAGSV,3,3,09,34,34,050,47,7*4C
$GBGSV,3,1,11,02,02,101,39,05,17,123,40,08,36,044,43,13,40,054,41,1*71
$GBGSV,3,2,11,19,19,068,46,20,08,023,,22,11,120,,24,47,222,,1*74
$GBGSV,3,3,11,25,36,299,42,26,13,178,43,35,38,06,46,1*4F
$GNRMC,160032.00,A,4843.26029,N,00920.55490,E,0.001,,070225,,,A,V*13
$GNGGA,160032.00,4843.26029,N,00920.55490,E,1,12,0.51,247.8,M,47.6,M,,*4D
$GPGSV,3,1,12,05,10,031,38,07,05,336,,08,05,280,,10,13,166,44,1*69
$GPGSV,3,2,12,15,01,080,,16,67,282,31,18,63,063,40,23,37,130,48,1*61
$GPGSV,3,3,12,26,64,199,42,27,38,284,36,29,18,089,45,31,12,212,,1*61
$GLGSV,3,1,10,70,13,017,36,71,18,064,47,72,04,109,,76,09,169,46,1*7E
$GLGSV,3,2,10,77,49,194,26,78,51,307,38,79,06,334,35,86,22,052,47,1*79
$GLGSV,3,3,10,87,67,021,40,88,41,254,,1*76
$GAGSV,3,1,09,04,00,335,,06,01,358,,09,02,020,,13,35,218,38,7*7D
$GAGSV,3,2,09,15,82,126,39,21,39,306,40,27,76,201,37,30,29,146,41,7*7F
$GAGSV,3,3,09,34,34,050,47,7*4C
$GBGSV,3,1,11,02,02,101,39,05,17,123,40,08,36,044,42,13,40,054,41,1*70
$GBGSV,3,2,11,19,19,068,46,20,08,023,,22,11,120,,24,47,222,,1*74
$GBGSV,3,3,11,25,36,299,42,26,13,178,43,35,38,069,46,1*4F
$GNGGA,160033.00,4843.26030,N,00920.55491,E,1,12,0.51,247.8,M,47.6,M,,*45
$GPGSV,3,1,12,05,10,031,38,07,05,336,,08,05,280,,10,13,166,43,1*6E
$GPGSV,3,2,12,15,01,080,,16,67,282,30,18,63,063,41,23,37,130,48,1*61
$GPGSV,3,3,12,26,64,199,42,27,38,284,37,29,18,089,46,31,12,212,,1*63
$GLGSV,3,1,10,70,13,017,36,71,18,064,48,72,04,109,,76,09,169,45,1*72
$GLGSV,3,2,10,77,49,194,28,78,51,307,38,79,06,334,36,86,22,052,47,1*74
$GLGSV,3,3,10,87,67,021,40,88,41,254,,1*76
$GAGSV,2,1,08,06,01,358,,09,02,02,,13,35,218,39,15,82,126,40,7*72
$GAGSV,2,2,08,21,39,306,40,27,76,201,37,30,29,146,41,34,34,050,47,7*78
$GBGSV,3,1,11,02,02,101,39,05,17,123,40,08,36,044,42,13,40,054,41,1*70
$GBGSV,3,2,11,19,19,068,46,20,08,023,,22,11,120,,24,47,222,,1*74
$GBGSV,3,3,11,25,36,299,42,26,13,178,43,35,38,069,46,1*4F
$GNRMC,160034.00,A,4843.26030,N,00920.55492,E,0.013,,070225,,,A,V*1C
$GNGGA,160034.00,4843.26030,N,00920.55492,E,1,12,0.51,247.9,M,47.6,M,,*40
$GPGSV,3,1,12,05,10,031,38,07,05,336,,08,05,280,,10,13,166,43,1*6E
$GPGSV,3,2,12,15,01,080,,16,67,282,30,18,63,063,41,23,37,130,48,1*61
$GPGSV,3,3,12,26,64,199,42,27,38,284,37,29,18,089,46,31,12,212,,1*63
$GLGSV,3,1,10,70,13,017,36,71,18,064,48,72,04,109,,76,09,169,45,1*72
$GLGSV,3,2,10,77,49,194,29,78,51,307,38,79,06,334,36,86,22,052,47,1*75
$GLGSV,3,3,10,87,67,021,40,88,41,254,,1*76
$GAGSV,2,1,08,06,01,358,,09,02,020,,13,35,218,39,15,82,126,40,7*72
$GAGSV,2,2,08,21,39,306,40,27,76,201,37,30,29,146,41,34,34,050,48,7*77
$GBGSV,3,1,11,02,02,101,39,05,17,123,40,08,36,044,42,13,40,054,41,1*70
$GBGSV,3,2,11,19,19,068,46,20,08,023,,22,11,120,,24,47,222,,1*74
$GBGSV,3,3,11,25,36,299,42,26,13,178,43,35,38,069,46,1*4F
$GNRMC,160035.00,A,4843.26031,N,00920.55494,E,0.019,,070225,,,A,V*10
$GNGGA,160035.00,4843.26031,N,00920.55494,E,1,12,0.50,248.0,M,47.6,M,,*41
$GPGSV,3,1,12,05,10,031,38,07,05,336,,08,05,280,,10,13,166,43,1*6E
$GPGSV,3,2,12,15,01,080,,16,67,282,28,18,63,063,41,23,37,130,48,1*68
$GPGSV,3,3,12,26,64,199,41,27,38,284,38,29,18,089,46,31,12,212,,1*6F
$GLGSV,3,1,10,70,13,017,36,71,18,064,48,72,04,109,,76,09,169,45,1*72
$GLGSV,3,2,10,77,49,194,30,78,51,307,39,79,06,334,36,86,22,052,47,1*7C
$GLGSV,3,3,10,87,67,021,39,88,41,254,,1*78
$GAGSV,2,1,08,06,01,358,,09,02,020,,13,35,218,39,15,82,126,40,7*72
$GAGSV,2,2,08,21,39,306,40,27,76,201,38,30,29,146,41,34,34,050,48,7*78
$GBGSV,3,1,11,02,02,101,39,05,17,123,39,08,36,044,43,13,40,054,41,1*7F
$GBGSV,3,2,11,19,19,068,47,20,08,023,,22,11,10,,24,47,222,,1*75
$GBGSV,3,3,11,25,36,299,42,26,13,178,43,35,38,069,46,1*4F
$GNRMC,160036.00,A,4843.26031,N,00920.55495,E,0.002,,070225,,,A,V*18
$GNGGA,160036.00,4843.26031,N,00920.55495,E,1,12,0.50,248.0,M,47.6,M,,*43
$GPGSV,3,1,12,05,10,031,38,07,05,336,,08,05,280,,10,13,166,44,1*69
$GPGSV,3,2,12,15,01,080,,16,67,282,27,18,63,063,40,23,37,130,48,1*66
$GPGSV,3,3,12,26,64,199,41,27,38,284,38,29,18,089,46,31,12,212,,1*6F
$GLGSV,3,1,10,70,13,017,35,71,18,064,49,72,04,109,,76,09,169,46,1*73
$GLGSV,3,2,10,77,49,194,30,78,51,307,39,79,06,334,36,86,22,052,47,1*7C
$GLGSV,3,3,10,87,67,021,38,88,41,254,,1*79
$GAGSV,2,1,08,06,01,358,,09,02,020,,13,35,218,39,15,82,126,40,7*72
$GAGSV,2,2,08,21,39,306,40,27,76,201,38,30,29,146,41,34,34,050,48,7*78
$GBGSV,3,1,11,02,02,101,38,05,17,123,39,08,36,044,43,13,40,054,41,1*7E
$GBGSV,3,2,11,19,19,068,47,20,08,023,,22,11,120,,24,47,222,,1*75
$GBGSV,3,3,11,25,36,299,41,26,13,178,44,35,38,069,46,1*4B
$GNRMC,160037.00,A,4843.26031,N,00920.55496,E,0.007,,070225,,,A,V*1F
$GNGGA,160037.00,4843.26031,N,00920.55496,E,1,12,0.50,248.1,M,47.6,M,,*40
$GPGSV,3,1,12,05,10,031,37,07,05,336,,08,05,280,,10,13,166,44,1*66
$GPGSV,3,2,12,15,01,080,,16,67,282,27,18,63,063,41,23,37,130,48,1*67
$GPGSV,3,3,12,26,64,199,40,27,38,284,38,29,18,089,46,31,12,212,,1*6E
$GLGSV,3,1,10,70,13,017,35,71,18,064,49,72,04,109,,76,09,169,45,1*70
$GLGSV,3,2,10,77,49,194,30,78,51,307,40,79,06,334,36,86,22,052,46,1*73
$GLGSV,3,3,10,87,67,021,38,88,41,254,,1*79
$GAGSV,2,1,08,06,01,358,,09,02,020,,13,35,218,38,15,82,126,40,7*73
$GAGSV,2,2,08,21,39,306,39,27,76,201,38,30,29,146,41,34,34,050,48,7*76
$GBGSV,3,1,11,02,02,101,38,05,17,123,40,08,36,044,43,13,40,054,41,1*70
$GBGSV,3,2,11,19,19,068,47,20,08,023,,22,11,120,,24,47,222,,1*75
$GBGSV,3,3,11,25,36,299,41,26,13,178,44,35,38,069,46,1*4B
$GNRMC,160038.00,A,4843.26031,N,00920.55496,E,0.011,,070225,,,A,V*17
$GNGGA,160038.00,4843.26031,N,00920.55496,E,1,12,0.50,248.2,M,47.6,M,,*4C
$GPGSV,3,1,12,05,10,031,37,07,05,336,,08,05,280,,10,13,166,44,1*66
$GPGSV,3,2,12,15,01,080,,16,67,282,26,18,63,063,40,23,37,130,48,1*67
$GPGSV,3,3,12,26,64,199,41,27,38,284,38,29,18,089,46,31,12,212,,1*6F
$GLGSV,3,1,10,70,13,017,35,71,18,064,49,72,04,109,,76,09,169,45,1*70
$GLGSV,3,2,10,77,49,194,31,78,51,307,40,79,06,334,36,86,22,052,46,1*72
$GLGSV,3,3,1087,67,021,37,88,41,254,,1*76
$GAGSV,2,1,08,06,01,358,,09,02,019,,13,35,218,39,15,82,126,40,7*78
$GAGSV,2,2,08,21,39,306,39,27,76,201,38,30,29,146,41,34,34,050,48,7*76
$GBGSV,3,1,11,02,02,101,38,05,17,123,39,08,36,044,43,13,40,054,41,1*7E
$GBGSV,3,2,11,19,19,068,47,20,08,023,,22,11,120,,24,47,222,,1*75
$GBGSV,3,3,11,25,36,299,41,26,13,178,44,35,38,069,46,1*4B
$GNRMC,160039.00,A,4843.26030,N,00920.55497,E,0.005,,070225,,,A,V*13
$GNGGA,160039.00,4843.26030,N,00920.55497,E,1,12,0.50,248.3,M,47.6,M,,*4C
$GPGSV,3,1,12,05,10,031,37,07,05,336,,08,05,280,,10,13,166,45,1*67
$GPGSV,3,2,12,15,01,080,,16,67,282,27,18,63,063,4023,37,130,48,1*66
$GPGSV,3,3,12,26,64,199,40,27,38,284,38,29,18,089,46,31,12,212,,1*6E
$GLGSV,3,1,10,70,13,017,34,71,18,064,49,72,04,109,,76,09,169,45,1*71
$GLGSV,3,2,10,77,49,194,31,78,51,307,40,79,06,334,37,86,22,052,46,1*73
$GLGSV,3,3,10,87,67,021,37,88,41,254,,1*76
$GAGSV,2,1,08,06,01,358,,09,02,019,,13,35,218,39,15,82,126,40,7*78
$GAGSV,2,2,08,21,39,306,40,27,76,201,38,30,29,146,41,34,34,050,48,7*78
$GBGSV,3,1,11,02,02,101,38,05,17,123,40,08,36,044,43,13,40,054,41,1*70
$GBGSV,3,2,11,19,19,068,47,20,08,023,,22,11,120,,24,47,222,,1*75
$GBGSV,3,3,11,25,36,299,41,26,13,178,44,35,38,069,46,1*4B
$GNRMC,160040.00,A,4843.26030,N,00920.55497,E,0.014,,070225,,,A,V*1D
$GNGGA,160040.00,4843.26030,N,00920.55497,E,1,12,0.50,248.3,M,47.6,M,,*42
$GPGSV,3,1,12,05,10,031,36,07,05,336,,08,05,280,,10,13,166,45,1*66
$GPGSV,3,2,12,15,01,080,,16,67,282,28,18,63,063,40,23,37,130,48,1*69
$GPGSV,3,3,12,26,64,199,40,27,38,284,37,29,18,089,46,31,12,212,,1*61
$GLGSV,3,1,10,70,13,017,34,71,18,064,49,72,04,109,,76,09,169,45,1*71
$GLGSV,3,2,10,77,49,194,32,78,51,307,40,79,06,334,36,86,22,052,46,1*71
$GLGSV,3,3,10,87,67,021,36,88,41,254,,1*77
$GAGSV,2,1,08,06,01,358,,09,02,019,,13,35,218,39,15,82,126,40,7*78
$GAGSV,2,2,08,21,39,306,39,27,76,201,39,30,29,146,41,34,34,050,48,7*77
$GBGSV,3,1,11,02,02,101,38,05,17,123,40,08,36,044,43,13,40,054,41,1*70
$GBGSV,3,2,11,19,19,068,47,20,08,023,,22,11,120,,24,47,222,,1*75
$GBGSV,3,3,11,25,36,299,41,26,13,178,44,35,38,069,46,1*4B
$GNRMC,160041.00,A,4843.26030,N,00920.55498,E,0.027,,070225,,,A,V*13
$GNGGA,160041.00,4843.26030,N,00920.55498,E,1,12,0.50,248.5,M,47.6,M,,*4A
$GPGSV,3,1,12,05,10,031,35,07,05,336,,08,05,280,,10,13,166,45,1*65
$GPGSV,3,2,12,15,01,080,,16,67,282,29,18,63,063,41,23,37,130,48,1*69
$GPGSV,3,3,12,26,64,199,40,27,38,284,37,29,18,089,46,31,12,212,,1*61
$GLGSV,3,1,10,70,13,017,34,71,18,064,49,72,04,109,,76,09,169,45,1*71
$GLGSV,3,2,10,77,49,194,32,78,51,307,40,79,06,334,36,86,22,052,46,1*71
$GLGSV,3,3,10,87,67,021,37,88,41,254,,1*76
$GAGSV,2,1,08,06,01,358,,09,02,019,,13,35,218,39,15,82,126,40,7*78
$GAGSV,2,2,08,21,39,306,39,27,76,201,38,30,29,146,41,34,34,050,48,7*76
$GBGSV,3,1,11,02,02,101,39,05,17,123,40,08,36,044,43,13,40,054,41,1*71
$GBGSV,3,2,11,19,19,068,47,20,08,023,,22,11,120,,24,47,222,,1*75
$GBGSV,3,3,11,25,36,299,41,26,13,178,44,35,38,069,46,1*4B
$GNRMC,160042.00,A,4843.26030,N,00920.55497,E,0.016,,070225,,,A,V*1D
$GNGGA,160042.00,4843.26030,N,00920.55497,E,1,12,0.50,248.6,M,47.6,M,,*45
$GPGSV,3,1,12,05,10,031,35,07,05,336,,08,05,280,,10,13,166,45,1*65
$GPGSV,3,2,12,15,01,080,,16,67,282,30,18,63,063,41,23,37,130,48,1*61
$GPGSV,3,3,12,26,64,199,40,27,38,284,36,29,18,089,46,31,12,212,,1*60
$GLGSV,3,1,10,70,13,017,34,71,18,064,49,72,04,109,,76,09,169,45,1*71
$GLGSV,3,2,10,77,49,194,32,78,51,307,41,79,06,334,36,86,22,052,46,1*70
$GLGSV,3,3,10,87,67,021,37,88,41,254,,1*76
$GAGSV,2,1,08,06,01,358,,09,02,019,,13,35,218,39,15,82,126,40,7*78
$GAGSV,2,2,08,21,39,306,39,27,76,201,38,30,29,146,41,34,34,050,48,7*76
$GBGSV,3,1,11,02,02,101,39,05,17,123,40,08,36,044,43,13,40,054,41,1*71
$GBGSV,3,2,11,19,19,068,47,20,08,023,,22,11,120,,24,47,222,,1*75
$GBGSV,3,3,11,25,36,299,40,26,13,178,44,35,38,069,46,1*4A
$GNRMC,160043.00,A,4843.26030,N,00920.55497,E,0.005,,070225,,,A,V*1E
$GNGGA,160043.00,4843.26030,N,00920.55497,E,1,12,0.50,248.7,M,47.6,M,,*45
$GPGSV,3,1,12,05,10,031,35,07,05,336,,08,05,280,,10,13,166,45,1*65
$GPGSV,3,2,12,15,01,080,,16,67,282,32,18,63,063,40,23,37,130,48,1*62
$GPGSV,3,3,12,26,64,199,40,27,38,284,36,29,18,089,46,31,12,212,,1*60
$GLGSV,3,1,10,70,13,017,34,71,18,064,49,72,04,109,,76,09,169,45,1*71
$GLGSV,3,2,10,77,49,194,32,78,51,307,41,79,06,334,36,86,22,052,46,1*70
$GLGSV,3,3,10,87,67,021,38,88,41,254,,1*79
$GAGSV,2,1,08,06,01,358,,09,02,019,,13,35,218,40,15,82,121,40,7*71
$GAGSV,2,2,08,21,39,306,39,27,76,201,38,30,29,146,41,34,34,050,48,7*76
$GBGSV,3,1,11,02,02,101,39,05,17,123,40,08,36,044,43,13,40,054,41,1*71
$GBGSV,3,2,11,19,19,068,46,20,08,023,,22,11,120,,24,47,222,,1*74
$GBGSV,3,3,11,25,36,299,40,26,13,178,44,35,38,069,46,1*4A
$GNRMC,160044.00,A,4843.26030,N,00920.55498,E,0.009,,070225,,,A,V*1A
$GNGGA,160044.00,4843.26030,N,00920.55498,E,1,12,0.50,248.8,M,47.6,M,,*42
$GPGSV,3,1,12,05,10,031,34,07,05,336,,08,05,280,,10,13,166,45,1*64
$GPGSV,3,2,12,15,01,080,,16,67,282,32,18,63,063,40,23,37,130,48,1*62
$GPGSV,3,3,12,26,64,199,41,27,38,284,37,29,18,089,46,31,12,212,,1*60
$GLGSV,3,1,10,70,13,017,35,71,18,064,49,72,04,109,,76,09,169,45,1*70
$GLGSV,3,2,10,77,49,194,32,78,51,307,41,79,06,334,36,86,22,052,46,1*70
$GLGSV,3,3,10,87,67,021,39,88,41,254,,1*78
$GAGSV,2,2,08,21,39,306,39,27,76,201,37,30,29,146,41,34,34,050,48,7*79
$GBGSV,3,1,11,02,02,101,38,05,17,123,40,08,36,044,43,13,40,054,41,1*70
$GBGSV,3,2,11,19,19,068,46,20,08,023,,22,11,120,,24,47,222,,1*74
$GBGSV,3,3,11,25,36,299,40,26,13,178,43,35,38,069,46,1*4D
$GNRMC,160045.00,A,4843.26030,N,00920.55498,E,0.006,,070225,,,A,V*14
$GNGGA,160045.00,4843.26030,N,00920.55498,E,1,12,0.50,248.8,M,47.6,M,,*43
$GPGSV,3,1,12,05,10,031,34,07,05,336,,08,05,280,,10,13,166,44,1*65
$GPGSV,3,2,12,15,01,080,,16,67,282,33,18,63,063,40,23,37,130,48,1*63
$GLGSV,3,2,10,77,49,194,32,78,51,307,40,79,06,334,36,86,22,052,46,1*71
$GLGSV,3,3,10,87,67,021,39,88,41,254,,1*78
$GAGSV,2,1,08,06,01,358,,09,02,019,,13,35,218,40,15,82,121,40,7*71
$GAGSV,2,2,08,21,39,306,39,27,76,201,37,30,29,146,41,34,34,050,48,7*79
$GBGSV,3,1,11,02,02,101,38,05,17,123,40,08,36,044,43,13,40,054,41,1*70
$GBGSV,3,2,11,19,19,068,46,20,08,023,,22,11,120,,24,47,222,,1*74
$GBGSV,3,3,11,25,36,299,40,26,13,178,43,35,38,069,46,1*4D
$GNRMC,160046.00,A,4843.26030,N,00920.55498,E,0.007,,070225,,,A,V*16
$GNGGA,160046.00,4843.26030,N,00920.55498,E,1,12,0.50,248.9,M,47.6,M,,*41
$GPGSV,3,1,12,05,10,031,34,07,05,336,,08,05,280,,10,13,166,44,1*65
$GPGSV,3,2,12,15,01,080,,16,67,282,33,18,63,063,41,23,37,130,48,1*62
$GPGSV,3,3,12,26,64,199,41,27,38,284,37,29,18,089,45,31,12,212,,1*63
$GLGSV,3,1,10,70,13,017,35,71,18,064,49,72,04,109,,76,09,169,45,1*70
$GLGSV,3,2,10,77,49,194,32,78,51,307,40,79,06,334,36,86,22,052,45,1*72
$GLGSV,3,3,10,87,67,021,39,88,41,254,,1*78
$GAGSV,2,1,08,06,01,358,,09,02,019,,13,35,218,40,15,82,121,40,7*71
$GAGSV,2,2,08,21,39,306,39,27,76,201,37,30,29,146,41,34,34,050,48,7*79
$GBGSV,3,1,11,02,02,101,38,05,17,123,40,08,36,044,43,13,40,054,41,1*70
$GBGSV,3,2,11,19,19,068,46,20,08,023,,22,11,120,,24,47,222,,1*74
$GBGSV,3,3,11,25,36,299,40,26,13,178,43,35,38,069,46,1*4D
$GNRMC,160047.00,A,4843.26030,N,00920.55499,E,0.016,,070225,,,A,V*16
$GNGGA,160047.00,4843.26030,N,00920.55499,E,1,12,0.50,249.1,M,47.6,M,,*48
$GPGSV,3,1,12,05,10,031,33,07,05,336,,08,05,280,,10,13,166,43,1*65
$GPGSV,3,2,12,15,01,080,,16,67,282,33,18,63,063,41,23,37,130,47,1*6D
$GPGSV,3,3,12,26,64,199,41,27,38,284,38,29,18,089,45,31,12,212,,1*6C
$GLGSV,3,1,10,70,13,017,35,71,18,064,48,72,04,109,,76,09,169,45,1*71
$GLGSV,3,2,10,77,49,194,32,78,51,307,40,79,06,334,37,86,22,052,45,1*73
$GLGSV,3,3,10,87,67,021,39,88,41,254,,1*78
$GAGSV,2,1,08,06,01,358,,09,02,019,,13,35,218,40,15,82,121,40,7*71
$GAGSV,2,2,08,21,39,306,39,27,76,201,36,30,29,146,42,34,34,050,48,7*7B
$GBGSV,3,1,11,02,02,101,38,05,17,123,39,08,36,044,43,13,40,054,41,1*7E
$GBGSV,3,2,11,19,19,068,46,20,08,023,,22,11,120,,24,47,222,,1*74
$GBGSV,3,3,11,25,36,299,41,26,13,178,42,35,38,069,45,1*4E
$GNRMC,160048.00,A,4843.26030,N,00920.55500,E,0.030,,070225,,,A,V*1C
$GNGGA,160048.00,4843.26030,N,00920.55500,E,1,12,0.50,249.2,M,47.6,M,,*45
$GPGSV,3,1,12,05,10,031,33,07,05,336,,08,05,280,,10,13,166,43,1*65
$GPGSV,3,2,12,15,01,080,,16,67,282,31,18,63,063,41,23,37,130,47,1*6F
$GPGSV,3,3,12,26,64,199,40,27,38,284,33,29,18,089,45,31,12,212,,1*66
$GLGSV,3,1,10,70,13,017,35,71,18,064,48,72,04,109,,76,09,169,47,1*73
$GLGSV,3,2,10,77,49,194,31,78,51,307,37,79,06,334,32,86,22,052,48,1*78
$GLGSV,3,3,10,87,67,021,40,88,41,254,,1*76
$GAGSV,2,1,08,06,01,358,,09,02,019,,13,35,218,38,15,82,121,41,7*7F
$GAGSV,2,2,08,21,39,306,29,27,76,201,36,30,29,146,40,34,34,050,48,7*78
$GBGSV,3,1,11,02,02,101,38,05,17,123,40,08,36,044,43,13,40,054,41,1*70
$GBGSV,3,2,11,19,19,068,47,20,08,023,,22,11,120,,24,47,222,,1*75
$GBGSV,3,3,11,25,36,299,35,26,13,178,43,35,38,069,44,1*4D
$GNRMC,160049.00,A,4843.26030,N,00920.55501,E,0.027,,070225,,,A,V*1A
$GNGGA,160049.00,4843.26030,N,00920.55501,E,1,12,0.50,249.3,M,47.6,M,,*44
$GPGSV,3,1,12,05,10,031,32,07,05,336,,08,05,280,,10,13,166,43,1*64
$GPGSV,3,2,12,15,01,080,,16,67,282,31,18,63,063,42,23,37,130,47,1*6C
$GPGSV,3,3,12,26,64,199,40,27,38,284,37,29,18,089,45,31,12,212,,1*62
$GLGSV,3,1,10,70,13,017,35,71,18,064,49,72,04,109,,76,09,169,44,1*71
$GLGSV,3,2,10,77,49,194,31,78,51,307,37,79,06,334,31,86,22,052,47,1*74
$GLGSV,3,3,10,87,67,021,39,88,41,254,,1*78
$GAGSV,2,1,08,06,01,358,,09,02,019,,13,35,218,41,15,82,121,41,7*71
$GAGSV,2,2,08,21,39,306,35,27,76,201,37,30,29,146,42,34,34,050,49,7*77
$GBGSV,3,1,11,02,02,101,39,05,17,123,38,08,36,044,43,13,40,054,41,1*7E
$GBGSV,3,2,11,19,19,068,46,20,08,023,,22,11,120,,24,47,222,,1*74
$GBGSV,3,3,11,25,36,299,30,26,13,178,43,35,38,069,44,1*48
$GNRMC,160050.00,A,4843.26030,N,00920.55505,E,0.025,,070225,,,A,V*14
$GNGGA,160050.00,4843.26030,N,00920.55505,E,1,12,0.50,249.4,M,47.6,M,,*4F
$GPGSV,3,1,12,05,10,031,33,07,05,336,,08,05,280,,10,13,166,45,1*63
$GPGSV,3,2,12,15,01,080,,16,67,282,32,1,63,063,41,23,37,130,48,1*63
$GPGSV,3,3,12,26,64,199,41,27,38,284,36,29,18,089,44,31,12,212,,1*63
$GLGSV,3,1,10,70,13,017,34,71,18,064,47,72,04,109,,76,09,169,45,1*7F
$GLGSV,3,2,10,77,49,194,31,78,51,307,33,79,06,334,29,86,22,052,46,1*78
$GLGSV,3,3,10,87,67,021,39,88,41,254,,1*78
$GAGSV,2,1,08,06,01,358,,09,02,019,,13,35,218,40,15,82,121,41,7*70
$GAGSV,2,2,08,21,39,306,39,27,76,201,36,30,29,146,43,34,34,050,48,7*7A
$GBGSV,3,1,11,02,02,101,38,05,17,123,40,08,36,044,43,13,40,054,42,1*73
$GBGSV,3,2,11,19,19,068,46,20,08,023,,22,11,120,,24,47,222,,1*74
$GBGSV,3,3,11,25,36,299,38,26,13,178,44,35,38,069,46,1*45
$GNRMC,160051.00,A,4843.26030,N,00920.55505,E,0.019,,070225,,,A,V*1A
$GNGGA,160051.00,4843.26030,N,00920.55505,E,1,12,0.50,249.4,M,47.6,M,,*4E
$GPGSV,3,1,12,05,10,031,32,07,05,336,,08,05,280,,10,13,166,44,1*63
$GPGSV,3,2,12,15,01,080,,16,67,282,32,18,63,063,41,23,37,130,48,1*63
$GPGSV,3,3,12,26,64,199,41,27,38,284,33,29,18,089,44,31,12,212,,1*66
$GLGSV,3,1,10,70,13,017,32,71,18,064,47,72,04,109,,76,09,169,45,1*79
$GLGSV,3,2,10,77,49,194,31,78,51,307,36,79,06,334,34,86,22,052,44,1*73
$GLGSV,3,3,10,87,67,021,39,88,41,254,,1*78
$GAGSV,2,1,08,06,01,358,,09,02,019,,13,35,218,40,15,82,121,41,7*70
$GAGSV,2,2,08,21,39,306,40,27,75,200,36,30,29,146,44,34,34,050,48,7*71
$GBGSV,3,1,11,02,02,101,38,05,17,123,40,08,36,044,43,13,40,054,41,1*70
$GBGSV,3,2,11,19,19,068,46,20,08,023,,22,11,120,,24,47,222,,1*74
$GBGSV,3,3,11,25,36,299,41,26,13,178,43,35,38,069,46,1*4C
$GNRMC,160052.00,A,4843.26031,N,00920.55506,E,0.023,,070225,,,A,V*12
$GNGGA,160052.00,4843.26031,N,00920.55506,E,1,12,0.50,249.5,M,47.6,M,,*4E
$GPGSV,3,1,12,05,10,031,32,07,05,336,,08,05,280,,10,13,166,44,1*63
$GPGSV,3,2,12,15,01,080,,16,67,282,32,18,63,063,41,23,37,130,48,1*63
$GPGSV,3,3,12,26,64,199,42,27,38,284,34,29,18,089,44,31,12,212,,1*62
$GLGSV,3,1,10,70,13,017,31,71,18,064,47,72,04,109,,76,09,169,45,1*7A
$GLGSV,3,2,10,77,49,194,32,78,51,307,36,79,06,334,34,86,22,052,44,1*70
$GLGSV,3,3,10,87,67,021,40,88,41,254,,1*76
$GAGSV,2,1,08,06,01,358,,09,02,019,,13,35,218,41,15,82,121,41,7*71
$GAGSV,2,2,08,21,39,306,40,27,75,200,36,30,29,146,43,34,34,050,47,7*79
$GBGSV,3,1,11,02,02,101,38,05,17,123,40,08,36,044,43,13,40,054,41,1*70
$GBGSV,3,2,11,19,19,068,46,20,08,023,,22,11,120,,24,47,222,,1*74
$GBGSV,3,3,11,25,36,299,40,26,13,178,44,35,38,069,46,1*4A
$GNRMC,160053.00,A,4843.26031,N,00920.55506,E,0.005,,070225,,A,V*17
$GNGGA,160053.00,4843.26031,N,00920.55506,E,1,12,0.50,249.6,M,47.6,M,,*4C
$GPGSV,3,1,12,05,10,031,32,07,05,336,,08,05,280,,10,13,166,44,1*63
$GPGSV,3,2,12,15,01,080,,16,67,282,32,18,63,063,41,23,37,130,48,1*63
$GPGSV,3,3,12,26,64,199,42,27,38,284,35,29,18,089,43,31,12,212,,1*64
$GLGSV,3,1,10,70,13,017,33,71,18,064,47,72,04,109,,76,09,169,45,1*78
$GLGSV,3,2,10,77,49,194,33,78,51,307,36,79,06,334,37,86,22,052,45,1*73
$GLGSV,3,3,10,87,67,021,40,88,41,254,,1*76
$GAGSV,2,1,08,06,01,358,,09,02,019,,13,35,218,41,15,82,121,41,7*71
$GAGSV,2,2,08,21,39,306,40,27,75,200,37,30,28,146,43,34,34,050,47,7*79
$GBGSV,3,1,11,02,02,101,38,05,17,123,40,08,36,044,43,13,40,054,40,1*71
$GBGSV,3,2,11,19,19,068,46,20,08,023,,22,11,120,,24,47,222,,1*74
$GBGSV,3,3,11,25,36,299,40,26,13,178,43,35,38,069,46,1*4D
$GNRMC,160054.00,A,4843.26032,N,00920.55507,E,0.024,,070225,,,A,V*11
$GNGGA,160054.00,4843.26032,N,00920.55507,E,1,12,0.50,249.6,M,47.6,M,,*49
$GPGSV,3,1,12,05,10,031,33,07,05,336,,08,05,280,,10,13,166,44,1*62
$GPGSV,3,2,12,15,01,080,,16,67,282,32,18,63,063,41,23,37,130,48,1*63
$GPGSV,3,3,12,26,64,199,41,27,38,284,35,29,18,089,43,31,12,212,,1*67
$GLGSV,3,1,10,70,13,017,33,71,18,064,48,72,04,109,,76,09,169,45,1*77
$GLGSV,3,2,10,77,49,194,33,78,51,307,37,79,06,334,31,86,22,052,45,1*74
$GLGSV,3,3,10,87,67,021,40,88,41,254,,1*76
$GAGSV,2,1,08,06,01,358,,09,02,019,,13,35,218,41,15,82,121,41,7*71
$GAGSV,2,2,08,21,39,306,40,27,75,200,37,30,28,146,43,34,34,050,47,7*79
$GBGSV,3,1,11,02,02,101,39,05,17,123,40,08,36,044,43,13,40,054,40,1*70
$GBGSV,3,2,11,19,19,068,46,20,08,023,,22,11,120,,24,47,222,,1*74
$GBGSV,3,3,11,25,36,299,40,26,13,178,44,35,38,069,45,1*49
$GNRMC,160055.00,A,4843.26032,N,00920.55507,E,0.008,,070225,,,A,V*1E
$GNGGA,160055.00,4843.26032,N,00920.55507,E,1,12,0.50,249.6,M,47.6,M,,*48
$GPGSV,3,1,12,05,10,031,34,07,05,336,,08,05,280,,10,13,166,44,1*65
$GPGSV,3,2,12,15,01,080,,16,67,282,31,18,63,063,41,23,37,130,48,1*60
$GPGSV,3,3,12,26,64,199,41,27,38,284,35,29,18,089,43,31,12,212,,1*67
$GLGSV,3,1,10,70,13,017,33,71,18,064,47,72,04,109,,76,09,169,45,1*78
$GLGSV,3,2,10,77,49,194,33,78,51,307,37,79,06,334,34,86,22,052,46,1*72
$GLGSV,3,3,10,87,67,021,40,88,41,254,,1*76
$GAGSV,2,1,08,06,01,358,,09,02,019,,13,35,218,41,15,82,121,42,7*72
$GAGSV,2,2,08,21,39,306,40,27,75,200,37,30,28,146,45,34,34,05,47,7*7F
$GBGSV,3,1,11,02,02,101,38,05,17,123,40,08,36,044,42,13,40,054,41,1*71
$GBGSV,3,2,11,19,19,068,46,20,08,023,,22,11,120,,24,47,222,,1*74
$GBGSV,3,3,11,25,36,299,40,26,13,178,44,35,38,069,45,1*49
$GNRMC,160056.00,A,4843.26033,N,00920.55507,E,0.025,,070225,,,A,V*13
$GNGGA,160056.00,4843.26033,N,00920.55507,E,1,12,0.50,249.7,M,47.6,M,,*4B
$GPGSV,3,1,12,05,10,031,33,07,05,336,,08,05,280,,10,13,166,44,1*62
$GPGSV,3,2,12,15,01,080,,16,67,282,30,18,63,063,41,23,37,130,48,1*61
$GPGSV,3,3,12,26,64,199,41,27,38,284,34,29,18,089,42,31,12,212,,1*67
$GLGSV,3,1,10,70,13,017,32,71,18,064,47,72,04,109,,76,09,169,45,1*79
$GLGSV,3,2,10,77,49,194,33,78,51,307,37,79,06,334,34,86,22,052,46,1*72
$GLGSV,3,3,10,87,67,021,40,88,41,254,,1*76
$GAGSV,2,1,08,06,01,358,,09,02,019,,13,35,218,41,15,82,121,42,7*72
$GAGSV,2,2,08,21,39,306,40,27,75,200,37,30,28,146,44,34,33,050,47,7*79
$GBGSV,3,1,11,02,02,101,38,05,17,123,40,08,36,044,43,13,40,054,41,1*70
$GBGSV,3,2,11,19,19,068,46,20,08,023,,22,11,120,,24,47,222,,1*74
$GBGSV,3,3,11,25,36,299,40,26,13,178,44,35,38,069,45,1*49
$GNRMC,160057.00,A,4843.26034,N,00920.55507,E,0.006,,070225,,,A,V*14
$GNGGA,160057.00,4843.26034,N,00920.55507,E,1,12,0.50,249.7,M,47.6,M,,*4D
$GPGSV,3,1,12,05,10,031,34,07,05,336,,08,05,280,,10,13,166,44,1*65
$GPGSV,3,2,12,15,01,080,,16,67,282,30,18,63,063,42,23,37,130,48,1*62
$GPGSV,3,3,12,26,64,199,41,27,38,284,34,29,18,089,42,31,12,212,,1*67
$GLGSV,3,1,10,70,13,017,32,71,18,064,48,72,04,109,,76,09,169,45,1*76
$GLGSV,3,2,10,77,49,194,33,78,51,307,37,79,06,334,33,86,22,052,46,1*75
$GLGSV,3,3,10,87,67,021,40,88,41,254,,1*76
$GAGSV,2,1,08,06,01,358,,09,02,019,,13,35,218,41,15,82,121,42,7*72
$GAGSV,2,2,08,21,39,306,40,27,75,200,37,30,28,146,44,34,33,050,47,7*79
$GBGSV,3,1,11,02,02,101,39,05,17,123,40,08,36,044,43,13,40,054,41,1*71
$GBGSV,3,2,11,19,19,068,46,20,08,023,,22,11,120,,24,47,222,,1*74
$GBGSV,3,3,11,25,36,299,40,26,13,178,44,35,38,069,45,1*49
$GNRMC,160058.00,A,4843.26035,N,00920.55506,E,0.028,,070225,,,A,V*17
$GNGGA,160058.00,4843.26035,N,00920.55506,E,1,12,0.50,249.7,M,47.6,M,,*42
$GPGSV,3,1,12,05,10,031,34,07,05,336,,08,05,280,,10,13,166,44,1*65
$GPGSV,3,2,12,15,01,080,,16,67,282,29,18,63,063,42,23,37,130,49,1*6B
$GPGSV,3,3,12,26,64,199,41,27,38,284,34,29,18,089,42,31,12,212,,1*67
$GLGSV,3,1,10,70,13,017,32,71,18,064,48,72,04,109,,76,09,169,45,1*76
$GLGSV,3,2,10,77,49,194,33,78,51,307,38,79,06,334,34,86,22,052,46,1*7D
$GLGSV,3,3,10,87,67,021,40,88,41,254,,1*76
$GAGSV,2,1,08,06,01,358,,09,02,019,,13,35,218,41,15,82,121,42,7*72
$GAGSV,2,2,08,21,39,306,40,27,75,200,37,30,28,146,44,34,33,050,47,7*79
$GBGSV,3,1,11,02,02,101,39,05,17,123,40,08,36,044,42,13,40,054,41,1*70
$GBGSV,3,2,11,19,19,068,46,20,08,023,,22,11,120,,24,47,222,,1*74
$GBGSV,3,3,11,25,36,299,40,26,13,178,44,35,38,069,45,1*49
$GNRMC,160059.00,A,4843.26035,N,00920.55504,E,0.001,,070225,,,A,V*1F
$GNGGA,160059.00,4843.26035,N,00920.55504,E,1,12,0.50,249.7,M,47.6,M,,*41
$GPGSV,3,1,12,05,10,031,33,07,05,336,,08,05,280,,10,13,166,44,1*62
$GPGSV,3,2,12,15,01,080,,16,67,282,28,18,63,063,42,23,37,130,49,1*6A
$GPGSV,3,3,12,26,64,199,41,27,38,284,34,29,18,089,42,31,12,212,,1*67
$GLGSV,3,1,10,70,13,017,34,71,18,064,47,72,04,109,,76,09,169,45,1*7F
$GLGSV,3,2,10,77,49,194,33,78,51,307,39,79,06,334,34,86,22,052,46,1*7C
$GLGSV,3,3,10,87,67,021,40,88,41,254,,1*76
$GAGSV,2,1,08,06,01,358,,09,02,019,,13,35,218,40,15,82,121,42,7*73
$GAGSV,2,2,08,21,39,306,40,27,75,200,37,30,28,146,43,34,33,050,47,7*7E
$GBGSV,3,1,11,02,02,101,39,05,17,123,39,08,36,044,43,13,40,054,40,1*7E
$GBGSV,3,2,11,19,19,068,46,20,08,023,,22,11,120,,24,47,222,,1*74
$GBGSV,3,3,11,25,36,299,40,26,13,178,43,35,38,069,45,1*4E
$GNRMC,160100.00,A,4843.26036,N,00920.55503,E,0.014,,070225,,,A,V*12
$GNGGA,160100.00,4843.26036,N,00920.55503,E,1,12,0.50,249.6,M,47.6,M,,*49
$GPGSV,3,1,12,05,10,031,33,07,05,336,,08,05,280,,10,13,166,44,1*62
$GPGSV,3,2,12,15,01,080,,16,67,282,28,18,63,063,42,23,37,130,49,1*6A
$GPGSV,3,3,12,26,64,199,41,27,38,284,33,29,18,089,41,31,12,212,,1*63
$GLGSV,3,1,10,70,13,017,34,71,18,064,47,72,04,109,,76,09,169,45,1*7F
$GLGSV,3,2,10,77,49,194,33,78,51,307,38,79,06,334,32,86,22,052,46,1*7B
$GLGSV,3,3,10,87,67,021,40,88,41,254,,1*76
$GAGSV,2,1,08,06,01,358,,09,02,019,,13,35,218,40,15,82,121,42,7*73
$GAGSV,2,2,08,21,39,306,40,27,75,200,37,30,28,146,44,34,33,050,48,7*76
$GBGSV,3,1,11,02,02,101,39,05,17,123,39,08,36,044,43,13,40,054,41,1*7F
$GBGSV,3,2,11,19,19,068,46,20,08,023,,22,11,120,,24,47,222,,1*74
$GBGSV,3,3,11,25,36,299,40,26,13,178,44,35,38,069,45,1*49
$GNRMC,160101.00,A,4843.26038,N,00920.55502,E,0.015,,070225,,,A,V*1D
$GNGGA,160101.00,4843.26038,N,00920.55502,E,1,12,0.50,249.6,M,47.6,M,,*47
$GPGSV,3,1,12,05,10,031,33,07,05,336,,08,05,280,,10,13,166,44,1*62
$GPGSV,3,2,12,15,01,080,,16,67,282,26,18,63,063,42,23,37,130,49,1*64
$GPGSV,3,3,12,26,64,199,41,27,38,284,31,29,18,089,41,31,12,212,,1*61
$GLGSV,3,1,10,70,13,017,35,71,18,064,47,72,04,109,,76,09,169,45,1*7E
$GLGSV,3,2,10,77,49,194,33,78,51,307,38,79,06,334,33,86,22,052,46,1*7A
$GLGSV,3,3,10,87,67,021,40,88,41,254,,1*76
$GAGSV,2,1,08,06,01,358,,09,02,019,,13,35,218,41,15,82,121,42,7*72
$GAGSV,2,2,08,21,39,306,40,27,75,200,36,30,28,146,43,34,33,050,47,7*7F
$GBGSV,3,1,11,02,02,101,38,05,17,123,39,08,36,044,42,13,40,054,41,1*7F
$GBGSV,3,2,11,19,19,068,47,20,08,023,,22,11,120,,24,47,222,,1*75
$GBGSV,3,3,11,25,36,299,40,26,13,178,44,35,38,069,46,1*4A
$GNRMC,160102.00,A,4843.26038,N,00920.55500,E,0.010,,070225,,,A,V*19
$GNGGA,160102.00,4843.26038,N,00920.55500,E,1,12,0.50,249.6,M,47.6,M,,*46
$GPGSV,3,1,12,05,10,031,33,07,05,336,,08,05,280,,10,13,166,43,1*65
$GPGSV,3,2,12,15,01,080,,16,67,282,26,18,63,063,42,23,37,130,49,1*64
$GPGSV,3,3,12,26,64,199,40,27,38,284,32,29,18,089,41,31,12,212,,1*63
$GLGSV,3,1,10,70,13,017,34,71,18,064,47,72,04,109,,76,09,169,45,1*7F
$GLGSV,3,2,10,77,49,194,33,78,51,307,38,79,06,334,28,86,22,052,46,1*70
$GLGSV,3,3,10,87,67,021,40,88,41,254,,1*76
$GAGSV,2,1,08,06,01,358,,09,02,019,,13,35,218,40,15,82,121,42,7*73
$GAGSV,2,2,08,21,39,306,40,27,75,200,36,30,28,146,44,34,33,050,47,7*78
$GBGSV,3,1,11,02,02,101,38,05,17,123,39,08,36,044,42,13,40,054,41,1*7F
$GBGSV,3,2,11,19,19,068,46,20,08,023,,22,11,120,,24,47,222,,1*74
$GBGSV,3,3,11,25,36,299,40,26,13,178,44,35,38,069,46,1*4A
$GNRMC,160103.00,A,4843.26039,N,00920.55500,E,0.010,,070225,,,A,V*19
$GNGGA,160103.00,4843.26039,N,00920.55500,E,1,12,0.50,249.6,M,47.6,M,,*46
$GPGSV,3,1,12,05,10,031,32,07,05,336,,08,05,280,,10,13,166,43,1*64
$GPGSV,3,2,12,15,01,080,,16,67,282,26,18,63,063,42,23,37,130,49,1*64
$GPGSV,3,3,12,26,64,199,40,27,38,284,31,29,18,089,41,31,12,212,,1*60
$GLGSV,3,1,10,70,13,017,35,71,18,064,47,72,04,109,,76,09,169,45,1*7E
$GLGSV,3,2,10,77,49,194,34,78,51,307,37,79,06,334,34,86,22,052,46,1*75
$GLGSV,3,3,10,87,67,021,40,88,41,254,,1*76
$GAGSV,2,1,08,06,01,358,,09,02,019,,13,35,218,41,15,82,121,42,7*72
$GAGSV,2,2,08,21,39,306,40,27,75,200,36,30,28,146,44,34,33,050,47,7*78
$GBGSV,3,1,11,02,02,101,39,05,17,123,39,08,36,044,43,13,40,054,41,1*7F
$GBGSV,3,2,11,19,19,068,46,20,08,023,,22,11,120,,24,47,222,,1*74
$GBGSV,3,3,11,25,36,299,40,26,13,178,44,35,38,069,46,1*4A
$GNGGA,160104.00,4843.26039,N,00920.55499,E,1,12,0.50,249.5,M,47.6,M,,*43
$GPGSV,3,1,12,05,10,031,33,07,05,336,,08,05,280,,10,13,166,43,1*65
$GPGSV,3,2,12,15,01,080,,16,67,282,27,18,63,063,42,23,37,130,49,1*65
$GPGSV,3,3,12,26,64,199,40,27,38,284,31,29,18,089,41,31,12,212,,1*60
$GLGSV,3,1,10,70,13,017,35,71,18,064,47,72,04,109,,76,09,169,45,1*7E
$GLGSV,3,2,10,77,49,194,34,78,51,307,37,79,06,334,33,86,22,052,46,1*72
$GLGSV,3,3,10,87,67,021,41,88,41,254,,1*77
$GAGSV,2,1,08,06,01,358,,09,02,019,,13,35,218,40,15,82,121,42,7*73
$GAGSV,2,2,08,21,39,306,40,27,75,200,36,30,28,146,44,34,33,050,48,7*77
$GBGSV,3,1,11,02,02,101,39,05,17,123,39,08,36,044,43,13,40,054,41,1*7F
$GBGSV,3,2,11,19,19,068,46,20,08,023,,22,11,120,,24,47,222,,1*74
$GBGSV,3,3,11,25,36,299,40,26,13,178,44,35,38,069,46,1*4A
$GNRMC,160105.00,A,4843.26040,N,00920.55497,E,0.007,,070225,,,A,V*18
$GNGGA,160105.00,4843.26040,N,00920.55497,E,1,12,0.50,249.5,M,47.6,M,,*42
$GPGSV,3,1,12,05,10,031,33,07,05,336,,08,05,280,,10,13,166,44,1*62
$GPGSV,3,2,12,15,01,080,,16,67,282,28,18,63,063,42,23,37,130,49,1*6A
$GPGSV,3,3,12,26,64,199,41,27,38,284,32,29,18,089,41,31,12,212,,1*62
$GLGSV,3,1,10,70,13,017,35,71,18,064,46,72,04,109,,76,09,169,45,1*7F
$GLGSV,3,2,10,77,49,194,33,78,51,307,37,79,06,334,33,86,22,052,45,1*76
$GLGSV,3,3,10,87,67,021,41,88,41,254,,1*77
$GAGSV,2,1,08,06,01,358,,09,02,019,,13,35,218,40,15,82,121,42,7*73
$GAGSV,2,2,08,21,39,306,40,27,75,200,36,30,28,146,44,34,33,050,48,7*77
$GBGSV,3,1,11,02,02,101,38,05,17,123,39,08,36,044,43,13,40,054,41,1*7E
$GBGSV,3,2,11,19,19,068,46,20,08,023,,22,11,120,,24,47,222,,1*74
$GBGSV,3,3,11,25,36,299,40,26,13,178,44,35,38,069,46,1*4A
$GNRMC,160106.00,A,4843.26041,N,00920.55496,E,0.018,,070225,,,A,V*15
$GNGGA,160106.00,4843.26041,N,00920.55496,E,1,12,0.50,249.4,M,47.6,M,,*40
$GPGSV,3,1,12,05,10,031,33,07,05,336,,08,05,280,,10,13,166,44,1*62
$GPGSV,3,2,12,15,01,080,,16,67,282,28,18,63,063,42,23,37,130,49,1*6A
$GPGSV,3,3,12,26,64,199,41,27,38,284,32,29,18,089,43,31,12,212,,1*60
$GLGSV,3,1,10,70,13,017,34,71,18,064,46,72,04,109,,76,09,169,45,1*7E
$GLGSV,3,2,10,77,49,194,33,78,51,307,37,79,06,334,34,86,22,052,45,1*71
$GLGSV,3,3,10,87,67,021,42,88,41,254,,1*74
$GAGSV,2,1,08,06,01,358,,09,02,019,,13,35,218,40,15,82,121,42,7*73
$GAGSV,2,2,08,21,39,306,40,27,75,200,36,30,28,146,44,34,33,050,48,7*77
$GBGSV,3,1,11,02,02,101,38,05,17,123,39,08,36,044,43,13,40,054,41,1*7E
$GBGSV,3,2,11,19,19,068,46,20,08,023,,22,11,120,,24,47,222,,1*74
$GBGSV,3,3,11,25,36,299,41,26,13,178,43,35,38,069,45,1*4F
$GNRMC,160107.00,A,4843.26041,N,00920.55495,E,0.010,,070225,,,A,V*1F
$GNGGA,160107.00,4843.26041,N,00920.55495,E,1,12,0.50,249.4,M,47.6,M,,*42
$GPGSV,3,1,12,05,10,031,34,07,05,336,,08,05,280,,10,13,166,44,1*65
$GPGSV,3,2,12,15,01,080,,16,67,282,28,18,63,063,42,23,37,130,49,1*6A
$GPGSV,3,3,12,26,64,199,41,27,38,284,31,29,18,089,42,31,12,212,,1*62
$GLGSV,3,1,10,70,13,017,35,71,18,064,46,72,04,109,,76,09,169,45,1*7F
$GLGSV,3,2,10,77,49,194,33,78,51,307,37,79,06,334,33,86,22,052,45,1*76
$GLGSV,3,3,10,87,67,021,41,88,41,254,,1*77
$GAGSV,2,1,08,06,01,358,,09,02,019,,13,35,218,40,15,82,121,42,7*73
$GAGSV,2,2,08,21,39,306,39,27,75,200,36,30,28,146,44,34,33,05,48,7*79
$GBGSV,3,1,11,02,02,101,38,05,17,123,39,08,36,044,43,13,40,053,41,1*79
$GBGSV,3,2,11,19,19,068,46,20,08,023,,22,11,120,,24,47,222,,1*74
$GBGSV,3,3,11,25,36,299,41,26,13,178,44,35,38,069,46,1*4B
$GNRMC,160108.00,A,4843.26042,N,00920.55493,E,0.008,,070225,,,A,V*1C
$GNGGA,160108.00,4843.26042,N,00920.55493,E,1,12,0.50,249.3,M,47.6,M,,*4F
$GPGSV,3,1,12,05,10,031,34,07,05,336,,08,05,280,,10,13,166,44,1*65
$GPGSV,3,2,12,15,01,080,,16,67,282,28,18,63,063,42,23,37,130,49,1*6A
$GPGSV,3,3,12,26,64,199,41,27,38,284,32,29,18,089,42,31,12,212,,1*61
$GLGSV,3,1,10,70,13,017,34,71,18,064,46,72,04,109,,76,09,169,45,1*7E
$GLGSV,3,2,10,77,49,194,33,78,51,307,37,79,06,334,32,86,22,052,45,1*77
$GLGSV,3,3,10,87,67,021,41,88,41,254,,1*77
$GAGSV,2,1,08,06,01,358,,09,02,019,,13,35,218,40,15,82,121,42,7*73
$GAGSV,2,2,08,21,39,306,39,27,75,200,35,30,28,146,44,34,33,050,48,7*7A
$GBGSV,3,1,11,02,02,101,38,05,17,123,39,08,36,044,43,13,40,053,41,1*79
$GBGSV,3,2,11,19,19,068,46,20,08,023,,22,11,120,,24,47,222,,1*74
