$GNRMC,11511.00,A,4843.26046,N,00920.55597,E,0.011,,080225,,,A,V*11
$GNGGA,101511.00,4843.26046,N,00920.55597,E,1,12,0.44,250.8,M,47.6,M,,*43
$GPGSV,3,1,12,06,21,081,44,10,01,266,,11,14,114,47,12,84,323,39,1*6E
$GPGSV,3,2,12,15,01,180,,17,02,036,,19,27,047,41,24,55,137,46,1*61
$GPGSV,3,3,12,25,46,263,26,28,02,304,,29,08,201,42,32,33,303,35,1*6F
$GLGSV,3,1,10,65,21,224,38,66,40,281,34,67,17,337,35,74,10,085,44,1*75
$GLGSV,3,2,10,75,57,056,47,76,47,297,33,77,05,278,,84,29,038,30,1*71
$GLGSV,3,3,10,85,41,104,46,86,10,155,,1*78
$GAGSV,3,1,12,03,22,318,38,05,52,262,,06,13,175,41,09,31,190,35,7*73
$GAGSV,3,2,12,12,03,137,,16,41,256,,23,05,070,,24,68,263,39,7*71
$GAGSV,3,3,12,25,17,253,40,26,14,038,38,31,54,064,45,33,19,087,41,7*72
$GBGSV,3,1,09,05,15,124,43,07,09,050,,10,21,054,43,19,09,215,35,1*72
$GBGSV,3,2,09,21,17,318,35,22,26,265,,27,43,089,48,28,20,043,44,1*72
$GBGSV,3,3,09,30,32,154,39,1*47
$GNRMC,110000.00,A,4843.25975,N,00920.55437,E,0.012,,080225,,,A,V*16
$GNGGA,110000.00,4843.25975,N,00920.55437,E,1,12,0.47,249.9,M,47.6,M,,*4D
$GPGSV,3,1,10,03,02,354,,06,25,060,43,11,27,097,49,12,70,059,43,1*6D
$GPGSV,3,2,10,19,09,042,,24,34,145,44,25,65,281,27,28,19,308,34,1*66
$GPGSV,3,3,10,29,28,204,28,32,37,280,42,1*61
$GLGSV,3,1,10,65,00,214,13,66,26,255,42,67,26,316,45,68,03,357,,1*71
$GLGSV,3,2,10,75,40,084,41,76,64,329,41,77,22,294,,84,15,021,29,1*76
$GLGSV,3,3,10,85,49,070,44,86,32,148,46,1*7E
$GAGSV,3,1,11,03,31,305,32,05,43,239,,09,14,188,41,10,07,149,,7*7F
$GAGSV,3,2,11,12,18,129,43,16,54,271,30,24,81,310,35,25,29,265,30,7*71
$GAGSV,3,3,11,26,10,025,,31,40,073,40,33,27,072,45,7*46
$GBGSV,3,1,09,05,15,124,35,07,04,054,,10,17,057,36,21,17,301,42,1*7E
$GBGSV,3,2,09,22,13,250,43,27,41,065,48,28,08,034,,29,11,189,43,1*7A
$GBGSV,3,3,09,30,50,143,44,1*4F
$GNRMC,110001.00,A,4843.25976,N,00920.55436,E,0.017,,080225,,,A,V*10
$GNGGA,110001.00,4843.25976,N,00920.55436,E,1,12,0.47,249.9,M,47.6,M,,*4E
$GPGSV,3,1,10,03,02,354,,06,25,060,43,11,27,097,49,12,70,059,43,1*6D
$GPGSV,3,2,10,19,09,042,,24,34,145,45,25,65,281,29,28,19,308,35,1*68
$GPGSV,3,3,10,29,28,204,26,32,37,280,43,1*6E
$GLGSV,3,1,10,65,00,214,14,66,26,255,42,67,27,315,44,68,03,357,,1*75
$GLGSV,3,2,10,75,40,084,42,76,64,329,41,77,22,294,,84,15,021,28,1*74
$GLGSV,3,3,10,85,49,070,45,86,32,148,45,1*7C
$GAGSV,3,1,11,03,31,305,33,05,43,239,,09,14,188,41,10,07,149,,7*7E
$GAGSV,3,2,11,12,18,129,43,16,54,271,30,24,81,310,35,25,29,265,31,7*70
$GAGSV,3,3,11,26,10,025,,31,40,073,40,33,27,072,45,7*46
$GBGSV,3,1,09,05,15,12435,07,04,054,,10,17,057,36,21,17,301,42,1*7E
$GBGSV,3,2,09,22,13,250,42,27,41,065,48,28,08,034,,29,11,189,43,1*7B
$GBGSV,3,3,09,30,50,143,44,1*4F
$GNRMC,110002.00,A,4843.25977,N,00920.55435,E,0.015,,080225,,,A,V*13
$GNGGA,110002.00,4843.25977,N,00920.55435,E,1,12,0.47,250.0,M,47.6,M,,*4E
$GPGSV,3,1,10,03,02,354,,06,25,060,43,11,27,097,49,12,70,059,42,1*6C
$GPGSV,3,2,10,19,09,042,,24,34,145,44,25,65,281,29,28,20,308,34,1*62
$GPGSV,3,3,10,29,28,204,24,32,37,280,43,1*6C
$GLGSV,3,1,10,65,00,214,11,66,26,255,43,67,27,315,45,68,03,356,,1*71
$GLGSV,3,2,10,75,40,084,41,76,64,329,42,77,22,294,,84,15,021,29,1*75
$GLGSV,3,3,10,85,49,070,45,86,32,148,45,1*7C
$GAGSV,3,1,11,03,31,305,33,05,43,239,,09,14,188,41,10,07,149,,7*7E
$GAGSV,3,2,11,12,18,129,43,16,54,271,30,24,81,310,35,25,29,265,30,7*71
$GAGSV,3,3,11,26,10,025,,31,40,073,40,33,27,072,45,7*46
$GBGSV,3,1,09,05,15,124,35,07,04,054,,10,17,057,36,21,17,301,42,1*7E
$GBGSV,3,2,09,22,13,250,41,27,41,065,47,28,08,034,,29,11,189,43,1*77
$GBGSV,3,3,09,30,50,143,44,1*4F
$GNRMC,110003.00,A,4843.25978,N,00920.55436,E,0.013,,080225,,,A,V*18
$GNGGA,110003.00,4843.25978,N,00920.55436,E,1,12,0.47,250.0,M,47.6,M,,*43
$GPGSV,3,1,10,03,02,354,,06,25,060,43,11,27,097,49,12,70,059,431*6D
$GPGSV,3,2,10,19,09,042,,24,34,145,44,25,65,281,30,28,20,308,34,1*6A
$GPGSV,3,3,10,29,28,204,23,32,37,280,43,1*6B
$GLGSV,3,1,10,65,00,214,13,66,26,255,43,67,27,315,45,68,03,356,,1*73
$GLGSV,3,2,10,75,40,084,41,76,64,329,42,77,22,294,,84,15,021,29,1*75
$GLGSV,3,3,10,85,49,070,46,86,32,148,46,1*7C
$GAGSV,3,1,11,03,31,305,32,05,43,239,,09,14,188,42,10,07,149,,7*7C
$GAGSV,3,2,11,12,18,129,43,16,54,271,31,24,81,310,35,25,29,265,30,7*70
$GAGSV,3,3,11,26,10,025,,31,40,073,40,33,27,072,45,7*46
$GBGSV,3,1,09,05,15,124,35,07,04,054,,10,17,057,36,21,17,301,42,1*7E
$GBGSV,3,2,09,22,13,250,41,27,41,065,47,28,08,034,,29,11,189,43,1*77
$GBGSV,3,3,09,30,50,143,44,1*4F
$GNRMC,110004.00,A,4843.25979,N,00920.55436,E,0.027,,080225,,,A,V*19
$GNGGA,110004.00,4843.25979,N,00920.55436,E,1,12,0.47,250.0,M,47.6,M,,*45
$GPGSV,3,1,10,03,02,354,,06,25,060,43,11,27,097,49,12,70,059,43,1*6D
$GPGSV,3,2,10,19,09,042,,24,34,145,44,25,65,281,30,28,20,308,35,1*6B
$GPGSV,3,3,10,29,28,204,22,32,37,280,42,1*6B
$GLGSV,3,1,10,65,00,214,11,66,26,255,41,67,27,315,44,68,03,356,,1*72
$GLGSV,3,2,10,75,40,084,39,76,64,329,42,77,22,294,,84,15,021,29,1*7A
$GLGSV,3,3,10,85,49,070,45,86,32,148,46,1*7F
$GAGSV,3,1,11,03,31,305,32,05,43,239,,09,14,188,41,10,07,149,,7*7F
$GAGSV,3,2,11,12,18,129,43,16,54,271,31,24,81,310,35,25,29,265,30,7*70
$GAGSV,3,3,11,26,10,025,,31,40,073,42,33,27,072,45,7*44
$GBGSV,3,1,09,05,15,124,34,07,04,054,,10,17,057,36,21,17,301,40,1*7D
$GBGSV,3,2,09,22,13,250,41,27,41,065,48,28,08,034,,29,11,189,43,1*78
$GBGSV,3,3,09,30,50,143,44,1*4F
$GNRMC,110005.00,A,4843.25980,N,00920.55437,E,0.003,,080225,,,A,V*19
$GNGGA,110005.00,4843.25980,N,00920.55437,E,1,12,0.48,250.0,M,47.6,M,,*4C
$GPGSV,3,1,10,03,02,354,,06,25,060,43,11,27,097,49,12,70,059,43,1*6D
$GPGSV,3,2,10,19,09,042,,24,34,145,44,25,65,281,30,28,20,308,35,1*6B
$GPGSV,3,3,10,29,28,204,23,32,37,280,42,1*6A
$GLGSV,3,1,10,65,00,214,11,66,26,255,42,67,27,315,45,68,03,356,,1*70
$GLGSV,3,2,10,75,40,084,43,76,64,329,43,77,22,294,,84,15,021,29,1*76
$GLGSV,3,3,10,85,49,070,45,86,32,148,45,1*7C
$GAGSV,3,1,11,03,31,305,32,05,43,239,,09,14,188,41,10,07,149,,7*7F
$GAGSV,3,2,11,12,18,129,44,16,54,271,31,24,81,310,35,25,29,265,29,7*7F
$GAGSV,3,3,11,26,10,025,,31,40,073,40,33,27,072,45,7*46
$GBGSV,3,1,09,05,15,124,35,07,04,054,,10,17,057,36,21,17,301,42,1*7E
$GBGSV,3,2,09,22,13,250,39,27,41,065,47,28,08,034,,29,11,189,44,1*7F
$GBGSV,3,3,09,30,50,143,44,1*4F
$GNRMC,110006.00,A,4843.25979,N,00920.55437,E,0.031,,080225,,,A,V*1D
$GNGGA,110006.00,4843.25979,N,00920.55437,E,1,12,0.48,250.0,M,47.6,M,,*49
$GPGSV,3,1,10,03,02,354,,06,25,060,42,11,27,097,48,12,70,059,44,1*6A
$GPGSV,3,2,10,19,09,042,,24,34,145,44,25,65,281,30,28,20,308,35,1*6B
$GPGSV,3,3,10,29,28,204,25,32,37,280,42,1*6C
$GLGSV,3,1,10,65,00,214,11,66,26,255,41,67,27,315,43,68,03,356,,1*75
$GLGSV,3,2,10,75,40,084,44,76,64,329,43,77,22,294,,84,15,021,29,1*71
$GLGSV,3,3,10,85,49,070,44,86,32,148,43,1*7B
$GAGSV,3,1,11,03,31,305,33,05,43,239,,09,14,188,41,10,07,149,,7*7E
$GAGSV,3,2,11,12,18,129,44,16,4,271,31,24,81,310,35,25,29,265,30,7*77
$GAGSV,3,3,11,26,10,025,,31,40,073,40,33,27,072,45,7*46
$GBGSV,3,1,09,05,15,124,34,07,04,054,,10,17,057,36,21,17,301,38,1*72
$GBGSV,3,2,09,22,13,250,40,27,41,065,47,28,08,034,,29,11,189,42,1*77
$GBGSV,3,3,09,30,50,143,44,1*4F
$GNRMC,110007.00,A,4843.25979,N,00920.55437,E,0.018,,080225,,,A,V*17
$GNGGA,110007.00,4843.25979,N,00920.55437,E,1,12,0.48,250.0,M,47.6,M,,*48
$GPGSV,3,1,10,03,02,354,,06,25,060,42,11,27,097,48,12,70,059,44,1*6A
$GPGSV,3,2,10,19,09,042,,24,34,145,44,25,65,281,29,28,20,308,35,1*63
$GPGSV,3,3,10,29,28,204,25,32,37,280,42,1*6C
$GLGSV,3,1,10,65,00,214,12,66,26,255,42,67,27,315,45,68,03,356,,1*73
$GLGSV,3,2,10,75,40,084,41,76,64,329,43,77,22,294,,84,15,021,29,1*74
$GLGSV,3,3,10,85,49,070,46,86,32,148,44,1*7E
$GAGSV,3,1,11,03,31,305,33,05,43,239,,09,14,188,41,10,07,149,,7*7E
$GAGSV,3,2,11,12,18,129,44,16,54,271,31,24,81,310,35,25,29,265,29,7*7F
$GAGSV,3,3,11,26,10,025,,31,40,073,40,33,27,072,46,7*45
$GBGSV,3,1,09,05,15,124,35,07,04,054,,10,17,057,36,21,17,301,42,1*7E
$GBGSV,3,3,09,30,50,143,44,1*4F
$GNRMC,110008.00,A,4843.25980,N,00920.55437,E,0.010,,080225,,,A,V*16
$GNGGA,110008.00,4843.25980,N,00920.55437,E,1,12,0.48,250.0,M,47.6,M,,*41
$GPGSV,3,1,10,03,02,354,,06,25,060,42,11,27,097,48,12,70,059,44,1*6A
$GPGSV,3,2,10,19,09,042,,24,34,145,44,25,65,281,28,28,20,308,35,1*62
$GPGSV,3,3,10,29,28,204,25,32,37,280,41,1*6F
$GLGSV,3,1,10,65,00,214,14,66,26,255,43,67,27,31545,68,03,356,,1*74
$GLGSV,3,2,10,75,40,084,41,76,64,329,43,77,22,294,,84,15,021,29,1*74
$GLGSV,3,3,10,85,49,070,46,86,32,148,44,1*7E
$GAGSV,3,1,11,03,31,305,32,05,43,239,,09,14,188,41,10,07,149,,7*7F
$GAGSV,3,2,11,12,18,129,44,16,54,271,32,24,81,310,35,25,29,265,28,7*7D
$GAGSV,3,3,11,26,10,025,,31,40,073,40,33,27,072,45,7*46
$GBGSV,3,1,09,05,15,124,35,07,04,054,,10,17,057,36,21,17,301,42,1*7E
$GBGSV,3,2,09,22,13,250,40,27,41,065,47,28,08,034,,29,11,189,42,1*77
$GBGSV,3,3,09,30,50,143,44,1*4F
$GNRMC,110009.00,A,4843.25980,N,00920.55437,E,0.041,,080225,,,A,V*13
$GNGGA,110009.00,4843.25980,N,00920.55437,E,1,12,0.48,250.0,M,47.6,M,,*40
$GPGSV,3,1,10,03,02,354,,06,25,060,42,11,27,097,48,12,70,059,45,1*6B
$GPGSV,3,2,10,19,09,042,,24,34,145,43,25,65,281,29,28,20,308,35,1*64
$GPGSV,3,3,10,29,28,204,25,32,37,280,40,1*6E
$GLGSV,3,1,10,65,00,214,13,66,26,255,41,67,27,315,43,68,03,356,,1*77
$GLGSV,3,2,10,75,39,085,41,76,64,329,43,77,22,294,,84,15,021,29,1*7B
$GLGSV,3,3,10,85,49,070,47,86,32,148,42,1*79
$GAGSV,3,1,11,03,31,305,32,05,43,239,,09,14,188,41,10,07,149,,7*7F
$GAGSV,3,2,11,12,18,129,44,16,54,271,32,24,81,310,35,25,29,265,28,7*7D
$GAGSV,3,3,11,26,10,025,,31,40,073,41,33,27,072,46,7*44
$GBGSV,3,1,09,05,15,124,35,07,04,054,10,17,057,36,2117,301,39,1*72
$GBGSV,3,2,09,22,13,250,42,27,41,065,47,28,08,034,,29,11,189,43,1*74
$GBGSV,3,3,09,30,50,143,43,1*48
$GNRMC,110010.00,A,4843.25980,N,00920.55437,E,0.012,,080225,,,A,V*1D
$GPGSV,3,1,10,03,02,354,,06,25,060,43,11,27,097,47,12,70,059,45,1*65
$GPGSV,3,2,10,19,09,042,,24,34,145,44,25,65,281,27,28,20,308,35,1*6D
$GPGSV,3,3,10,29,28,204,23,32,37,280,40,1*68
$GLGSV,3,1,10,65,00,214,12,66,26,255,43,67,27,315,44,68,03,356,,1*73
$GLGSV,3,2,10,75,39,085,42,76,64,331,43,77,22,294,,84,14,021,29,1*70
$GLGSV,3,3,10,85,49,069,47,86,33,147,43,1*7E
$GAGSV,3,1,11,03,31,305,33,05,43,239,,09,14,188,41,10,07,149,,7*7E
$GAGSV,3,2,11,12,18,129,44,16,54,271,33,24,81,310,35,25,29,265,27,7*73
$GAGSV,3,3,11,26,10,025,,31,40,073,40,33,27,072,45,7*46
$GBGSV,3,1,09,05,15,124,35,07,04,054,,10,17,057,37,21,17,301,43,1*7E
$GBGSV,3,2,09,22,13,250,41,27,41,065,47,28,08,034,,29,11,189,42,1*76
$GBGSV,3,3,09,30,50,143,44,1*4F
$GNRMC,110011.00,A,4843.25979,N,00920.55437,E,0.012,,080225,,,A,V*1A
$GNGGA,110011.00,4843.25979,N,00920.55437,E,1,12,0.48,250.0,M,47.6,M,,*4F
$GPGSV,3,1,10,03,02,354,,06,25,060,43,11,27,097,47,12,70,059,45,1*65
$GPGSV,3,2,10,19,09,042,,24,34,145,45,25,65,281,25,28,20,308,35,1*6E
$GPGSV,3,3,10,29,28,204,23,32,37,280,39,1*66
$GLGSV,3,1,10,65,00,214,14,66,26,255,42,67,27,315,44,68,03,356,,1*74
$GLGSV,3,2,10,75,39,085,42,76,64,331,42,77,22,294,,84,14,021,29,1*71
$GLGSV,3,3,10,85,49,069,48,86,33,147,42,1*70
$GAGSV,3,1,11,03,31,305,32,05,43,239,,09,14,188,42,10,07,149,,7*7C
$GAGSV,3,2,11,12,18,129,44,16,54,271,33,24,81,310,35,25,29,265,26,7*72
$GAGSV,3,3,11,26,10,025,,31,40,073,40,33,27,072,45,7*46
$GBGSV,3,1,09,05,15,124,35,07,04,04,,10,17,057,36,21,17,301,43,1*7F
$GBGSV,3,2,09,22,13,250,40,27,41,065,47,28,08,034,,29,11,189,42,1*77
$GBGSV,3,3,09,30,50,143,44,1*4F
$GNRMC,110012.00,A,4843.25979,N,00920.55438,E,0.020,,080225,,,A,V*17
$GNGGA,110012.00,4843.25979,N,00920.55438,E,1,12,0.48,250.0,M,47.6,M,,*43
$GPGSV,3,1,10,03,02,354,,06,25,060,42,11,27,097,47,12,70,059,45,1*64
$GPGSV,3,2,10,19,09,042,,24,34,145,44,25,65,281,25,28,20,308,35,1*6F
$GPGSV,3,3,10,29,28,204,25,32,37,280,39,1*60
$GLGSV,3,1,10,65,00,214,12,66,26,255,42,67,27,315,44,68,03,356,,1*72
$GLGSV,3,2,10,75,39,085,43,76,64,331,41,77,22,294,,84,14,021,29,1*73
$GLGSV,3,3,10,85,49,069,49,86,33,147,42,1*71
$GAGSV,3,1,11,03,31,305,32,05,43,239,,09,14,188,42,10,07,149,,7*7C
$GAGSV,3,2,11,12,18,129,45,16,54,271,34,24,81,310,35,25,29,265,26,7*74
$GAGSV,3,3,11,26,10,025,,31,40,073,40,33,27,072,45,7*46
$GBGSV,3,1,09,05,15,124,35,07,04,054,,10,17,057,36,21,17,301,43,1*7F
$GBGSV,3,2,09,22,13,250,40,27,41,065,47,28,08,034,,29,11,189,42,1*77
$GBGSV,3,3,09,30,50,143,44,1*4F
$GNRMC,110013.00,A,4843.25979,N,00920.55438,E,0.003,,080225,,,A,V*17
$GNGGA,110013.00,4843.25979,N,00920.55438,E,1,12,0.52,250.0,M,47.6,M,,*49
$GPGSV,3,1,10,03,02,354,,06,25,060,42,11,27,097,47,12,70,059,5,1*64
$GPGSV,3,2,10,19,09,042,,24,34,145,44,25,65,281,24,28,20,308,34,1*6F
$GPGSV,3,3,10,29,28,204,26,32,37,280,38,1*62
$GLGSV,3,1,10,65,00,214,15,66,26,255,42,67,27,315,44,68,03,356,,1*75
$GLGSV,3,2,10,75,39,085,43,76,64,331,40,77,22,294,,84,14,021,29,1*72
$GLGSV,3,3,10,85,49,069,47,86,33,147,42,1*7F
$GAGSV,3,1,11,03,31,305,31,05,43,239,,09,14,188,42,10,07,149,,7*7F
$GAGSV,3,2,11,12,18,129,45,16,54,271,34,24,81,310,36,25,29,265,26,7*77
$GAGSV,3,3,11,26,10,025,,31,40,073,40,33,27,072,45,7*46
$GBGSV,3,1,09,05,15,124,34,07,04,054,,10,17,057,36,21,17,301,43,1*7E
$GBGSV,3,2,09,22,13,250,41,27,41,065,47,28,08,034,,29,11,189,42,1*76
$GBGSV,3,3,09,30,50,143,44,1*4F
$GNRMC,110014.00,A,4843.25979,N,00920.55438,E,0.017,,080225,,,A,V*15
$GNGGA,110014.00,4843.25979,N,00920.55438,E,1,12,0.51,250.0,M,47.6,M,,*4D
$GPGSV,3,1,10,03,02,354,,06,25,060,42,11,27,097,47,12,70,059,45,1*64
$GPGSV,3,2,10,19,09,042,,24,34,145,44,25,65,281,25,28,20,308,34,1*6E
$GPGSV,3,3,10,29,28,204,25,32,37,280,38,1*61
$GLGSV,3,1,10,65,00,214,11,66,26,255,42,67,27,315,44,68,03,356,,1*71
$GLGSV,3,2,10,75,39,085,43,76,64,331,40,77,22,294,,84,14,021,29,1*72
$GLGSV,3,3,10,85,49,069,48,86,33,147,40,1*72
$GAGSV,3,1,11,03,31,305,31,05,43,239,,09,14,188,42,10,07,149,,7*7F
$GAGSV,3,2,11,12,18,129,45,16,54,271,34,24,81,310,35,25,29,265,26,7*74
$GAGSV,3,3,11,26,10,025,,31,40,073,40,33,27,072,45,7*46
$GBGSV,3,1,09,05,15,124,34,07,04,054,,10,17,057,37,21,17,301,42,1*7E
$GBGSV,3,2,09,22,13,250,40,27,41,065,47,28,08,034,,29,11,189,42,1*77
$GBGSV,3,3,09,30,50,143,44,1*4F
$GNRMC,110015.00,A,4843.25979,N,00920.55438,E,0.025,,080225,,,A,V*15
$GNGGA,110015.00,4843.25979,N,00920.55438,E,1,12,0.51,249.9,M,47.6,M,,*4D
$GPGSV,3,1,10,03,02,354,,06,25,060,42,11,27,097,47,12,70,059,45,1*64
$GPGSV,3,2,10,19,09,042,,24,34,145,44,25,65,281,25,28,20,308,35,1*6F
$GPGSV,3,3,10,29,28,204,23,32,37,280,38,1*67
$GLGSV,3,1,10,65,00,214,12,66,26,255,42,67,27,315,44,68,03,356,,1*72
$GLGSV,3,2,10,75,39,085,42,76,64,331,39,77,22,294,,84,14,021,29,1*7D
$GLGSV,3,3,10,85,49,069,48,86,33,147,43,1*71
$GAGSV,3,1,11,03,31,305,31,05,43,239,,09,14,188,42,10,07,149,,7*7F
$GAGSV,3,2,11,12,18,129,45,16,54,271,34,24,81,310,35,25,29,265,25,7*77
$GAGSV,3,3,11,26,10,025,,31,40,073,40,33,27,072,45,7*46
$GBGSV,3,1,09,05,15,124,34,07,04,054,,10,17,057,37,21,17,301,43,1*7F
$GBGSV,3,2,09,22,3,250,40,27,41,065,47,28,08,034,,29,11,189,42,1*77
$GBGSV,3,3,09,30,50,143,43,1*48
$GNRMC,110016.00,A,4843.25978,N,00920.55439,E,0.013,,080225,,,A,V*13
$GNGGA,110016.00,4843.25978,N,00920.55439,E,1,12,0.48,249.8,M,47.6,M,,*47
$GPGSV,3,1,10,03,02,354,,06,25,060,42,11,27,097,47,12,70,059,44,1*65
$GPGSV,3,2,10,19,09,042,,24,34,145,44,25,65,281,27,28,20,308,35,1*6D
$GPGSV,3,3,10,9,28,204,24,32,37,280,38,1*60
$GLGSV,3,1,10,65,00,214,11,66,26,255,42,67,27,315,44,68,03,356,,1*71
$GLGSV,3,2,10,75,39,085,42,76,64,331,39,77,22,294,,84,14,021,28,1*7C
$GLGSV,3,3,10,85,49,069,48,86,33,147,43,1*71
$GAGSV,3,1,11,03,31,305,31,05,43,239,,09,14,188,42,10,07,149,,7*7F
$GAGSV,3,2,11,12,18,129,45,16,54,271,35,24,81,310,35,25,29,265,25,7*76
$GAGSV,3,3,11,26,10,025,,31,40,073,39,33,27,072,45,7*48
$GBGSV,3,1,09,05,15,124,34,07,04,054,,10,16,057,37,21,17,301,43,1*7E
$GBGSV,3,2,09,22,13,250,40,27,41,065,48,28,08,034,,29,12,189,41,1*78
$GBGSV,3,3,09,30,50,142,44,1*4E
$GNRMC,110017.00,A,4843.25977,N,00920.55440,E,0.037,,080225,,,A,V*15
$GNGGA,110017.00,4843.25977,N,00920.55440,E,1,12,0.48,249.7,M,47.6,M,,*48
$GPGSV,3,1,10,03,02,354,,06,25,060,42,11,27,097,47,12,70,059,44,1*65
$GPGSV,3,2,10,19,09,042,,24,34,145,44,25,65,281,27,28,20,308,35,1*6D
$GPGSV,3,3,10,29,28,204,22,32,37,280,36,1*68
$GLGSV,3,1,10,65,00,214,11,66,26,255,42,67,27,315,44,68,03,356,,1*71
$GLGSV,3,2,10,75,39,085,40,76,64,331,39,77,22,294,,84,14,021,28,1*7E
$GLGSV,3,3,10,85,49,069,48,86,33,147,45,1*77
$GAGSV,3,1,11,03,31,305,31,05,43,239,,09,14,188,42,10,07,149,,7*7F
$GAGSV,3,2,11,12,18,129,45,16,54,271,35,24,81,310,35,25,29,265,25,7*76
$GAGSV,3,3,11,26,10,025,,31,40,073,40,33,27,072,45,7*46
$GBGSV,3,1,09,05,15,124,34,07,04,054,,10,16,057,37,21,17,301,43,1*7E
$GBGSV,3,2,09,22,13,250,42,27,41,065,47,28,08,034,,29,12,189,42,1*76
$GBGSV,3,3,09,30,50,142,44,1*4E
$GNRMC,110018.00,A,4843.25977,N,00920.55440,E,0.020,,080225,,,A,V*1C
$GNGGA,110018.00,4843.25977,N,00920.55440,E,1,12,0.48,249.7,M,47.6,M,,*47
$GPGSV,3,1,10,03,02,354,,06,25,060,42,11,27,097,47,12,70,059,44,1*65
$GPGSV,3,2,10,19,09,042,,24,34,145,43,25,65,281,26,28,20,308,35,1*6B
$GPGSV,3,3,10,29,28,204,21,32,37,280,36,1*6B
$GLGSV,3,1,10,65,00,214,10,66,26,255,42,67,27,315,44,68,03,356,,1*70
$GLGSV,3,2,10,75,39,085,38,76,64,331,39,77,22,294,,84,14,021,28,1*71
$GLGSV,3,3,10,85,49,069,48,86,33,147,45,1*77
$GAGSV,3,1,11,0331,305,32,05,43,239,,09,14,188,42,10,07,149,,7*7C
$GAGSV,3,2,11,12,18,129,45,16,54,271,35,24,81,310,36,25,29,265,26,7*76
$GAGSV,3,3,11,26,10,025,,31,40,073,39,33,27,072,45,7*48
$GBGSV,3,1,09,05,15,124,34,07,04,054,,10,16,057,37,21,17,301,43,1*7E
$GBGSV,3,2,09,22,13,250,41,27,41,065,47,28,08,034,,29,12,189,42,1*75
$GBGSV,3,3,09,30,50,142,43,1*49
$GNRMC,110019.00,A,4843.25977,N,00920.55441,E,0.016,,080225,,,A,V*19
$GNGGA,110019.00,4843.25977,N,00920.55441,E,1,12,0.48,249.7,M,47.6,M,,*47
$GPGSV,3,1,10,03,02,354,,06,25,060,42,11,27,097,47,12,70,059,43,1*62
$GPGSV,3,2,10,19,09,042,,24,34,145,43,25,65,281,25,28,20,308,35,1*68
$GPGSV,3,3,10,29,28,204,21,32,37,280,38,1*65
$GLGSV,3,1,10,65,00,214,13,66,26,255,41,67,27,315,43,68,03,356,,1*77
$GLGSV,3,2,10,75,39,085,41,76,64,331,39,77,22,294,,84,14,021,28,1*7F
$GLGSV,3,3,10,85,49,069,48,86,33,147,44,1*76
$GAGSV,3,1,11,03,31,305,31,05,43,239,,09,14,188,42,10,07,149,,7*7F
$GAGSV,3,2,11,12,18,129,45,16,54,271,34,24,81,310,35,25,29,265,32,7*71
$GAGSV,3,3,11,26,10,025,,31,40,073,41,33,27,072,45,7*47
$GBGSV,3,1,09,05,15,124,34,07,04,054,,10,16,057,37,21,17,301,41,1*7C
$GBGSV,3,2,09,22,13,250,39,27,41,065,47,28,08,034,,29,12,189,42,1*7A
$GBGSV,3,3,09,30,50,142,43,1*49
$GNRMC,110020.00,A,4843.25977,N,00920.55441,E,0.026,,080225,,,A,V*10
$GNGGA,110020.00,4843.25977,N,0090.55441,E,1,12,0.48,249.6,M,47.6,M,,*4C
$GPGSV,3,1,10,03,02,354,,06,25,06,42,11,27,097,46,12,70,059,43,1*63
$GPGSV,3,2,10,19,09,042,,24,34,145,43,25,65,281,24,28,20,308,32,1*6E
$GPGSV,3,3,10,29,28,204,22,32,37,280,38,1*66
$GLGSV,3,1,10,65,00,214,14,66,26,255,43,67,27,315,42,68,03,356,,1*73
$GLGSV,3,2,10,75,39,085,41,76,64,331,39,77,22,294,,84,14,021,28,1*7F
$GLGSV,3,3,10,85,49,069,48,86,33,147,45,1*77
$GAGSV,3,1,11,03,31,305,32,05,43,239,,09,14,188,42,10,07,149,,7*7C
$GAGSV,3,2,11,12,18,129,45,16,54,271,35,24,81,310,36,25,29,265,30,7*71
$GAGSV,3,3,11,26,10,025,,31,40,073,40,33,27,072,45,7*46
$GBGSV,3,1,09,05,15,124,35,07,04,054,,10,16,057,37,21,17,301,41,1*7D
$GBGSV,3,2,09,22,13,250,40,27,41,065,47,28,08,034,,29,12,189,42,1*74
$GBGSV,3,3,09,30,50,142,44,1*4E
$GNRMC,110021.00,A,4843.25977,N,00920.55442,E,0.007,,080225,,,A,V*11
$GNGGA,110021.00,4843.25977,N,00920.55442,E,1,12,0.48,249.6,M,47.6,M,,*4E
$GPGSV,3,1,10,03,02,354,,06,25,060,42,11,27,097,47,12,70,059,43,1*62
$GPGSV,3,2,10,19,09,042,,24,34,145,43,25,65,281,23,28,20,308,35,1*6E
$GPGSV,3,3,10,29,28,204,23,32,37,280,38,1*67
$GLGSV,3,1,10,65,00,214,12,66,26,255,43,67,27,315,44,68,03,356,,1*73
$GLGSV,3,2,10,75,39,085,35,76,64,331,39,77,22,294,,84,14,021,28,1*7C
$GLGSV,3,3,10,85,49,069,47,86,33,147,46,1*7B
$GAGSV,3,1,11,03,31,305,32,05,43,239,,09,14,188,42,10,07,149,,7*7C
$GAGSV,3,2,11,12,18,129,45,16,54,271,35,24,81,310,36,25,29,265,29,7*79
$GAGSV,3,3,11,26,10,025,,31,40,073,41,33,27,072,45,7*47
$GBGSV,3,1,09,05,15,124,34,07,04,054,,10,16,057,37,21,17,301,42,1*7F
$GBGSV,3,2,09,22,13,250,42,27,41,065,48,28,08,034,,29,12,189,42,1*79
$GBGSV,3,3,09,30,50,142,44,1*4E
$GNRMC,110022.00,A,4843.25977,N,00920.55443,E,0.013,,080225,,,A,V*16
$GNGGA,110022.00,4843.25977,N,00920.55443,E,1,1,0.48,249.6,M,47.6,M,,*4C
$GPGSV,3,1,10,03,02,354,,06,25,060,42,11,27,097,47,12,70,059,43,1*62
$GPGSV,3,2,10,19,09,042,,24,34,145,43,25,65,281,22,28,20,308,35,1*6F
$GPGSV,3,3,10,29,28,204,22,32,37,280,38,1*66
$GLGSV,3,1,10,65,00,214,15,66,26,255,43,67,7,315,44,68,03,356,,1*74
$GLGSV,3,2,10,75,39,085,37,76,64,331,4,77,22,294,,84,14,021,28,1*70
$GLGSV,3,3,10,85,49,069,46,86,33,147,46,1*7A
$GAGSV,3,1,11,03,31,305,31,05,43,239,,09,14,188,42,10,07,149,,7*7F
$GAGSV,3,2,11,12,18,129,45,16,54,271,35,24,81,310,36,25,29,265,29,7*79
$GAGSV,3,3,11,26,10,025,,31,40,073,41,33,27,072,45,7*47
$GBGSV,3,1,09,05,15,124,35,07,04,054,,10,16,057,37,21,17,301,42,1*7E
$GBGSV,3,2,09,22,13,250,40,27,41,065,47,28,08,034,,29,12,189,42,1*74
$GBGSV,3,3,09,30,50,142,44,1*4E
$GNRMC,110023.00,A,4843.25977,N,00920.55443,E,0.010,,080225,,,A,V*14
$GNGGA,110023.00,4843.25977,N,00920.55443,E,1,12,0.48,249.6,M,47.6,M,,*4D
$GPGSV,3,1,10,03,02,354,,06,25,060,42,11,27,097,47,12,70,059,43,1*62
$GPGSV,3,2,10,19,09,042,,24,34,145,42,25,65,281,22,28,20,308,35,1*6E
$GPGSV,3,3,10,29,28,204,24,32,37,280,39,1*61
$GLGSV,3,1,10,65,00,214,11,66,26,255,43,67,27,315,44,68,03,356,,1*70
$GLGSV,3,2,10,75,39,085,34,76,64,331,40,77,22,294,,84,14,021,28,1*73
$GLGSV,3,3,10,85,49,069,46,86,33,147,46,1*7A
$GAGSV,3,1,11,03,31,305,31,05,43,239,,09,14,188,42,10,07,149,,7*7F
$GAGSV,3,2,11,12,18,129,45,16,54,271,35,24,81,310,36,25,29,265,28,7*78
$GAGSV,3,3,11,26,10,025,,31,40,073,41,33,27,072,45,7*47
$GBGSV,3,1,09,05,15,124,35,07,04,054,,10,16,057,37,21,17,301,43,1*7F
$GBGSV,3,2,09,22,13,250,42,27,41,065,47,28,08,034,,29,12,189,43,1*77
$GBGSV,3,3,09,30,50,142,44,1*4E
$GNRMC,110024.00,A,4843.25978,N,00920.55444,E,0.006,,080225,,,A,V*1C
$GNGGA,110024.00,4843.25978,N,00920.55444,E,1,12,0.47,249.6,M,47.6,M,,*4D
$GPGSV,3,1,10,03,02,354,,06,25,060,42,11,27,097,47,12,70,059,44,1*65
$GPGSV,3,2,10,19,09,042,,24,34,145,42,25,65,281,22,28,20,308,35,1*6E
$GPGSV,3,3,10,29,28,204,27,32,37,280,39,1*62
$GLGSV,3,1,10,65,00,214,12,66,26,255,41,67,27,315,44,68,03,356,,1*71
$GLGSV,3,2,10,75,39,085,35,76,64,331,40,77,22,294,,84,14,021,27,1*7D
$GLGSV,3,3,10,85,49,069,46,86,33,147,46,1*7A
$GAGSV,3,1,11,03,31,305,31,05,43,239,,09,14,188,42,10,07,149,,7*7F
$GAGSV,3,2,11,12,18,129,45,16,54,271,34,24,81,310,37,25,29,265,27,7*77
$GAGSV,3,3,11,26,10,025,,31,40,073,41,33,27,072,45,7*47
$GBGSV,3,1,09,05,15,124,35,07,04,054,,10,16,057,37,21,17,301,43,1*7F
$GBGSV,3,2,09,22,13,250,43,27,41,065,47,28,08,034,,29,12,189,43,1*76
$GBGSV,3,3,09,30,50,142,44,1*4E
$GNRMC,110025.00,A,4843.25978,N,00920.55445,E,0.003,,080225,,,A,V*19
$GNGGA,110025.00,4843.25978,N,00920.55445,E,1,12,0.47,249.6,M,47.6,M,,*4D
$GPGSV,3,1,10,03,02,354,,06,25,060,41,11,27,097,47,12,70,059,43,1*61
$GPGSV,3,2,10,19,09,042,,24,34,145,41,25,65,281,23,28,20,308,35,1*6C
$GPGSV,3,3,10,29,28,204,32,32,37,280,39,1*66
$GLGSV,3,1,10,65,00,214,13,66,26,255,43,67,27,315,44,68,03,356,,1*72
$GLGSV,3,2,10,75,39,085,38,76,64,331,40,77,22,294,,84,14,021,27,1*70
$GLGSV,3,3,10,85,49,069,45,86,33,147,46,1*79
$GAGSV,3,1,11,03,31,305,31,05,43,239,,09,14,188,41,10,07,149,,7*7C
$GAGSV,3,2,11,12,18,129,45,16,54,271,34,24,81,310,37,25,29,265,28,7*78
$GAGSV,3,3,11,26,10,025,,31,40,073,42,33,27,072,45,7*44
$GBGSV,3,1,09,05,15,124,35,07,04,054,,10,16,057,37,21,17,301,42,1*7E
$GBGSV,3,2,09,22,13,250,42,27,41,065,47,28,08,034,,29,12,189,43,1*77
$GBGSV,3,3,09,30,50,142,43,1*49
$GNRMC,110026.00,A,4843.25979,N,00920.55446,E,0.004,,080225,,,A,V*1F
$GNGGA,110026.00,4843.25979,N,00920.55446,E,1,12,0.47,249.7,M,47.6,M,,*4D
$GPGSV,3,1,10,03,02,353,,06,25,060,41,11,27,097,47,12,70,059,43,1*66
$GPGSV,3,2,10,19,09,042,,24,34,145,39,25,65,281,26,28,20,308,35,1*66
$GPGSV,3,3,10,29,28,204,31,32,37,280,40,1*6B
$GLGSV,3,1,10,65,00,214,15,66,26,255,43,67,27,315,44,68,03,356,,1*74
$GLGSV,3,2,10,75,39,085,36,76,64,331,39,77,22,294,,84,14,021,27,1*70
$GLGSV,3,3,10,85,49,069,45,86,33,147,47,1*78
$GAGSV,3,111,03,31,305,32,05,43,239,,09,14,188,41,10,07,149,,7*7F
$GAGSV,3,2,11,12,18,129,45,16,54,271,35,24,81,310,36,25,29,265,28,7*78
$GAGSV,3,3,11,26,10,025,,31,40,073,42,33,27,072,45,7*44
$GBGSV,3,1,09,05,15,124,35,07,04,054,,10,16,057,37,21,17,301,41,1*7D
$GBGSV,3,2,09,22,13,250,43,27,41,065,47,28,08,034,,29,12,189,43,1*76
$GBGSV,3,3,09,30,50,142,43,1*49
$GNRMC,110027.00,A,4843.25979,N,00920.55446,E,0.009,,080225,,,A,V*13
$GNGGA,110027.00,4843.25979,N,00920.55446,E,1,12,0.47,249.7,M,47.6,M,,*4C
$GPGSV,3,1,10,03,02,353,,06,25,060,41,11,27,097,47,12,70,059,44,1*61
$GPGSV,3,2,10,19,09,042,,24,34,145,39,25,65,281,29,28,20,308,34,1*68
$GPGSV,3,3,10,29,28,204,31,32,37,280,40,1*6B
$GLGSV,3,1,10,65,00,214,13,66,26,255,41,67,27,315,44,68,03,356,,1*70
$GLGSV,3,2,10,75,39,085,33,76,64,331,39,77,22,294,,84,14,021,27,1*75
$GLGSV,3,3,10,85,49,069,46,86,33,147,47,1*7B
$GAGSV,3,1,11,03,31,305,31,05,43,239,,09,14,188,41,10,07,149,,7*7C
$GAGSV,3,2,11,12,18,129,46,16,54,271,34,24,81,310,36,25,29,265,29,7*7B
$GAGSV,3,3,11,26,10,025,,31,40,073,42,33,27,072,44,7*45
$GBGSV,3,1,09,05,15,124,35,07,04,054,,10,16,057,37,21,17,301,41,1*7D
$GBGSV,3,2,09,22,13,250,43,27,41,065,47,28,08,034,,29,12,189,43,1*76
$GBGSV,3,3,09,30,50,142,39,1*44
$GNRMC,110028.00,A,4843.25980,N,00920.55448,E,0.012,,080225,,,A,V*1E
$GNGGA,110028.00,4843.25980,N,00920.55448,E,1,12,0.47,249.6,M,47.6,M,,*4A
$GPGSV,3,1,10,03,02,353,,06,25,060,41,11,27,097,47,12,70,059,44,1*61
$GPGSV,3,2,10,19,09,042,,24,34,145,39,25,65,281,29,28,20,308,33,1*6F
$GPGSV,3,3,10,29,28,204,30,32,37,280,40,1*6A
$GLGSV,3,1,10,65,00,214,13,66,26,255,41,67,27,315,44,68,03,356,,1*70
$GLGSV,3,2,10,75,39,085,38,76,64,331,38,77,22,294,,84,14,021,27,1*7F
$GLGSV,3,3,10,85,49,069,46,86,33,147,47,1*7B
$GAGSV,3,1,11,03,31,305,33,05,43,239,,09,14,188,42,10,07,149,,7*7D
$GAGSV,3,2,11,12,18,129,46,16,54,271,35,24,81,310,35,25,29,265,31,7*70
$GAGSV,3,3,11,26,10,025,,31,40,073,42,33,27,072,44,7*45
$GBGSV,3,1,09,05,15,124,34,07,04,054,,10,16,057,37,21,17,301,39,1*73
$GBGSV,3,2,09,22,13,250,43,27,41,065,47,28,08,034,,29,12,189,43,1*76
$GBGSV,3,3,09,30,50,142,41,1*4B
$GNRMC,110029.00,A,4843.25979,N,00920.55449,E,0.043,,080225,,,A,V*1C
$GNGGA,110029.00,4843.25979,N,00920.55449,E,1,12,0.47,249.6,M,47.6,M,,*4C
$GPGSV,3,1,10,03,02,353,,06,25,059,41,11,27,097,46,12,70,059,44,1*6A
$GPGSV,3,2,10,19,09,042,,24,34,145,38,25,65,281,29,28,20,308,37,1*6A
$GPGSV,3,3,10,29,28,204,30,32,37,280,37,1*6A
$GLGSV,3,1,10,65,00,214,12,66,26,255,41,67,27,315,42,68,03,356,,1*77
$GLGSV,3,2,10,75,39,085,37,76,64,331,38,77,22,294,,84,14,021,27,1*70
$GLGSV,3,3,10,85,49,069,46,86,33,147,47,1*7B
$GAGSV,3,1,11,03,31,305,33,05,43,239,,09,14,188,41,10,07,149,,7*7E
$GAGSV,3,2,11,12,18,129,46,16,54,271,35,24,81,310,35,25,29,265,32,7*73
$GAGSV,3,3,11,26,10,025,,31,40,073,42,33,27,072,44,7*45
$GBGSV,3,1,09,05,15,124,34,07,04,054,,10,16,057,38,21,17,301,39,1*7C
$GBGSV,3,2,09,22,13,250,41,27,41,065,46,28,08,034,,29,12,189,43,1*75
$GBGSV,3,3,09,30,50,142,41,1*4B
$GNRMC,110030.00,A,4843.25979,N,00920.55452,E,0.031,,080225,,,A,V*1B
$GNGGA,110030.00,4843.25979,N,00920.55452,E,1,12,0.47,249.6,M,47.6,M,,*4E
$GPGSV,3,1,10,03,02,353,,06,25,059,41,11,27,097,46,12,70,059,44,1*6A
$GPGSV,3,2,10,19,09,042,,24,34,145,38,25,65,281,30,28,20,308,34,1*61
$GPGSV,3,3,10,29,28,204,30,32,37,280,37,1*6A
$GLGSV,3,1,10,65,00,214,11,66,26,255,43,67,27,315,42,68,03,356,,1*76
$GLGSV,3,2,10,75,39,085,40,76,64,331,38,77,22,294,,84,14,021,26,1*71
$GLGSV,3,3,10,85,49,069,46,86,33,147,47,1*7B
$GAGSV,3,1,11,03,31,305,32,05,43,239,,09,14,188,41,10,07,149,,7*7F
$GAGSV,3,2,11,12,18,129,46,16,54,271,35,24,81,310,35,25,29,265,22,7*72
$GAGSV,3,3,11,26,10,025,,31,40,073,4,33,27,072,44,7*43
$GBGSV,3,1,09,05,15,124,35,07,04,054,,10,16,057,37,21,17,301,41,1*7D
$GBGSV,3,2,09,22,13,250,41,27,41,065,46,28,08,034,,29,12,189,43,1*75
$GBGSV,3,3,09,30,50,142,42,1*48
$GNRMC,110031.00,A,4843.25979,N,00920.55453,E,0.014,,080225,,,A,V*1C
$GNGGA,110031.00,4843.25979,N,00920.55453,E,1,12,0.47,249.6,M,47.6,M,,*4E
$GPGSV,3,1,10,03,02,353,,06,25,059,41,11,27,097,47,12,70,059,45,1*6A
$GPGSV,3,2,10,19,09,042,,24,34,145,39,25,65,281,30,28,20,308,34,1*60
$GPGSV,3,3,10,29,28,204,32,32,37,280,37,1*68
$GLGSV,3,1,10,65,00,214,14,66,26,255,43,67,27,315,43,68,03,356,,1*72
$GLGSV,3,2,10,75,39,085,39,76,64,331,38,77,22,294,,84,14,021,26,1*7F
$GLGSV,3,3,10,85,49,069,47,86,33,147,47,1*7A
$GAGSV,3,1,11,03,31,305,32,05,43,239,,09,14,188,42,10,07,149,,7*7C
$GAGSV,3,2,11,12,18,129,46,16,54,271,35,24,81,310,35,25,29,265,24,7*74
$GAGSV,3,3,11,26,10,025,,31,40,073,42,33,27,072,44,7*45
$GBGSV,3,1,09,05,15,124,35,07,04,054,,10,16,057,38,21,17,301,43,1*70
$GBGSV,3,2,09,22,13,250,41,27,41,065,47,28,08,034,,29,12,189,43,1*74
$GBGSV,3,3,09,30,50,142,41,1*4B
$GNRMC,110032.00,A,4843.25979,N,00920.55454,E,0.020,,080225,,,A,V*1F
$GNGGA,110032.00,4843.25979,N,00920.55454,E,1,12,0.47,249.6,M,47.6,M,,*4A
$GPGSV,3,1,10,03,02,353,,06,25,059,41,11,27,097,47,12,70,059,45,1*6A
$GPGSV,3,2,10,19,09,042,,24,34,145,37,25,65,281,30,28,20,308,35,1*6F
$GPGSV,3,3,10,29,28,204,33,32,37,280,37,1*69
$GLGSV,3,1,10,65,00,214,12,66,26,255,39,67,27,315,43,68,03,356,,1*79
$GLGSV,3,2,10,75,39,085,38,76,64,331,37,77,22,294,,84,14,021,27,1*70
$GLGSV,3,3,10,85,49,069,45,86,33,147,48,1*77
$GAGSV,3,1,11,03,31,305,32,05,43,239,,09,14,188,42,10,07,149,,7*7C
$GAGSV,3,2,11,12,18,129,46,16,54,271,35,24,81,310,35,25,29,265,32,7*73
$GAGSV,3,3,11,26,10,025,,31,40,073,43,33,27,072,44,7*44
$GBGSV,3,1,09,05,15,124,35,07,04,054,,10,16,057,37,21,17,301,42,1*7E
$GBGSV,3,2,09,22,13,250,41,27,41,065,46,28,08,034,,29,12,189,43,1*75
$GBGSV,3,3,09,30,50,142,39,1*44
$GNRMC,110033.00,A,4843.25979,N,00920.55455,E,0.007,,080225,,,A,V*1A
$GNGGA,110033.0,4843.25979,N,00920.55455,E,1,1,0.47,249.6,M,4.6,M,,*4A
$GPGSV,3,1,10,03,02,353,,06,25,059,41,11,27,097,47,12,70,059,45,1*6A
$GPGSV,3,2,10,19,09,042,,24,34,145,39,25,65,281,30,28,20,308,35,1*61
$GPGSV,3,3,10,29,28,204,32,32,37,280,38,1*67
$GLGSV,3,1,10,65,00,214,12,66,26,255,42,67,27,315,41,68,03,356,,1*77
$GLGSV,3,2,10,75,39,085,35,76,64,331,38,77,22,294,,84,14,021,26,1*73
$GLGSV,3,3,10,85,49,069,48,86,33,147,47,1*75
$GAGSV,3,1,11,03,31,305,33,05,43,239,,09,14,188,42,10,07,149,,7*7D
$GAGSV,3,2,11,12,18,129,46,16,54,271,36,24,81,310,35,25,29,265,32,7*70
$GAGSV,3,3,11,26,10,025,,31,40,073,43,33,27,072,45,7*45
$GBGSV,3,1,09,05,15,124,35,07,04,054,,10,16,057,38,21,17,301,38,1*7C
$GBGSV,3,2,09,22,13,250,41,27,41,065,47,28,08,034,,29,12,189,43,1*74
$GBGSV,3,3,09,30,50,142,41,1*4B
$GNRMC,110034.00,A,4843.25979,N,00920.55455,E,0.012,,080225,,,A,V*19
$GNGGA,110034.00,4843.25979,N,00920.55455,E,1,12,0.47,249.6,M,47.6,M,,*4D
$GPGSV,3,1,10,03,02,353,,06,25,059,42,11,27,097,46,12,70,059,45,1*68
$GPGSV,3,2,10,19,09,042,,24,34,145,39,25,65,281,29,28,20,308,34,1*68
$GPGSV,3,3,10,29,28,204,32,32,37,280,37,1*68
$GLGSV,3,1,10,65,00,214,12,66,26,255,42,67,27,315,44,68,03,356,,1*72
$GLGSV,3,2,10,75,39,085,40,76,64,331,38,77,22,294,,84,14,021,28,1*7F
$GLGSV,3,3,10,85,49,069,48,86,33,147,49,1*7B
$GAGSV,3,1,11,03,31,305,32,05,43,239,,09,14,188,42,10,07,149,,7*7C
$GAGSV,3,2,11,12,18,129,46,16,54,271,36,24,81,310,35,25,29,265,29,7*7A
$GAGSV,3,3,11,26,10,025,,31,40,073,44,33,27,072,45,7*42
$GBGSV,3,1,09,05,15,124,35,07,04,054,,10,16,057,38,21,17,301,42,1*71
$GBGSV,3,2,09,22,13,250,42,27,41,065,46,28,08,034,,29,12,189,43,1*76
$GBGSV,3,3,09,30,50,142,40,1*4A
$GNGGA,110035.00,4843.25979,N,00920.55456,E,1,12,0.47,249.6,M,47.6,M,,*4F
$GPGSV,3,1,10,03,02,353,,06,25,059,42,11,27,097,46,12,69,061,45,1*6B
$GPGSV,3,2,10,19,09,042,,24,34,145,41,25,65,281,30,28,20,308,34,1*6F
$GLGSV,3,1,10,65,00,214,10,66,26,255,40,67,27,315,45,68,03,356,,1*73
$GLGSV,3,2,10,75,39,085,40,76,64,331,41,77,22,294,,84,14,021,28,1*71
$GLGSV,3,3,10,85,49,069,47,86,33,147,48,1*75
$GAGSV,3,1,11,03,31,305,32,05,43,239,,09,14,188,42,10,07,149,,7*7C
$GAGSV,3,2,11,12,18,129,4616,54,271,36,24,81,310,35,25,29,265,34,7*76
$GAGSV,3,3,11,26,10,025,,31,40,073,44,33,27,072,45,7*42
$GBGSV,3,1,09,05,15,124,35,07,04,054,,10,16,057,38,21,17,301,40,1*73
$GBGSV,3,2,09,22,13,250,44,27,41,065,47,28,08,034,,29,12,189,43,1*71
$GBGSV,3,3,09,30,50,142,38,1*45
$GNRMC,110036.00,A,4843.25979,N,00920.55457,E,0.012,,080225,,,A,V*19
$GNGGA,110036.00,4843.25979,N,00920.55457,E,1,12,0.47,249.6,M,47.6,M,,*4D
$GPGSV,3,1,10,03,02,353,,06,25,059,42,11,27,097,46,12,69,061,45,1*6B
$GPGSV,3,2,10,19,09,042,,24,34,145,39,25,65,281,30,28,20,308,32,1*66
$GPGSV,3,3,10,29,28,204,33,32,37,280,37,1*69
$GLGSV,3,1,10,65,00,214,09,66,26,255,42,67,27,315,44,68,03,356,,1*78
$GLGSV,3,2,10,75,39,085,40,76,64,331,40,77,22,294,,84,14,021,29,1*71
$GLGSV,3,3,10,85,49,069,48,86,33,147,48,1*7A
$GAGSV,3,1,11,03,31,305,32,05,43,239,,09,14,188,42,10,07,149,,7*7C
$GAGSV,3,2,11,12,18,129,46,16,54,271,35,24,81,310,35,25,29,265,29,7*79
$GAGSV,3,3,11,26,10,025,,31,40,073,43,33,27,072,45,7*45
$GBGSV,3,1,09,05,15,124,35,07,04,054,,10,16,057,38,21,17,301,42,1*71
$GBGSV,3,2,09,22,13,250,41,27,41,065,47,28,08,034,,29,12,189,43,1*74
$GBGSV,3,3,09,30,50,142,40,1*4A
$GNRMC,110037.00,A,4843.25978,N,00920.55458,E,0.014,,080225,,,A,V*10
$GNGGA,110037.00,4843.25978,N,00920.55458,E,1,12,0.47,249.6,M,47.6,M,,*42
$GPGSV,3,1,10,03,02,353,,06,25,059,43,11,27,097,46,12,69,061,45,1*6A
$GPGSV,3,2,10,19,09,042,,24,34,145,39,25,65,281,30,28,20,308,36,1*62
$GPGSV,3,3,10,29,28,204,33,32,37,280,37,1*69
$GLGSV,3,1,10,65,00,214,12,66,26,255,42,67,27,315,44,68,03,356,,1*72
$GLGSV,3,2,10,75,39,085,42,76,64,331,41,77,22,294,,84,14,021,29,1*72
$GLGSV,3,3,10,85,49,069,49,86,33,147,48,1*7B
$GAGSV,3,1,11,03,31,305,31,05,43,239,,09,14,188,42,10,07,149,,7*7F
$GAGSV,3,2,11,12,18,129,46,16,54,271,35,24,81,310,35,25,29,265,29,7*79
$GAGSV,3,3,11,26,10,025,,31,40,073,44,33,27,072,44,7*43
$GBGSV,3,1,09,05,15,124,35,07,04,054,,10,16,057,38,21,17,301,40,1*73
$GBGSV,3,2,09,22,13,250,41,27,41,065,47,28,08,034,,29,12,189,43,1*74
$GBGSV,3,3,09,30,50,142,39,1*44
$GNRMC,110038.00,A,4843.25978,N,00920.55458,E,0.008,,080225,,,A,V*12
$GNGGA,110038.00,4843.25978,N,00920.55458,E,1,12,0.47,249.7,M,47.6,M,,*4C
$GPGSV,3,1,10,03,02,353,,06,25,059,43,11,27,097,46,12,69,061,45,1*6A
$GPGSV,3,2,10,19,09,042,,24,34,145,39,25,65,281,30,28,20,308,36,1*62
$GPGSV,3,3,10,29,28,204,33,32,37,280,36,1*68
$GLGSV,3,1,10,65,00,214,12,66,26,255,42,67,27,315,44,68,03,356,,1*72
$GLGSV,3,2,10,75,39,085,42,76,64,331,41,77,22,294,,84,14,021,29,1*72
$GLGSV,3,3,10,85,49,069,50,86,33,147,48,1*73
$GAGSV,3,1,11,03,31,305,31,05,43,239,,09,14,188,42,10,07,149,,7*7F
$GAGSV,3,2,11,12,18,129,46,16,54,271,35,24,81,310,35,25,29,265,29,7*79
$GAGSV,3,3,11,26,10,025,,31,40,073,44,33,27,072,44,7*43
$GBGSV,3,1,09,05,15,124,35,07,04,054,,10,16,057,38,21,17,301,42,1*71
$GBGSV,3,2,09,22,13,250,42,27,41,065,47,28,08,034,,29,12,189,43,1*77
$GBGSV,3,3,09,30,50,42,39,1*44
$GNRMC,110039.00,A,4843.25977,N,00920.55458,E,0.023,,080225,,,A,V*15
$GNGGA,110039.00,4843.25977,N,00920.55458,E,1,12,0.47,249.7,M,47.6,M,,*42
$GPGSV,3,1,10,03,02,353,,06,25,059,43,11,27,097,46,12,69,061,45,1*6A
$GPGSV,3,2,10,19,09,042,,24,34,145,39,25,65,281,30,28,20,308,36,1*62
$GPGSV,3,3,10,29,28,204,33,32,37,280,36,1*68
$GLGSV,3,1,10,65,00,214,11,66,26,255,42,67,27,315,44,68,03,356,,1*71
$GLGSV,3,2,10,75,39,085,40,76,64,331,41,77,22,294,,84,14,021,29,1*70
$GLGSV,3,3,10,85,49,069,49,86,33,147,49,1*7A
$GAGSV,3,1,11,03,31,305,32,05,43,239,,09,14,188,42,10,07,149,,7*7C
$GAGSV,3,2,11,12,18,129,46,16,54,271,35,24,81,310,35,25,29,265,30,7*71
$GAGSV,3,3,11,26,10,025,,31,40,073,44,33,27,072,44,7*43
$GBGSV,3,1,09,05,15,124,35,07,04,054,,10,16,057,38,21,17,301,43,1*70
$GBGSV,3,2,09,22,13,250,42,27,41,065,47,28,08,034,,29,12,189,43,1*77
$GBGSV,3,3,09,30,50,142,39,1*44
$GNRMC,110040.00,A,4843.25976,N,00920.55458,E,0.007,,080225,,,A,V*1C
$GNGGA,110040.00,4843.25976,N,00920.55458,E,1,12,0.47,249.8,M,47.6,M,,*42
$GPGSV,3,1,10,03,02,353,,06,25,059,44,11,27,097,46,12,69,061,45,1*6D
$GPGSV,3,2,10,19,09,042,,24,34,145,39,25,65,281,31,28,20,308,36,1*63
$GPGSV,3,3,10,29,28,204,33,32,37,280,37,1*69
$GLGSV,3,1,10,65,00,214,11,66,26,255,42,67,27,315,44,68,03,356,,1*71
$GLGSV,3,2,10,75,39,085,42,76,64,331,41,77,22,294,,84,14,021,29,1*72
$GLGSV,3,3,10,85,49,069,49,86,33,147,48,1*7B
$GAGSV,3,1,11,03,31,305,32,05,43,239,,09,14,188,42,10,07,149,,7*7C
$GAGSV,3,2,11,12,18,129,46,16,54,271,35,24,81,310,35,25,29,265,30,7*71
$GAGSV,3,3,11,26,10,025,,31,40,073,44,33,27,072,45,7*42
$GBGSV,3,1,09,05,15,124,35,07,04,054,,10,16,057,38,21,17,301,43,1*70
$GBGSV,3,2,09,22,13,250,42,27,41,065,47,28,08,034,,29,12,189,43,1*77
$GBGSV,3,3,09,30,50,142,39,1*44
$GNRMC,110041.00,A,4843.25975,N,00920.55457,E,0.009,,080225,,,A,V*1F
$GNGGA,110041.00,4843.25975,N,00920.55457,E,1,12,0.47,249.8,M,47.6,M,,*4F
$GPGSV,3,1,10,03,02,353,,06,25,059,43,11,27,097,45,12,69,061,45,1*69
$GPGSV,3,2,10,19,09,042,,24,34,145,41,25,65,281,32,28,20,308,36,1*6F
$GPGSV,3,3,10,29,28204,32,32,37,280,37,1*68
$GLGSV,3,1,10,65,00,214,12,66,26,255,42,67,27,315,44,68,03,356,,1*72
$GLGSV,3,2,10,75,39,085,41,76,64,331,41,77,22,294,,84,14,021,29,1*71
$GLGSV,3,3,10,85,49,069,49,86,33,147,48,1*7B
$GAGSV,3,1,11,03,31,305,32,05,43,239,,09,14,188,43,10,07,149,,7*7D
$GAGSV,3,2,11,12,18,129,46,16,54,271,35,24,81,310,35,25,29,265,30,7*71
$GAGSV,3,3,11,26,10,025,,31,40,073,44,33,27,072,45,7*42
$GBGSV,3,1,09,05,15,124,35,07,04,054,,10,16,057,38,21,17,301,43,1*70
$GBGSV,3,2,09,22,13,250,43,27,41,065,47,28,08,034,,29,12,189,44,1*71
$GBGSV,3,3,09,30,50,142,39,1*44
$GNRMC,110042.00,A,4843.25973,N,00920.55458,E,0.042,,080225,,,A,V*1A
$GNGGA,110042.00,4843.25973,N,00920.55458,E,1,12,0.47,249.9,M,47.6,M,,*44
$GPGSV,3,1,10,03,02,353,,06,25,059,44,11,27,097,45,12,69,061,45,1*6E
$GPGSV,3,2,10,19,09,042,,24,34,145,39,25,65,281,32,28,20,308,32,1*64
$GPGSV,3,3,10,29,28,204,32,32,37,280,38,1*67
$GLGSV,3,1,10,65,00,214,13,66,26,255,41,67,27,315,43,68,03,356,,1*77
$GLGSV,3,2,10,75,39,085,42,76,64,331,41,7,22,294,,84,14,021,28,1*73
$GLGSV,3,3,10,85,49,069,50,86,33,147,48,1*73
$GAGSV,3,1,11,03,31,305,34,05,43,239,,09,14,188,42,10,07,149,,7*7A
$GAGSV,3,2,11,12,18,129,46,16,54,271,34,24,81,310,35,25,29,265,31,7*71
$GAGSV,3,3,11,26,10,025,,31,40,073,44,33,27,072,45,7*42
$GBGSV,3,1,09,05,15,124,35,07,04,054,,10,16,057,39,21,17,301,42,1*70
$GBGSV,3,2,09,22,13,250,41,27,41,065,47,28,08,034,,29,12,189,43,1*74
$GBGSV,3,3,09,30,50,142,39,1*44
$GNRMC,110043.00,A,4843.25972,N,00920.55458,E,0.004,,080225,,,A,V*18
$GNGGA,110043.00,4843.25972,N,00920.55458,E,1,12,0.47,249.9,M,47.6,M,,*44
$GPGSV,3,2,10,19,09,042,,24,34,145,41,25,65,281,34,28,20,308,35,1*6A
$GPGSV,3,3,10,29,28,20430,32,37,280,37,1*6A
$GLGSV,3,1,10,65,00,214,10,66,26,255,42,67,27,315,45,68,03,356,,1*71
$GLGSV,3,2,10,75,39,085,42,76,64,33142,77,22,294,,84,14,021,29,1*71
$GLGSV,3,3,10,85,49,069,49,86,33,147,48,1*7B
$GAGSV,3,1,11,03,31,305,33,05,43,239,,09,14,188,42,10,07,149,,7*7D
$GAGSV,3,2,11,12,18,129,46,16,54,271,35,24,81,310,35,25,29,265,31,7*70
$GAGSV,3,3,11,26,10,025,,31,40,073,44,33,27,072,45,7*42
$GBGSV,3,1,09,05,15,124,34,07,04,054,,10,16,057,39,21,17,301,43,1*70
$GBGSV,3,2,09,22,13,250,41,27,41,065,48,28,08,034,,29,12,189,43,1*7B
$GBGSV,3,3,09,30,50,142,40,1*4A
$GNRMC,110044.00,A,4843.25971,N,00920.55458,E,0.010,,080225,,,A,V*19
$GNGGA,110044.00,4843.25971,N,00920.55458,E,1,12,0.47,249.9,M,47.6,M,,*40
$GPGSV,3,1,10,3,02,353,,06,25,059,43,11,27,097,46,12,69,061,45,1*6A
$GPGSV,3,2,10,19,09,042,,24,34,145,41,25,65,281,35,28,20,308,36,1*68
$GPGSV,3,3,10,29,28,204,30,32,37,280,36,1*6B
$GLGSV,3,1,10,65,00,214,13,66,26,255,43,67,27,315,45,68,03,356,,1*73
$GLGSV,3,2,10,75,39,085,42,76,64,331,41,77,22,294,,84,14,021,29,1*72
$GLGSV,3,3,10,85,49,069,49,86,33,147,47,1*74
$GAGSV,3,1,11,03,31,305,33,05,43,239,,09,14,188,42,10,07,149,,7*7D
$GAGSV,3,2,11,12,18,129,45,16,54,271,35,24,81,310,35,25,29,265,31,7*73
$GAGSV,3,3,11,26,10,025,,31,40,073,44,33,27,072,45,7*42
$GBGSV,3,1,09,05,15,124,35,07,04,054,,10,16,057,39,21,17,301,43,1*71
$GBGSV,3,2,09,22,13,250,41,27,41,065,48,28,08,034,,29,12,189,43,1*7B
$GBGSV,3,3,09,30,50,142,40,1*4A
$GNRMC,110045.00,A,4843.25969,N,00920.55458,E,0.011,,080225,,,A,V*10
$GNGGA,110045.00,4843.25969,N,00920.55458,E,1,12,0.47,250.0,M,47.6,M,,*49
$GPGSV,3,1,10,03,02,353,,06,25,059,42,11,27,097,46,12,69,061,45,1*6B
$GPGSV,3,2,10,19,09,042,,24,34,145,42,25,65,281,34,28,20,308,36,1*6A
$GPGSV,3,3,10,29,28,204,29,32,37,280,37,1*62
$GLGSV,3,1,10,65,00,214,11,66,26,255,43,67,27,31,45,68,03,356,,1*71
$GLGSV,3,2,10,75,39,085,43,76,64,331,41,77,22,294,,84,14,021,29,1*73
$GLGSV,3,3,10,85,49,069,49,86,33,147,48,1*7B
$GAGSV,3,1,11,03,31,305,33,05,43,239,,09,14,188,42,10,07,149,,7*7D
$GAGSV,3,2,11,12,18,129,45,16,54,271,35,24,81,310,35,25,29,265,31,7*73
$GAGSV,3,3,11,26,10,025,,31,40,073,44,33,27,072,45,7*42
$GBGSV,3,1,09,05,15,124,34,07,04,054,,10,16,057,39,21,17,301,43,1*70
$GBGSV,3,2,09,22,13,250,41,27,41,065,48,28,08,034,,29,12,189,43,1*7B
$GBGSV,3,3,09,30,50,142,40,1*4A
$GPGSV,3,1,10,03,02,353,,06,25,059,42,11,27,097,46,12,69,061,45,1*6B
$GPGSV,3,2,10,19,09,042,,24,34,145,42,25,65,281,34,28,20,308,36,1*6A
$GPGSV,3,3,10,29,28,204,28,32,37,280,36,1*62
$GLGSV,3,1,10,65,00,214,13,66,26,255,43,67,27,315,46,68,03,356,,1*70
$GLGSV,3,2,10,75,39,085,43,76,64,331,41,77,22,294,,84,14,021,29,1*73
$GLGSV,3,3,10,85,49,069,48,86,33,147,47,1*75
$GAGSV,3,1,11,03,31,305,34,05,43,239,,09,14,188,42,10,07,149,,7*7A
$GAGSV,3,2,11,12,18,129,45,16,54,271,35,24,81,310,35,25,29,265,31,7*73
$GAGSV,3,3,11,26,10,025,,31,40,073,44,33,27,072,45,7*42
$GBGSV,3,1,09,05,15,124,35,07,04,054,,10,16,057,38,21,17,301,43,1*70
$GBGSV,3,2,09,22,13,250,41,27,41,065,48,28,08,034,,29,12,189,43,1*7B
$GBGSV,3,3,09,30,50,142,40,1*4A
$GNRMC,110047.00,A,4843.25966,N,00920.55459,E,0.018,,080225,,,A,V*15
$GNGGA,110047.00,4843.25966,N,00920.55459,E,1,12,0.47,250.0,M,47.6,M,,*45
$GPGSV,3,1,10,03,02,353,,06,25,059,42,11,27,097,45,12,69,061,45,1*68
$GPGSV,3,2,10,19,09,042,,24,34,145,42,25,65,282,33,28,20,308,36,1*6E
$GPGSV,3,3,10,29,28,204,26,32,37,280,36,1*6C
$GLGSV,3,1,10,65,00,214,12,66,26,255,43,67,27,315,46,68,03,356,,1*71
$GLGSV,3,2,10,75,39,085,42,76,64,331,41,77,22,294,,84,14,021,29,1*72
$GLGSV,3,3,10,85,49,069,48,86,33,147,47,1*75
$GAGSV,3,1,11,03,31,305,34,05,43,239,,09,14,18,43,10,07,149,,7*7B
$GAGSV,3,2,11,12,18,129,45,16,54,271,35,24,81,310,34,25,29,265,31,7*72
$GAGSV,3,3,11,26,10,025,,31,40,073,44,33,27,072,45,7*42
$GBGSV,3,1,09,05,15,124,35,07,04,054,,10,16,057,39,21,17,301,43,1*71
$GBGSV,3,2,09,22,13,250,41,27,41,065,48,28,08,034,,29,12,189,42,1*7A
$GBGSV,3,3,09,30,50,142,40,1*4A
$GNRMC,110048.00,A,4843.25965,N,00920.55460,E,0.013,,080225,,,A,V*18
$GNGGA,110048.00,4843.25965,N,00920.55460,E,1,12,0.47,250.1,M,47.6,M,,*42
$GPGSV,3,1,10,03,02,353,,06,25,059,42,11,27,097,45,12,69,061,45,1*68
$GPGSV,3,2,10,19,09,042,,24,34,145,42,25,65,282,33,28,20,308,36,1*6E
$GPGSV,3,3,10,29,28,204,25,32,37,280,35,1*6C
$GLGSV,3,1,10,65,00,214,12,66,26,255,43,67,27,315,46,68,03,356,,1*71
$GLGSV,3,2,10,75,39,085,43,76,64,331,41,77,22,294,,84,14,021,29,1*73
$GLGSV,3,3,10,85,49,069,48,86,33,147,47,1*75
$GAGSV,3,1,11,03,31,305,34,05,43,239,,09,14,188,43,10,07,149,,7*7B
$GAGSV,3,2,11,12,18,129,45,16,54,271,35,24,81,310,35,25,29,265,32,7*70
$GAGSV,3,3,11,26,10,025,,31,40,073,45,33,27,072,45,7*43
$GBGSV,3,1,09,05,15,124,35,07,04,054,,10,16,057,39,21,17,301,43,1*71
$GBGSV,3,2,09,22,13,250,41,27,41,065,48,28,08,034,,29,12,189,42,1*7A
$GBGSV,3,3,09,30,50,142,40,1*4A
$GNRMC,110049.00,A,4843.25964,N,00920.55460,E,0.004,,080225,,,A,V*1E
$GNGGA,110049.00,4843.25964,N,00920.55460,E,1,12,0.48,250.1,M,47.6,M,,*4D
$GPGSV,3,1,10,03,02,353,,06,25,059,42,11,27,097,45,12,69,061,45,1*68
$GPGSV,3,2,10,19,09,042,,24,34,145,43,25,65,282,32,28,20,308,36,1*6E
$GPGSV,3,3,10,29,28,204,24,32,37,280,34,1*6C
$GLGSV,3,1,10,65,00,214,12,66,26,255,44,67,27,315,46,68,03,356,,1*76
$GLGSV,3,2,10,75,39,085,43,76,64,331,41,77,22,294,,84,14,021,28,1*72
$GLGSV,3,3,10,85,49,069,47,86,33,147,47,1*7A
$GAGSV,3,1,11,03,31,305,34,05,43,239,,09,14,188,42,10,07,149,,7*7A
$GAGSV,3,2,11,12,18,129,45,16,54,271,35,24,81,310,34,25,29,265,31,7*72
$GAGSV,3,3,11,26,10,025,,31,40,073,45,33,27,072,45,7*43
$GBGSV,3,1,09,05,15,124,35,07,04,054,,10,16,057,39,21,17,301,43,1*71
$GBGSV,3,2,09,22,13,250,40,27,41,065,48,28,08,034,,29,12,189,42,1*7B
$GBGSV,3,3,09,30,50,142,41,1*4B
$GNRMC,110050.00,A,4843.25963,N,00920.55461,E,0.012,,080225,,,A,V*17
$GNGGA,110050.00,4843.25963,N,00920.55461,E,1,12,0.48,250.2,M,47.6,M,,*40
$GPGSV,3,1,10,03,02,353,,06,25,059,41,11,27,097,45,12,69,061,44,1*6A
$GPGSV,3,2,10,19,09,042,,24,34,145,43,25,65,282,31,28,20,308,36,1*6D
$GPGSV,3,3,10,29,28,204,26,32,37,280,34,1*6E
$GLGSV,3,1,10,65,00,214,11,66,26,255,44,67,27,315,45,68,03,356,,1*76
$GLGSV,3,2,10,75,39,085,44,76,64,331,41,77,22,294,,84,14,021,28,1*75
$GLGSV,3,3,10,85,49,069,48,86,33,147,48,1*7A
$GAGSV,3,1,11,03,31,305,34,05,43,239,,09,14,188,42,10,07,149,,7*7A
$GAGSV,3,2,11,12,18,129,45,16,54,271,35,24,81,310,34,25,29,265,31,7*72
$GAGSV,3,3,11,26,10,025,,31,40,073,45,33,27,072,45,7*43
$GBGSV,3,1,09,05,15,124,35,07,04,054,,10,16,057,39,21,17,301,43,1*71
$GBGSV,3,2,09,22,13,250,40,27,41,065,48,28,08,034,,29,12,189,42,1*7B
$GBGSV,3,3,09,30,50,142,41,1*4B
$GNRMC,110051.00,A,4843.25962,N,00920.55462,E,0.013,,080225,,,A,V*15
$GNGGA,110051.00,4843.25962,N,00920.55462,E,1,12,.48,250.2,M,47.6,M,,*43
$GPGSV,3,1,10,03,02,353,,06,25,059,41,11,27,097,45,12,69,061,44,1*6A
$GPGSV,3,2,10,19,09,042,,24,34,145,42,25,65,282,30,28,20,308,36,1*6D
$GPGSV,3,3,10,29,29,204,26,32,37,280,34,1*6F
$GLGSV,3,1,10,65,00,214,09,66,26,255,44,67,27,315,45,68,03,356,,1*7F
$GLGSV,3,2,10,75,39,085,44,76,64,331,41,77,22,294,,84,14,021,28,1*75
$GLGSV,3,3,10,85,49,069,49,86,33,147,48,1*7B
$GAGSV,3,1,11,03,31,305,34,05,43,239,,09,14,188,42,10,07,149,,7*7A
$GAGSV,3,2,11,12,18,129,45,16,54,271,35,24,81,310,34,25,29,265,31,7*72
$GAGSV,3,3,11,26,10,025,,31,40,073,45,33,27,072,45,7*43
$GBGSV,3,1,09,05,15,124,35,07,04,054,,10,16,057,39,21,17,301,43,1*71
$GBGSV,3,2,09,22,13,250,40,27,41,065,48,28,08,034,,29,12,189,42,1*7B
$GBGSV,3,3,09,30,50,142,41,1*4B
$GNRMC,110052.00,A,4843.25961,N,00920.55462,E,0.007,,080225,,,A,V*10
$GNGGA,110052.00,4843.25961,N,00920.55462,E,1,12,0.48,250.3,M,47.6,M,,*42
$GPGSV,3,1,10,03,02,353,,06,25,059,41,11,27,097,45,12,69,061,43,1*6D
$GPGSV,3,2,10,19,09,042,,24,34,145,2,25,65,282,29,28,20,308,36,1*65
$GPGSV,3,3,10,29,29,204,25,32,37,280,34,1*6C
$GLGSV,3,1,10,65,00,214,11,66,26,255,44,67,27,315,45,68,03,356,,1*76
$GLGSV,3,2,10,75,39,085,44,76,64,331,41,77,22,294,,84,14,021,29,1*74
$GLGSV,3,3,10,85,49,069,49,86,33,147,48,1*7B
$GAGSV,3,1,11,03,31,305,34,05,43,239,,09,14,188,42,10,07,149,,7*7A
$GAGSV,3,2,11,12,18,129,45,16,54,271,35,24,81,310,34,25,29,265,31,7*72
$GAGSV,3,3,11,26,10,025,,31,40,073,45,33,27,072,45,7*43
$GBGSV,3,1,09,05,15,124,35,07,04,054,,10,16,057,39,21,17,301,43,1*71
$GBGSV,3,2,09,22,13,250,40,27,41,065,48,28,08,034,,29,12,189,42,1*7B
$GBGSV,3,3,09,30,50,142,40,1*4A
$GNRMC,110053.00,A,4843.25960,N,00920.55464,E,0.013,,080225,,,A,V*13
$GNGGA,110053.00,4843.25960,N,00920.55464,E,1,12,0.48,250.4,M,47.6,M,,*43
$GPGSV,3,1,10,03,02,353,,06,25,059,41,11,27,097,45,12,69,061,43,1*6D
$GPGSV,3,2,10,19,09,042,,24,34,145,43,25,65,282,28,28,20,308,36,1*65
$GPGSV,3,3,10,29,29,204,28,32,37,280,34,1*61
$GLGSV,3,1,10,65,00,214,10,66,26,255,44,67,27,315,45,68,03,356,,1*77
$GLGSV,3,2,10,75,39,085,44,76,64,331,40,77,22,294,,84,14,021,29,1*75
$GLGSV,3,3,10,85,49,069,50,86,33,147,48,1*73
$GAGSV,3,1,11,03,31,305,34,05,43,239,,09,14,188,42,10,07,149,,7*7A
$GAGSV,3,2,11,12,18,129,45,16,54,271,35,24,81,310,34,25,29,65,31,7*72
$GAGSV,3,3,11,26,10,025,,31,40,073,45,33,27,072,45,7*43
$GBGSV,3,1,09,05,15,124,35,07,04,054,,10,16,057,39,21,17,301,43,1*71
$GBGSV,3,2,09,22,13,250,40,27,41,065,48,28,08,034,,29,12,189,41,1*78
$GBGSV,3,3,09,30,50,142,40,1*4A
$GNRMC,110054.00,A,4843.25959,N,00920.55465,E,0.005,,080225,,,A,V*18
$GNGGA,110054.00,4843.25959,N,00920.55465,E,1,12,0.48,250.4,M,47.6,M,,*4F
$GPGSV,3,1,10,03,02,353,,06,25,059,41,11,27,097,45,12,69,061,43,1*6D
$GPGSV,3,2,10,19,09,042,,24,34,145,42,25,65,282,27,28,20,308,37,1*6A
$GPGSV,3,3,10,29,29,204,29,32,37,279,34,1*66
$GLGSV,3,1,10,65,00,214,10,66,26,255,44,67,27,315,45,68,03,356,,1*77
$GLGSV,3,2,10,75,39,085,44,76,64,331,40,77,22,294,,84,14,021,29,1*75
$GLGSV,3,3,10,85,49,069,49,86,33,147,48,1*7B
$GAGSV,3,1,11,03,31,305,34,05,43,239,,09,14,188,42,10,07,149,,7*7A
$GAGSV,3,2,11,12,18,129,45,16,54,271,35,24,81,310,34,25,29,265,31,7*72
$GAGSV,3,3,11,26,10,025,,31,40,073,45,33,27,072,45,7*43
$GBGSV,3,1,09,05,15,124,35,07,04,054,,10,16,057,39,21,17,301,43,1*71
$GBGSV,3,2,09,22,13,250,40,27,41,065,48,28,08,034,,29,12,189,41,1*78
$GBGSV,3,3,09,30,50,142,40,1*4A
$GNRMC,110055.00,A,4843.25958,N,00920.55466,E,0.010,,080225,,,A,V*1F
$GNGGA,110055.00,4843.25958,N,00920.55466,E,1,12,0.48,250.5,M,47.6,M,,*4D
$GPGSV,3,1,10,03,02,353,,06,25,059,41,11,27,097,45,12,69,061,43,1*6D
$GPGSV,3,2,10,19,09,042,,24,34,145,42,25,65,282,27,28,20,308,37,1*6A
$GPGSV,3,3,10,29,29,204,29,32,37,279,34,1*66
$GLGSV,3,1,10,65,00,214,13,66,26,255,44,67,27,315,45,68,03,356,,1*74
$GLGSV,3,2,10,75,39,085,44,76,64,331,40,77,22,294,,84,14,021,29,1*75
$GLGSV,3,3,10,85,49,069,49,86,33,147,48,1*7B
$GAGSV,3,1,11,03,31,305,34,05,43,239,,09,14,188,42,10,07,149,,7*7A
$GAGSV,3,2,11,12,18,129,45,16,54,271,35,24,81,310,34,25,29,265,31,7*72
$GAGSV,3,3,11,26,10,025,,31,40,073,45,33,27,072,45,7*43
$GBGSV,3,1,09,05,15,124,35,07,04,054,,10,16,057,39,21,17,301,43,1*71
$GBGSV,3,2,09,22,13,250,40,27,41,065,47,28,08,034,,29,12,189,41,1*77
$GBGSV,3,3,09,30,50,142,40,1*4A
$GNRMC,110056.00,A,4843.25956,N,00920.55466,E,0.009,,080225,,,A,V*1A
$GNGGA,110056.00,4843.25956,N,00920.55466,E,1,12,0.47,250.5,M,47.6,M,,*4F
$GPGSV,3,1,10,03,02,353,,06,25,059,41,11,27,097,44,12,69,061,43,1*6C
$GPGSV,3,3,10,29,29,204,30,32,37,279,35,1*6F
$GLGSV,3,1,10,65,00,214,12,66,26,255,44,67,27,315,45,68,03,356,,1*75
$GLGSV,3,2,10,75,39,085,45,76,64,331,40,77,22,294,,84,14,021,29,1*74
$GLGSV,3,3,10,85,49,069,49,86,33,147,49,1*7A
$GAGSV,3,1,11,03,31,305,34,05,43,239,,09,14,188,42,10,07,149,,7*7A
$GAGSV,3,2,11,12,18,129,45,16,54,271,35,24,81,310,34,25,29,265,30,7*73
$GAGSV,3,3,11,26,10,025,,31,40,073,46,33,27,072,45,7*40
$GBGSV,3,1,09,05,15,124,35,07,04,054,,10,16,057,39,21,17,301,43,1*71
$GBGSV,3,2,09,22,13,250,40,27,41,065,47,28,08,034,,29,12,189,40,1*76
$GBGSV,3,3,09,30,50,142,40,1*4A
$GNRMC,110057.00,A,4843.25955,N,00920.55466,E,0.017,,080225,,,A,V*17
$GNGGA,110057.00,4843.25955,N,00920.55466,E,1,12,0.47,250.6,M,47.6,M,,*4E
$GPGSV,3,1,10,03,02,353,,06,25,059,41,11,27,097,44,12,69,061,43,1*6C
$GPGSV,3,2,10,19,09,042,,24,34,145,42,25,65,282,26,28,20,308,37,1*6B
$GPGSV,3,3,10,29,29,204,31,32,37,279,36,1*6D
$GLGSV,3,1,10,65,00,214,10,66,26,255,44,67,27,315,44,68,03,356,,1*76
$GLGSV,3,2,10,75,39,085,44,76,64,331,40,77,22,294,,84,14,021,29,1*75
$GLGSV,3,3,10,85,49,069,49,86,33,147,49,1*7A
$GAGSV,3,1,11,03,31,305,35,05,43,239,,09,14,188,42,10,07,149,,7*7B
$GAGSV,3,2,11,12,18,129,45,16,54,271,34,24,81,310,35,25,29,265,30,7*73
$GAGSV,3,3,11,26,10,025,,31,40,073,46,33,27,072,45,7*40
$GBGSV,3,1,09,05,15,124,35,07,04,054,,10,16,057,40,21,17,301,43,1*7F
$GBGSV,3,2,09,22,13,250,40,27,41,065,47,28,08,034,,29,12,189,41,1*77
$GBGSV,3,3,09,30,50,142,40,1*4A
$GNRMC,110058.00,A,4843.25953,N,00920.55466,E,0.007,,080225,,,A,V*1F
$GNGGA,110058.00,4843.25953,N,00920.55466,E,1,12,0.47,250.6,M,47.6,M,,*47
$GPGSV,3,1,10,03,02,353,,06,25,059,41,11,27,097,43,12,69,061,43,1*6B
$GPGSV,3,2,10,19,09,042,,24,34,145,42,25,65,282,27,28,20,308,37,1*6A
$GPGSV,3,3,10,29,29,204,31,32,37,279,36,1*6D
$GLGSV,3,1,10,65,00,214,13,66,26,255,42,67,27,315,44,68,03,356,,1*73
$GLGSV,3,2,10,75,39,085,46,76,64,331,38,77,22,294,,84,14,021,28,1*79
$GLGSV,3,3,10,85,49,069,48,86,33,147,49,1*7B
$GAGSV,3,1,11,03,31,305,35,05,43,239,,09,14,188,42,10,07,149,,7*7B
$GAGSV,3,2,11,12,18,129,45,16,54,271,35,24,81,310,34,25,29,265,31,7*72
$GAGSV,3,3,11,26,10,025,,31,40,073,46,33,27,072,45,7*40
$GBGSV,3,1,09,05,15,124,34,07,04,054,,10,16,057,39,21,17,301,43,1*70
$GBGSV,3,2,09,22,13,250,39,27,41,065,48,28,08,034,,29,12,189,41,1*76
$GBGSV,3,3,09,30,50,142,39,1*44
$GNRMC,110059.00,A,4843.25952,N,00920.55466,E,0.021,,080225,,,A,V*1B
$GNGGA,110059.00,4843.25952,N,00920.55466,E,1,12,0.47,250.7,M,47.6,M,,*46
$GPGSV,3,1,10,03,02,353,,06,25,059,42,11,27,097,43,12,69,061,43,1*68
$GPGSV,3,2,10,19,09,042,,24,34,145,40,25,65,282,28,28,20,308,37,1*67
$GPGSV,3,3,10,29,29,204,32,32,37,279,37,1*6F
$GLGSV,3,1,10,65,00,214,13,66,26,255,44,67,27,315,44,68,03,356,,1*75
$GLGSV,3,2,10,75,39,085,46,76,64,331,40,77,22,294,,84,14,021,28,1*76
$GLGSV,3,3,10,85,49,069,47,86,33,147,49,1*74
$GAGSV,3,1,11,03,31,305,34,05,43,239,,09,14,188,42,10,07,149,,7*7A
$GAGSV,3,2,11,12,18,129,44,16,54,271,34,24,81,310,34,25,29,265,30,7*73
$GAGSV,3,3,11,26,10,025,,31,40,073,46,33,27,072,45,7*40
$GBGSV,3,1,09,05,15,124,34,07,04,054,,10,16,057,40,21,17,301,43,1*7E
$GBGSV,3,2,09,22,13,250,41,27,41,065,47,28,08,034,,29,12,189,41,1*76
$GBGSV,3,3,09,30,50,142,38,1*45
$GNRMC,110100.00,A,4843.25951,N,00920.55465,E,0.003,,080225,,,A,V*16
$GNGGA,110100.00,4843.25951,N,00920.55465,E,1,12,0.47,250.8,M,47.6,M,,*44
$GPGSV,3,1,10,03,02,353,,06,25,059,42,11,27,097,43,12,69,061,44,1*6F
$GPGSV,3,210,19,09,042,,24,34,145,41,25,65,282,28,28,20,308,38,1*69
$GPGSV,3,3,10,29,29,204,33,32,37,279,37,1*6E
$GLGSV,3,1,10,65,00,214,11,66,26,255,44,67,27,315,44,68,03,356,,1*77
$GLGSV,3,2,10,75,39,085,45,76,64,331,41,77,22,294,,84,14,021,28,1*74
$GLGSV,3,3,10,85,49,069,48,86,33,147,49,1*7B
$GAGSV,3,1,11,03,31,305,35,05,42,239,,09,14,188,42,10,07,149,,7*7A
$GAGSV,3,2,11,12,18,129,44,16,54,271,34,24,81,310,35,25,29,265,29,7*7A
$GAGSV,3,3,11,26,10,025,,31,40,073,46,33,27,072,45,7*40
$GBGSV,3,1,09,05,15,124,35,07,04,054,,10,16,057,40,21,17,301,43,1*7F
$GBGSV,3,2,09,22,13,250,39,27,41,065,47,28,08,034,,29,12,189,41,1*79
$GBGSV,3,3,09,30,50,142,40,1*4A
$GNRMC,110101.00,A,4843.25950,N,00920.55465,E,0.018,,080225,,,A,V*1C
$GNGGA,110101.00,4843.25950,N,00920.5465,E,1,12,0.47,250.9,M,47.6,M,,*45
$GPGSV,3,1,10,03,02,353,,06,25,059,42,11,27,097,44,12,69,061,44,1*68
$GPGSV,3,2,10,19,09,042,,24,34,145,41,25,65,282,28,28,20,308,38,1*69
$GPGSV,3,3,10,29,29,204,34,32,37,279,38,1*66
$GLGSV,3,1,10,65,00,214,12,66,26,255,44,67,27,315,44,68,03,356,,1*74
$GLGSV,3,2,10,75,39,085,46,76,64,331,41,77,22,294,,84,14,021,27,1*78
$GLGSV,3,3,10,85,49,069,47,86,33,147,49,1*74
$GAGSV,3,1,11,03,31,305,35,05,42,239,,09,14,188,42,10,07,149,,7*7A
$GAGSV,3,2,11,12,18,129,44,16,54,271,34,24,81,310,35,25,29,265,28,7*7B
$GAGSV,3,3,11,26,10,025,,31,40,073,46,33,27,072,45,7*40
$GBGSV,3,1,09,05,15,124,35,07,04,054,,10,16,057,40,21,17,301,43,1*7F
$GBGSV,3,2,09,22,13,250,39,27,41,065,47,28,08,034,,29,12,189,41,1*79
$GBGSV,3,3,09,30,50,142,40,1*4A
$GNRMC,11002.00,A,4843.25950,N,00920.55465,E,0.017,,080225,,,A,V*10
$GNGGA,110102.00,4843.25950,N,00920.55465,E,1,12,0.47,251.0,M,47.6,M,,*4E
$GPGSV,3,1,10,03,02,353,,06,25,059,43,11,27,097,44,12,69,061,44,1*69
$GPGSV,3,2,10,19,09,042,,24,34,145,41,25,65,282,28,28,20,308,38,1*69
$GPGSV,3,3,10,29,29,204,35,32,37,279,39,1*66
$GLGSV,3,1,10,65,00,214,13,66,26,255,44,67,27,315,44,68,03,356,,1*75
$GLGSV,3,2,10,75,39,085,46,76,64,331,40,77,22,294,,84,14,021,27,1*79
$GLGSV,3,3,10,85,49,069,47,86,33,147,49,1*74
$GAGSV,3,1,11,03,31,305,35,05,42,239,,09,14,188,41,10,07,149,,7*79
$GAGSV,3,2,11,12,18,129,44,16,54,271,34,24,81,310,35,25,29,265,27,7*74
$GAGSV,3,3,11,26,10,025,,31,40,073,46,33,27,072,45,7*40
$GBGSV,3,1,09,05,15,124,35,07,04,054,,10,16,057,40,21,17,301,43,1*7F
$GBGSV,3,2,09,22,13,250,38,27,41,065,47,28,08,034,,29,12,189,41,1*78
$GBGSV,3,3,09,30,50,142,39,1*44
$GNRMC,110103.00,A,4843.25949,N,00920.55464,E,0.009,,080225,,,A,V*17
$GNGGA,110103.00,4843.25949,N,00920.55464,E,1,12,0.47,251.1,M,47.6,M,,*47
$GPGSV,3,1,10,03,02,353,,06,25,059,43,11,27,097,44,12,69,061,44,1*69
$GPGSV,3,2,10,19,09,042,,24,34,145,40,25,65,282,27,28,20,308,38,1*67
$GPGSV,3,3,10,29,29,204,34,32,37,279,40,1*69
$GLGSV,3,1,10,65,00,214,12,66,26,255,44,67,27,315,44,68,03,356,,1*74
$GLGSV,3,2,10,75,39,085,45,76,64,331,39,77,22,294,,84,14,021,26,1*75
$GLGSV,3,3,10,85,49,069,47,86,33,147,49,1*74
$GAGSV,3,1,11,03,31,305,35,05,42,239,,09,14,188,42,10,07,149,,7*7A
$GAGSV,3,2,11,12,18,129,44,16,54,271,34,24,81,310,35,25,29,265,26,7*75
$GAGSV,3,3,11,26,10,025,,31,40,073,47,33,27,072,45,7*41
$GBGSV,3,1,09,05,15,124,35,07,04,054,,10,16,057,40,21,17,301,43,1*7F
$GBGSV,3,2,09,22,13,250,38,27,41,065,47,28,08,034,,29,12,189,40,1*79
$GBGSV,3,3,09,30,50,142,39,1*44
$GNRMC,110104.00,A,4843.25949,N,00920.55464,E,0.011,,080225,,,A,V*19
$GNGGA,110104.00,4843.25949,N,00920.55464,E,1,12,0.47,251.1,M,47.6,M,,*40
$GPGSV,3,1,10,03,02,353,,06,25,059,43,11,27,097,44,12,69,061,44,1*69
$GPGSV,3,2,10,19,09,042,,24,34,145,41,25,65,282,26,28,20,308,37,1*68
$GPGSV,3,3,10,29,29,204,34,32,37,279,40,1*69
$GLGSV,3,1,10,65,00,214,13,66,26,255,44,67,27,315,43,68,03,356,,1*72
$GLGSV,3,2,10,75,39,085,46,76,64,331,38,77,22,294,,84,14,021,27,1*76
$GLGSV,3,3,10,85,49,069,47,86,33,147,50,1*7C
$GAGSV,3,1,11,03,31,305,34,05,42,239,,09,14,188,41,10,07,49,,7*78
$GAGSV,3,2,11,12,18,129,44,16,54,271,34,24,81,310,35,25,29,265,25,7*76
$GAGSV,3,3,11,26,10,025,,31,40,073,47,33,27,072,45,7*41
$GBGSV,3,1,09,05,15,124,35,07,04,054,,10,16,057,40,21,17,301,41,1*7D
$GBGSV,3,2,09,22,13,250,38,27,41,065,47,28,08,034,,29,12,189,41,1*78
$GBGSV,3,3,09,30,50,142,40,1*4A
$GNRMC,110105.00,A,4843.25948,N,00920.55464,E,0.018,,080225,,,A,V*10
$GNGGA,110105.00,4843.25948,N,00920.55464,E,1,12,0.4,251.2,M,47.6,M,,*43
$GPGSV,3,1,10,03,02,353,,06,25,059,43,11,27,097,43,12,69,061,44,1*6E
$GPGSV,3,2,10,19,09,042,,24,34,145,41,25,65,282,25,28,20,308,38,1*64
$GPGSV,3,3,10,29,29,204,34,32,37,279,41,1*68
$GLGSV,3,1,10,65,00,214,14,66,26,255,43,67,27,315,44,68,03,356,,1*75
$GLGSV,3,2,10,75,39,085,48,76,64,331,38,77,22,294,,84,14,021,27,1*78
$GLGSV,3,3,10,85,49,069,47,86,33,147,50,1*7C
$GAGSV,3,1,11,03,31,305,34,05,42,239,,09,14,188,42,10,07,148,,7*7A
$GAGSV,3,2,11,12,18,129,44,16,54,271,33,24,81,310,35,25,29,265,25,7*71
$GAGSV,3,3,11,26,10,025,,31,40,073,47,33,27,072,45,7*41
$GBGSV,3,1,09,05,15,124,35,07,04,054,,10,16,057,40,21,17,301,43,1*7F
$GBGSV,3,2,09,22,13,250,41,27,41,065,47,28,08,034,,29,12,189,41,1*76
$GBGSV,3,3,09,30,50,142,41,1*4B
$GNRMC,110106.00,A,4843.25948,N,00920.55464,E,0.006,,080225,,,A,V*1C
$GNGGA,110106.00,4843.25948,N,00920.55464,E,1,12,0.47,251.2,M,47.6,M,,*40
$GPGSV,3,1,10,03,02,353,,06,25,059,43,11,27,097,43,12,69,061,43,1*69
$GPGSV,3,2,10,19,09,042,,24,34,145,41,25,65,282,25,28,20,308,38,1*64
$GPGSV,3,3,10,29,29,204,34,32,37,279,40,1*69
$GLGSV,3,1,10,65,00,214,11,66,26,255,44,67,27,315,44,68,03,356,,1*77
$GLGSV,3,2,10,75,39,085,47,76,64,331,37,77,22,294,,84,14,021,26,1*79
$GLGSV,3,3,10,85,49,069,48,86,33,147,49,1*7B
$GAGSV,3,1,11,03,31,305,34,05,42,239,,09,14,188,42,10,07,148,,7*7A
$GAGSV,3,2,11,12,18,129,44,16,54,271,33,24,81,310,35,25,29,265,25,7*71
$GAGSV,3,3,11,26,10,025,,31,40,073,47,33,27,072,45,7*41
$GBGSV,3,1,09,05,15,124,35,07,04,054,,10,16,057,40,21,17,301,43,1*7F
$GBGSV,3,2,09,22,13,250,41,27,41,065,47,28,08,034,,29,12,189,41,1*76
$GBGSV,3,3,09,30,50,142,39,1*44
$GNRMC,110107.00,A,4843.25947,N,0090.55465,E,0.003,,080225,,,A,V*16
$GNGGA,110107.00,4843.25947,N,00920.55465,E,1,12,0.47,251.2,M,47.6,M,,*4F
$GPGSV,3,1,10,03,02,353,,06,25,059,42,11,27,097,43,12,69,061,44,1*6F
$GPGSV,3,2,10,19,09,042,,24,34,145,42,25,65,282,25,28,20,308,38,1*67
$GPGSV,3,3,10,29,29,204,36,32,37,279,41,1*6A
$GLGSV,3,1,10,65,00,214,10,66,26,255,44,67,27,315,43,68,03,356,,1*71
$GLGSV,3,2,10,75,39,085,48,76,64,331,37,77,22,294,,84,14,021,26,1*76
$GLGSV,3,3,10,85,49,069,48,86,33,147,49,1*7B
$GAGSV,3,1,11,03,31,305,34,05,42,239,,09,14,188,41,10,07,148,,7*79
$GAGSV,3,2,11,12,18,128,44,16,54,271,33,24,81,310,35,25,29,265,26,7*73
$GAGSV,3,3,11,26,10,025,,31,40,073,47,33,27,072,45,7*41
$GBGSV,3,1,09,05,15,124,35,07,04,054,,10,16,057,40,21,17,301,43,1*7F
$GBGSV,3,2,09,22,13,250,41,27,41,065,47,28,08,034,,29,12,189,43,1*74
$GBGSV,3,3,09,30,50,142,40,1*4A
$GNRMC,110108.00,A,4843.25947,N,00920.55466,E,0.021,,080225,,,A,V*1A
$GNGGA,110108.00,4843.25947,N,00920.55466,E,1,12,0.47,251.2,M,47.6,M,,*43
$GPGSV,3,1,10,03,02,353,,06,25,059,42,11,27,097,43,12,69,061,44,1*6F
$GPGSV,3,2,10,19,09,042,,24,34,145,42,25,65,282,25,28,20,308,38,1*67
