$GNRMC,080000.00,A,4843.25975,N,00920.55345,E,0.021,,080225,,,A,V*1C
$GNGGA,080000.00,4843.25975,N,00920.55345,E,1,12,0.50,246.6,M,47.6,M,,*41
$GPGSV,3,1,11,02,03,026,,10,17,320,,12,27,221,42,13,39,147,46,1*6C
$GPGSV,3,2,11,14,23,054,43,15,60,200,41,17,35,075,48,19,34,115,47,1*65
$GPGSV,3,3,11,22,44,057,47,23,27,276,,24,61,291,36,1*5C
$GLGSV,3,1,10,65,46,312,37,66,03,336,,71,13,171,46,72,56,202,31,1*7E
$GLGSV,3,2,10,73,22,056,38,74,65,028,34,75,50,260,40,82,10,006,40,1*77
$GLGSV,3,3,10,83,18,046,38,84,04,105,,1*7E
$GAGSV,3,1,09,04,41,151,45,05,27,310,41,06,66,172,41,09,75,256,38,7*7C
$GAGSV,3,2,09,13,02,033,,15,03,345,,23,47,057,47,24,22,220,33,7*7B
$GAGSV,3,3,09,31,73,190,39,7*4E
$GBGSV,3,1,10,05,15,124,39,07,22,050,44,10,32,060,43,11,04,016,,1*79
$GBGSV,3,2,10,19,51,264,37,20,34,196,46,22,20,320,40,23,02,072,,1*76
$GBGSV,3,3,10,27,05,136,,28,17,096,44,1*70
$GNRMC,080001.00,A,4843.25978,N,00920.55348,E,0.076,,080225,,,A,V*1F
$GNGGA,080001.00,4843.25978,N,00920.55348,E,1,12,0.52,246.8,M,47.6,M,,*4C
$GPGSV,3,1,11,02,03,026,,10,17,320,,12,27,221,42,13,39,147,45,1*6F
$GPGSV,3,2,11,14,23,054,43,15,60,200,40,17,35,075,48,19,34,115,46,1*65
$GPGSV,3,3,11,22,44,057,47,23,27,276,,24,61,291,35,1*5F
$GLGSV,3,1,10,65,46,312,38,66,03,336,,71,13,171,46,72,56,202,31,1*71
$GLGSV,3,2,10,73,22,056,38,74,65,028,34,75,50,260,40,82,10,006,40,1*77
$GLGSV,3,3,10,83,18,046,38,84,04,105,,1*7E
$GAGSV,3,1,09,04,41,151,45,05,27,310,41,06,66,172,41,09,75,256,38,7*7C
$GAGSV,3,2,09,13,02,033,,15,03,345,,23,47,057,47,24,22,220,34,7*7C
$GAGSV,3,3,09,31,73,190,39,7*4E
$GBGSV,3,1,10,05,15,124,39,07,22,050,44,10,32,060,43,11,04,016,,1*79
$GBGSV,3,2,10,19,51,264,37,20,34,196,46,22,20,320,40,23,02,072,,1*76
$GBGSV,3,3,10,27,05,136,,28,17,096,44,1*70
$GNRMC,080002.00,A,4843.25980,N,00920.55349,E,0.006,,080225,,,A,V*1D
$GNGGA,080002.00,4843.25980,N,00920.55349,E,1,12,0.50,246.9,M,47.6,M,,*4A
$GPGSV,3,1,11,02,03,026,,10,17,320,,12,27,221,42,13,39,147,45,1*6F
$GPGSV,3,2,11,14,23,054,43,15,59,200,40,17,35,075,49,19,35,114,46,1*6E
$GPGSV,3,3,11,22,44,057,47,23,27,276,,24,61,291,34,1*5E
$GLGSV,3,1,10,65,46,312,38,66,03,336,,71,13,171,46,72,56,202,32,1*72
$GLGSV,3,2,10,73,22,056,38,74,65,028,33,75,50,260,40,82,10,006,39,1*7E
$GLGSV,3,3,10,83,18,046,37,84,04,105,,1*71
$GAGSV,3,1,09,04,41,151,46,05,27,310,41,06,66,172,41,09,75,256,38,7*7F
$GAGSV,3,2,09,13,02,033,,15,03,345,,23,47,057,47,24,22,220,33,7*7B
$GAGSV,3,3,09,31,73,190,38,7*4F
$GBGSV,3,1,10,05,15,124,39,07,22,050,44,10,32,060,43,11,04,016,,1*79
$GBGSV,3,2,10,19,51,264,37,20,34,196,46,22,20,320,40,23,02,072,,1*76
$GBGSV,3,3,10,27,05,136,,28,17,096,44,1*70
$GNRMC,080003.00,A,4843.25983,N,00920.55350,E,0.023,,080225,,,A,V*10
$GNGGA,080003.00,4843.25983,N,00920.55350,E,1,12,0.50,247.0,M,47.6,M,,*48
$GPGSV,3,1,11,02,03,026,,10,17,320,,12,27,221,42,13,39,147,45,1*6F
$GPGSV,3,2,11,14,23,054,43,15,59,200,39,17,35,075,49,19,35,114,46,1*60
$GPGSV,3,3,11,22,44,057,47,23,27,276,,24,61,291,34,1*5E
$GLGSV,3,1,10,65,46,312,37,66,03,336,,71,13,171,46,72,56,202,32,1*7D
$GLGSV,3,2,10,73,22,056,39,74,65,028,33,75,50,260,39,82,10,006,39,1*71
$GLGSV,3,3,10,83,18,046,38,84,04,105,,1*7E
$GAGSV,3,1,09,04,41,151,46,05,27,310,41,06,66,172,40,09,75,256,37,7*71
$GAGSV,3,2,09,13,02,033,,15,03,345,,23,47,057,47,24,22,220,33,7*7B
$GAGSV,3,3,09,31,73,190,38,7*4F
$GBGSV,3,1,10,05,15,124,39,07,22,050,44,10,32,060,43,11,04,016,,1*79
$GBGSV,3,2,10,19,51,264,37,20,34,196,46,22,20,320,40,23,02,072,,1*76
$GBGSV,3,3,10,27,05,136,,28,17,096,44,1*70
$GNGGA,080004.00,4843.25985,N,00920.55351,E,1,12,0.50,247.1,M,47.6,M,,*49
$GPGSV,3,1,11,02,03,026,,10,17,320,,12,27,221,42,13,39,147,46,1*6C
$GPGSV,3,2,11,14,23,054,43,15,59,200,39,17,35,075,48,19,35,114,45,1*62
$GPGSV,3,3,11,22,44,057,47,23,27,276,,24,61,291,34,1*5E
$GLGSV,3,1,10,65,46,312,37,66,03,336,,71,13,171,46,72,56,202,33,1*7C
$GLGSV,3,2,10,73,22,056,40,74,65,028,33,75,50,260,39,82,10,006,42,1*73
$GLGSV,3,3,10,83,18,046,38,84,04,105,,1*7E
$GAGSV,3,1,09,04,41,151,46,05,27,310,41,06,66,172,41,09,75,256,37,7*70
$GAGSV,3,2,09,13,02,032,,15,03,345,,23,47,057,47,24,22,220,33,7*7A
$GAGSV,3,3,09,31,73,190,38,7*4F
$GBGSV,3,1,10,05,15,124,39,07,22,050,44,10,32,060,43,11,04,016,,1*79
$GBGSV,3,2,10,19,51,264,37,20,34,196,46,22,20,320,40,23,02,072,,1*76
$GBGSV,3,3,10,27,05,136,,28,17,096,44,1*70
$GNRMC,080005.00,A,4843.25988,N,00920.55353,E,0.012,,080225,,,A,V*1C
$GNGGA,080005.00,4843.25988,N,00920.55353,E,1,12,0.50,247.2,M,47.6,M,,*44
$GPGSV,3,1,11,02,03,026,,10,17,320,,12,27,221,42,13,39,147,45,1*6F
$GPGSV,3,2,11,14,23,054,43,15,59,200,39,17,35,075,48,19,35,114,45,1*62
$GPGSV,3,3,11,22,44,057,47,23,27,276,,24,61,291,35,1*5F
$GLGSV,3,1,10,65,46,312,38,66,03,336,,71,13,171,46,72,56,202,34,1*74
$GLGSV,3,2,10,73,22,056,40,74,65,028,33,75,50,260,39,82,10,006,40,1*71
$GLGSV,3,3,10,83,18,046,38,84,04,105,,1*7E
$GAGSV,3,1,09,04,41,151,46,05,27,310,41,06,66,172,40,09,75,256,37,7*71
$GAGSV,3,2,09,13,02,032,,15,02,345,,23,47,057,47,24,22,220,33,7*7B
$GAGSV,3,3,09,31,73,190,38,7*4F
$GBGSV,3,1,10,05,15,124,39,07,22,050,44,10,32,060,43,11,04,016,,1*79
$GBGSV,3,2,10,19,51,264,38,20,34,196,46,22,20,320,40,23,02,072,,1*79
$GBGSV,3,3,10,27,05,136,,28,17,096,44,1*70
$GNRMC,080006.00,A,4843.25991,N,00920.55355,E,0.031,,080225,,,A,V*10
$GNGGA,080006.00,4843.25991,N,00920.55355,E,1,12,0.50,247.3,M,47.6,M,,*48
$GPGSV,3,1,11,02,03,026,,10,17,320,,12,27,221,42,13,39,147,45,1*6F
$GPGSV,3,2,11,14,23,054,43,15,59,200,39,17,35,074,48,19,35,114,45,1*63
$GPGSV,3,3,11,22,44,057,47,23,27,276,,24,61,291,35,1*5F
$GLGSV,3,1,10,65,46,312,38,66,03,336,,71,13,171,46,72,56,202,35,1*75
$GLGSV,3,2,10,73,22,056,40,74,65,028,34,75,50,260,35,82,10,006,39,1*74
$GLGSV,3,3,10,83,18,046,38,84,04,105,,1*7E
$GAGSV,3,1,09,04,41,151,46,05,27,310,41,06,66,172,40,09,75,256,37,7*71
$GAGSV,3,2,09,13,02,032,,15,02,345,,23,47,057,48,24,22,220,33,7*74
$GAGSV,3,3,09,31,73,190,37,7*40
$GBGSV,3,1,10,05,15,124,39,07,22,050,44,10,32,060,43,11,04,016,,1*79
$GBGSV,3,2,10,19,51,264,38,20,34,196,46,22,20,320,40,23,02,072,,1*79
$GBGSV,3,3,10,27,05,136,,28,17,096,44,1*70
$GNRMC,080007.00,A,4843.25993,N,00920.55356,E,0.024,,080225,,,A,V*14
$GNGGA,080007.00,4843.25993,N,00920.55356,E,1,12,0.52,47.4,M,47.6,M,,*4D
$GPGSV,3,1,11,02,03,026,,10,17,320,,12,27,221,41,13,39,147,46,1*6F
$GPGSV,3,2,11,14,23,054,43,15,59,200,39,17,35,074,48,19,35,114,45,1*63
$GPGSV,3,3,11,22,44,057,47,23,27,276,,24,61,291,35,1*5F
$GLGSV,3,1,10,65,46,312,38,66,03,336,,71,13,171,45,72,56,202,35,1*76
$GLGSV,3,2,10,73,22,056,40,74,65,028,34,75,50,260,38,82,10,006,41,1*76
$GLGSV,3,3,10,83,18,046,38,84,04,105,,1*7E
$GAGSV,3,1,09,04,41,151,46,05,27,310,41,06,66,172,40,09,75,256,37,7*71
$GAGSV,3,2,09,13,02,032,,15,02,345,,23,47,057,47,24,22,220,32,7*7A
$GAGSV,3,3,09,31,73,190,37,7*40
$GBGSV,3,1,10,05,15,124,39,07,22,050,44,10,32,060,43,11,04,016,,1*79
$GBGSV,3,2,10,19,51,264,38,20,34,196,46,22,20,320,40,23,02,072,,1*79
$GBGSV,3,3,10,27,05,136,,28,17,096,44,1*70
$GNRMC,080008.00,A,4843.25995,N,00920.55356,E,0.041,,080225,,,A,V*1E
$GNGGA,080008.00,4843.25995,N,00920.55356,E,1,12,0.50,247.5,M,47.6,M,,*47
$GPGSV,3,1,11,02,03,026,,10,17,320,,12,27,221,41,13,39,147,46,1*6F
$GPGSV,3,2,11,14,23,054,43,15,59,200,39,17,35,074,48,19,35,114,45,1*63
$GPGSV,3,3,11,22,44,057,47,23,27,276,,24,61,291,35,1*5F
$GLGSV,3,1,10,65,46,312,38,66,03,336,,71,13,171,45,72,56,202,35,1*76
$GLGSV,3,2,10,73,22,056,42,74,65,028,35,75,50,260,37,82,10,006,38,1*74
$GLGSV,3,3,10,83,18,046,38,84,04,105,,1*7E
$GAGSV,3,1,09,04,41,151,46,05,27,310,41,06,66,172,40,09,75,256,37,7*71
$GAGSV,3,2,09,13,02,032,,15,02,345,,23,47,057,47,24,22,220,32,7*7A
$GBGSV,3,1,10,05,15,124,39,07,22,050,44,10,32,060,43,11,04,016,,1*79
$GBGSV,3,2,10,19,51,264,38,20,34,196,46,22,20,320,40,23,02,072,,1*79
$GBGSV,3,3,10,27,05,136,,28,17,096,44,1*70
$GNRMC,080009.00,A,4843.25997,N,00920.55355,E,0.052,,080225,,,A,V*1C
$GNGGA,080009.00,4843.25997,N,00920.55355,E,1,12,0.50,247.5,M,47.6,M,,*47
$GPGSV,3,1,11,02,03,026,,10,17,320,,12,27,221,41,13,39,147,46,1*6F
$GPGSV,3,2,11,14,23,054,43,15,59,200,39,17,35,074,48,19,35,114,46,1*60
$GPGSV,3,3,11,22,44,057,46,23,27,276,,24,61,291,35,1*5E
$GLGSV,3,1,10,65,46,312,38,66,03,336,,71,13,171,45,72,56,202,36,1*75
$GLGSV,3,2,10,73,22,056,41,74,65,028,35,75,50,260,37,82,10,006,37,1*78
$GLGSV,3,3,10,83,18,046,37,84,04,105,,1*71
$GAGSV,3,1,09,04,41,151,46,05,27,310,41,06,66,172,40,09,75,256,37,7*71
$GAGSV,3,2,09,13,02,032,,15,02,345,,23,47,057,47,24,22,220,32,7*7A
$GAGSV,3,3,09,31,73,190,37,7*40
$GBGSV,3,1,10,05,15,124,39,07,22,050,44,10,32,060,43,11,04,016,,1*79
$GBGSV,3,2,10,19,51,264,38,20,34,196,47,22,20,320,40,23,02,072,,1*78
$GBGSV,3,3,10,27,05,136,,28,17,096,44,1*70
$GNRMC,080010.00,A,4843.25999,N,00920.55354,E,0.007,,080225,,,A,V*1B
$GNGGA,080010.00,4843.25999,N,00920.55354,E,1,12,0.50,247.6,M,47.6,M,,*43
$GPGSV,3,1,11,02,03,026,,10,17,320,,12,27,221,41,13,39,147,46,1*6F
$GPGSV,3,2,11,14,23,054,43,15,59,200,40,17,35,074,48,19,35,114,46,1*6E
$GPGSV,3,3,11,22,44,057,46,23,27,276,,24,61,291,36,1*5D
$GLGSV,3,2,10,73,22,056,41,74,65,029,35,75,50,261,37,82,10,006,36,1*79
$GLGSV,3,3,10,83,18,046,37,84,04,105,,1*71
$GAGSV,3,1,09,04,41,151,46,05,27,310,41,06,66,172,40,09,75,256,36,7*70
$GAGSV,3,2,09,13,02,032,,15,02,345,,23,47,057,47,24,23,221,32,7*7A
$GAGSV,3,3,09,31,73,190,37,7*40
$GBGSV,3,1,10,05,15,124,40,07,22,050,44,10,32,060,43,11,04,016,,1*77
$GBGSV,3,2,10,19,51,264,39,20,34,196,47,22,20,320,39,23,02,072,,1*77
$GBGSV,3,3,10,27,05,136,,28,17,096,44,1*70
$GNRMC,080011.00,A,4843.26001,N,00920.55355,E,0.026,,080225,,,A,V*13
$GNGGA,080011.00,4843.26001,N,00920.55355,E,1,12,0.50,247.6,M,47.6,M,,*48
$GPGSV,3,1,11,02,03,026,,10,17,320,,12,27,221,41,13,39,147,46,1*6F
$GPGSV,3,2,11,14,23,054,43,15,59,200,40,17,35,074,48,19,35,114,46,1*6E
$GPGSV,3,3,11,22,44,057,47,23,27,276,,24,61,291,36,1*5C
$GLGSV,3,1,10,65,47,312,38,66,03,336,,71,12,171,44,72,56,202,36,1*74
$GLGSV,3,2,10,73,22,056,41,74,65,029,34,75,50,261,37,82,10,006,36,1*78
$GLGSV,3,3,10,83,18,046,36,84,04,105,,1*70
$GAGSV,3,1,09,04,41,151,46,05,27,310,41,06,66,172,40,09,75,256,36,7*70
$GAGSV,3,2,09,13,02,032,,15,02,345,,23,47,057,47,24,23,221,31,7*79
$GAGSV,3,3,09,31,73,190,37,7*40
$GBGSV,3,1,10,05,15,124,39,07,22,050,44,10,32,060,43,11,04,016,,1*79
$GBGSV,3,2,10,19,51,264,39,20,34,196,47,22,20,320,39,23,02,072,,1*77
$GBGSV,3,3,10,27,05,136,,28,17,096,44,1*70
$GNRMC,080012.00,A,4843.26004,N,00920.55357,E,0.022,,080225,,,A,V*13
$GNGGA,080012.00,4843.26004,N,00920.55357,E,1,12,0.50,247.8,M,47.6,M,,*42
$GPGSV,3,1,11,02,03,026,,10,17,320,,12,27,221,41,13,39,147,46,1*6F
$GPGSV,3,2,1,14,23,054,42,15,59,200,40,17,35,074,48,19,35,114,46,1*6F
$GPGSV,3,3,11,22,44,057,47,23,27,276,,24,61,291,36,1*5C
$GLGSV,3,1,10,65,47,312,38,66,03,336,,71,12,171,44,72,56,202,35,1*77
$GLGSV,3,2,10,73,22,056,41,74,65,029,35,75,50,261,37,82,10,006,35,1*7A
$GLGSV,3,3,10,83,18,046,35,84,04,105,,1*73
$GAGSV,3,1,09,04,41,151,46,05,27,310,41,06,66,172,40,09,75,256,36,7*70
$GAGSV,3,2,09,13,02,032,,15,02,345,,23,47,057,47,24,23,221,31,7*79
$GAGSV,3,3,09,31,73,190,37,7*40
$GBGSV,3,1,10,05,15,124,39,07,22,050,44,10,32,060,43,11,04,016,,1*79
$GBGSV,3,2,10,19,51,264,39,20,34,196,47,22,20,320,39,23,02,072,,1*77
$GBGSV,3,3,10,27,05,136,,28,17,096,43,1*77
$GNRMC,080013.00,A,4843.26007,N,00920.55356,E,0.005,,080225,,,A,V*15
$GNGGA,080013.00,4843.26007,N,00920.55356,E,1,12,0.52,247.9,M,47.6,M,,*42
$GPGSV,3,1,11,02,03,026,,10,17,320,,12,27,221,40,13,39,147,46,1*6E
$GPGSV,3,2,11,14,23,054,42,15,59,200,40,17,35,074,48,19,35,114,46,1*6F
$GPGSV,3,3,11,22,44,057,47,23,27,276,,24,61,291,36,1*5C
$GLGSV,3,1,10,65,47,312,38,66,03,336,,71,12,171,44,72,56,202,35,1*77
$GLGSV,3,2,10,73,22,056,41,74,65,029,35,75,50,261,37,82,10,006,35,1*7A
$GLGSV,3,3,10,83,18,046,35,84,04,105,,1*73
$GAGSV,3,1,09,04,41,151,46,05,27,310,41,06,66,172,40,09,75,256,36,7*70
$GAGSV,3,2,09,13,02,032,,15,02,345,,23,47,057,47,24,23,221,31,7*79
$GAGSV,3,3,09,31,73,190,36,7*41
$GBGSV,3,1,10,05,15,124,39,07,22,050,44,10,32,060,43,11,04,016,,1*79
$GBGSV,3,2,10,19,51,264,39,20,34,196,47,22,20,320,39,23,02,072,,1*77
$GBGSV,3,3,10,27,05,136,,28,17,096,44,1*70
$GNRMC,080014.00,A,4843.26008,N,00920.55356,E,0.025,,080225,,,A,V*1F
$GNGGA,080014.00,4843.26008,N,00920.55356,E,1,12,0.50,248.1,M,47.6,M,,*4F
$GPGSV,3,1,11,02,03,026,,10,17,320,,12,27,221,40,13,39,147,46,1*6E
$GPGSV,3,2,11,14,23,054,42,15,59,200,41,17,35,074,48,19,35,114,46,1*6E
$GPGSV,3,3,11,22,44,057,48,23,27,276,,24,61,291,36,1*53
$GLGSV,3,1,10,65,47,312,39,66,03,336,,71,12,171,44,72,56,202,35,1*76
$GLGSV,3,2,10,73,22,056,41,74,65,029,36,75,50,261,37,82,10,006,35,1*79
$GLGSV,3,3,10,83,18,046,36,84,04,105,,1*70
$GAGSV,3,1,09,04,41,151,46,05,27,310,41,06,66,172,40,09,75,256,36,7*70
$GAGSV,3,2,09,13,02,032,,15,02,345,,23,47,057,47,24,23,221,30,7*78
$GAGSV,3,3,09,31,73,190,36,7*41
$GBGSV,3,1,10,05,15,124,39,07,22,050,44,10,32,060,43,11,04,016,,1*79
$GBGSV,3,2,10,19,51,264,39,20,34,196,47,22,20,320,39,23,02,072,,1*77
$GBGSV,3,3,10,27,05,136,,28,17,096,44,1*70
$GNRMC,080015.00,A,4843.26010,N,00920.55354,E,0.059,,080225,,,A,V*1E
$GNGGA,080015.00,4843.26010,N,00920.55354,E,1,12,0.50,248.1,M,47.6,M,,*45
$GPGSV,3,1,11,02,03,026,,10,17,320,,12,27,221,40,13,39,147,46,1*6E
$GPGSV,3,2,11,14,23,054,43,15,59,200,41,17,35,074,48,19,35,114,47,1*6E
$GPGSV,3,3,11,22,44,057,47,23,27,276,,24,61,291,36,1*5C
$GLGSV,3,1,10,65,47,312,38,66,03,336,,71,12,171,44,72,56,202,35,1*77
$GLGSV,3,2,10,73,22,056,41,74,65,029,36,75,50,261,37,82,10,006,35,1*79
$GLGSV,3,3,10,83,18,046,36,84,04,105,,1*70
$GAGSV,3,1,09,04,41,151,46,05,27,310,41,06,66,172,40,09,75,256,36,7*70
$GAGSV,3,2,09,13,02,032,,15,02,345,,23,47,057,47,24,23,221,31,7*79
$GAGSV,3,3,09,31,73,190,36,7*41
$GBGSV,3,1,10,05,15,124,39,07,22,050,44,10,32,060,43,11,04,016,,1*79
$GBGSV,3,2,10,19,51,264,39,20,34,196,47,22,20,320,39,23,02,072,,1*77
$GBGSV,3,3,10,27,05,136,,28,17,096,43,1*77
$GNRMC,080016.00,A,4843.26012,N,00920.55354,E,0.012,,080225,,,A,V*10
$GNGGA,080016.00,4843.26012,N,00920.55354,E,1,12,0.50,248.2,M,47.6,M,,*47
$GPGSV,3,1,11,02,03,026,,10,17,320,,12,27,221,40,13,39,147,46,1*6E
$GPGSV,3,2,11,14,23,054,43,15,59,200,41,17,35,074,47,19,35,114,47,1*61
$GPGSV,3,3,11,22,44,057,47,23,27,276,,24,61,291,36,1*5C
$GLGSV,3,1,10,65,47,312,38,66,03,336,,71,12,171,44,72,56,202,34,1*76
$GLGSV,3,2,10,73,22,056,41,74,65,029,36,75,50,261,38,82,10,006,36,1*75
$GLGSV,3,3,10,83,18,046,35,84,04,105,,1*73
$GAGSV,3,1,09,04,41,151,46,05,27,310,41,06,66,172,40,09,75,256,35,7*73
$GAGSV,3,2,09,13,02,032,,15,02,345,,23,47,057,47,24,23,221,31,7*79
$GAGSV,3,3,09,31,74,190,36,7*46
$GBGSV,3,1,10,05,15,124,39,07,22,049,44,10,32,060,43,11,04,016,,1*71
$GBGSV,3,2,10,19,51,263,39,20,34,196,47,22,20,320,39,23,02,072,,1*70
$GBGSV,3,3,10,27,05,136,,28,18,096,43,1*78
$GNRMC,080017.00,A,4843.26015,N,00920.55354,E,0.004,,080225,,,A,V*11
$GNGGA,080017.00,4843.26015,N,00920.55354,E,1,12,0.50,248.4,M,47.6,M,,*47
$GPGSV,3,1,11,02,03,026,,10,17,320,,12,27,221,40,13,39,147,46,1*6E
$GPGSV,3,2,11,14,23,054,43,15,59,200,41,17,35,074,47,19,35,114,47,1*61
$GPGSV,3,3,11,22,44,057,47,23,27,276,,24,61,291,36,1*5C
$GLGSV,3,1,10,65,47,312,38,66,03,336,,71,12,171,44,72,56,202,34,1*76
$GLGSV,3,2,10,73,22,056,41,74,65,029,36,75,50,261,38,82,10,006,36,1*75
$GLGSV,3,3,10,83,18,046,34,84,04,105,,1*72
$GAGSV,3,1,09,04,41,151,46,05,27,310,41,06,66,172,41,09,75,256,35,7*72
$GAGSV,3,2,09,13,02,032,,15,02,345,,23,47,057,47,24,23,221,30,7*78
$GAGSV,3,3,09,31,74,190,36,7*46
$GBGSV,3,1,10,05,15,124,39,07,22,049,44,10,32,060,43,11,04,016,,1*71
$GBGSV,3,2,10,19,51,263,38,20,34,196,47,22,20,320,39,23,02,072,,1*71
$GBGSV,3,3,10,27,05,136,,28,18,096,43,1*78
$GNRMC,080018.00,A,4843.26018,N,00920.55354,E,0.031,,080225,,,A,V*15
$GNGGA,080018.00,4843.26018,N,00920.55354,E,1,12,0.50,248.5,M,47.6,M,,*44
$GPGSV,3,1,11,02,03,026,,10,17,320,,12,27,221,40,13,39,147,46,1*6E
$GPGSV,3,2,11,14,23,054,43,15,59,200,42,17,35,074,47,19,35,114,47,1*62
$GPGSV,3,3,11,22,44,057,47,23,27,276,,24,61,291,35,1*5F
$GLGSV,3,1,10,65,47,312,38,66,03,336,,71,12,171,44,72,56,202,33,1*71
$GLGSV,3,2,10,73,22,056,41,74,65,029,36,75,50,261,39,82,10,006,36,1*74
$GLGSV,3,3,10,83,18,046,33,84,04,105,,1*75
$GAGSV,3,1,09,04,41,151,46,05,27,310,41,06,66,17,40,09,75,256,35,7*73
$GAGSV,3,2,09,13,02,032,,15,02,345,,23,47057,47,24,23,22,30,7*78
$GAGSV,3,3,09,31,74,190,36,7*46
$GBGSV,3,1,10,05,15,124,39,07,22,049,44,10,32,060,43,11,04,016,,1*71
$GBGSV,3,2,10,19,51,263,38,20,34,196,47,22,20,320,39,23,02,072,,1*71
$GBGSV,3,3,10,27,05,136,,28,18,096,43,1*78
$GNRMC,080019.00,A,4843.26021,N,00920.55357,E,0.013,,080225,,,A,V*1D
$GNGGA,080019.00,4843.26021,N,00920.55357,E,1,12,0.50,248.7,M,47.6,M,,*4E
$GPGSV,3,1,11,02,03,026,,10,17,320,,12,27,221,40,13,39,147,46,1*6E
$GPGSV,3,2,11,14,23,054,43,15,59,200,42,17,35,074,47,19,35,114,47,1*62
$GPGSV,3,3,11,22,44,057,46,23,27,276,,24,61,291,34,1*5F
$GLGSV,3,1,10,65,47,312,38,66,03,336,,71,12,171,44,72,56,202,33,1*71
$GLGSV,3,2,10,73,22,056,41,74,65,029,36,75,50,261,39,82,10,006,36,1*74
$GLGSV,3,3,10,83,18,046,33,84,04,105,,1*75
$GAGSV,3,1,09,04,41,151,46,05,27,310,41,06,66,172,39,09,75,256,35,7*7D
$GAGSV,3,2,09,13,02,032,,15,02,345,,23,47,057,47,24,23,221,30,7*78
$GAGSV,3,3,09,31,74,190,36,7*46
$GBGSV,3,1,10,05,15,124,39,07,22,049,44,10,32,060,43,11,04,016,,1*71
$GBGSV,3,2,10,19,51,263,38,20,34,196,47,22,20,320,39,23,02,072,,1*71
$GBGSV,3,3,10,27,05,136,,28,18,096,43,1*78
$GNRMC,080020.00,A,4843.26025,N,00920.55360,E,0.018,,080225,,,A,V*1C
$GNGGA,080020.00,4843.26025,N,00920.55360,E,1,12,0.50,248.9,M,47.6,M,,*4A
$GPGSV,3,1,11,02,03,026,,10,17,320,,12,27,221,40,13,39,147,46,1*6E
$GPGSV,3,2,11,14,23,054,43,15,59,200,42,17,35,074,47,19,35,114,47,1*62
$GPGSV,3,3,11,22,44,057,46,23,27,276,,24,61,291,34,1*5F
$GLGSV,3,1,10,65,47,312,38,66,03,336,,71,12,171,44,72,56,202,34,1*76
$GLGSV,3,2,10,73,22,056,42,74,65,029,36,75,50,261,39,82,10,006,37,1*76
$GLGSV,3,3,10,83,18,046,33,84,04,105,,1*75
$GAGSV,3,1,09,04,41,151,47,05,27,310,41,06,66,172,41,09,75,256,35,7*73
$GAGSV,3,2,09,13,02,032,,15,02,345,,23,47,057,47,24,23,221,30,7*78
$GAGSV,3,3,09,31,74,190,36,7*46
$GBGSV,3,1,10,05,15,124,39,07,22,049,44,10,32,060,43,11,04,016,,1*71
$GBGSV,3,2,10,19,51,263,38,20,34,196,47,22,20,320,39,23,02,072,,1*71
$GBGSV,3,3,10,27,05,136,,28,18,096,43,1*78
$GNRMC,08021.00,A,4843.26028,N,00920.55362,E,0.033,,080225,,,A,V*1B
$GNGGA,080021.00,4843.26028,N,00920.55362,E,1,12,0.50,249.0,M,47.6,M,,*4C
$GPGSV,3,1,11,02,03,026,,10,17,320,,12,27,221,40,13,39,147,46,1*6E
$GPGSV,3,2,11,14,23,054,44,15,59,200,42,17,35,074,47,19,35,114,47,1*65
$GPGSV,3,3,11,22,44,057,47,23,27,276,,24,61,291,33,1*59
$GLGSV,3,1,10,65,47,312,38,66,03,336,,71,12,171,43,72,56,202,33,1*76
$GLGSV,3,2,10,73,22,056,42,74,65,029,35,75,50,261,39,82,10,006,36,1*74
$GLGSV,3,3,10,83,18,046,33,84,04,105,,1*75
$GAGSV,3,1,09,04,41,151,47,05,27,310,41,06,66,172,41,09,75,256,35,7*73
$GAGSV,3,2,09,13,02,032,,15,02,345,,23,47,057,47,24,23,221,30,7*78
$GAGSV,3,3,09,31,74,190,36,7*46
$GBGSV,3,1,10,05,15,124,40,07,22,049,44,10,32,060,43,11,04,016,,1*7F
$GBGSV,3,2,10,19,51,263,38,20,34,196,47,22,20,320,39,23,02,072,,1*71
$GBGSV,3,3,10,27,05,136,,28,18,096,43,1*78
$GNRMC,080022.00,A,4843.26032,N,00920.55362,E,0.022,,080225,,,A,V*13
$GNGGA,080022.00,4843.26032,N,00920.55362,E,1,12,0.50,249.1,M,47.6,M,,*45
$GPGSV,3,1,11,02,03,026,,10,17,320,,12,27,221,39,13,39,147,46,1*60
$GPGSV,3,2,11,14,23,054,44,15,59,200,42,17,35,074,47,19,35,114,47,1*65
$GPGSV,3,3,11,22,44,057,46,23,27,276,,24,61,291,32,1*59
$GLGSV,3,1,10,65,47,312,38,66,03,336,,71,12,171,43,72,56,202,33,1*76
$GLGSV,3,2,10,73,22,056,43,74,65,029,35,75,50,261,40,82,10,006,36,1*7B
$GLGSV,3,3,10,83,18,046,33,84,04,105,,1*75
$GAGSV,3,1,09,04,41,151,47,05,27,310,41,06,66,172,41,09,75,256,35,7*73
$GAGSV,3,2,09,13,02,032,,15,02,345,,23,47,057,47,24,23,221,30,7*78
$GAGSV,3,3,09,31,74,190,37,7*47
$GBGSV,3,1,10,05,15,124,39,07,22,049,44,10,32,060,43,11,04,016,,1*71
$GBGSV,3,2,10,19,51,263,37,20,34,196,47,22,20,320,39,23,02,072,,1*7E
$GBGSV,3,3,10,27,05,136,,28,18,096,43,1*78
$GNRMC,080023.00,A,4843.26035,N,00920.55364,E,0.011,,080225,,,A,V*13
$GNGGA,080023.00,4843.26035,N,00920.55364,E,1,12,0.50,249.2,M,47.6,M,,*46
$GPGSV,3,1,11,02,03,026,,10,17,320,,12,27,221,40,13,39,147,46,1*6E
$GPGSV,3,2,11,14,23,054,44,15,59,200,42,17,35,074,48,19,35,114,47,1*6A
$GPGSV,3,3,11,22,44,057,46,23,27,276,,24,61,291,31,1*5A
$GLGSV,3,1,10,65,47,312,38,66,03,336,,71,12,171,43,72,56,202,32,1*77
$GLGSV,3,2,10,73,22,056,43,74,65,029,36,75,50,261,40,82,10,006,36,1*78
$GLGSV,3,3,10,83,18,046,32,84,04,105,,1*74
$GAGSV,3,1,09,04,41,151,46,05,27,310,42,06,66,172,41,09,75,256,35,7*71
$GAGSV,3,2,09,13,02,032,,15,02,345,,23,47,057,47,24,23,221,31,7*79
$GAGSV,3,3,09,31,74,190,37,7*47
$GBGSV,3,1,10,05,15,124,39,07,22,049,44,10,32,060,43,11,04,016,,1*71
$GBGSV,3,2,10,19,51,263,37,20,34,196,47,22,20,320,39,23,02,072,,1*7E
$GBGSV,3,3,10,27,05,136,,28,18,096,43,1*78
$GNRMC,080024.00,A,4843.26038,N,00920.55365,E,0.014,,080225,,,A,V*1D
$GNGGA,080024.00,4843.26038,N,00920.55365,E,1,12,0.50,249.3,M,47.6,M,,*4C
$GPGSV,3,1,11,02,03,026,,10,17,320,,12,27,221,40,13,39,147,47,1*6F
$GPGSV,3,2,1,14,23,054,44,15,59,200,42,17,35,074,48,19,35,114,47,1*6A
$GPGSV,3,3,11,22,44,057,46,23,27,276,,24,61,291,29,1*53
$GLGSV,3,1,10,65,47,312,38,66,03,336,,71,12,171,43,72,56,202,31,1*74
$GLGSV,3,2,10,73,22,056,43,74,65,029,36,75,50,261,40,82,10,006,36,1*78
$GLGSV,3,3,10,83,18,046,33,84,04,105,,1*75
$GAGSV,3,1,09,04,41,151,46,05,27,310,41,06,66,172,41,09,75,256,35,7*72
$GAGSV,3,2,09,13,02,032,,15,02,345,,23,47,057,47,24,23,221,31,7*79
$GAGSV,3,3,09,31,74,190,36,7*46
$GBGSV,3,1,10,05,15,124,39,07,22,049,44,10,32,060,43,11,04,016,,1*71
$GBGSV,3,2,10,19,51,263,37,20,34,196,47,22,20,320,39,23,02,072,,1*7E
$GBGSV,3,3,10,27,05,136,,28,18,096,42,1*79
$GNRMC,080025.00,A,4843.26041,N,00920.55367,E,0.010,,080225,,,A,V*14
$GNGGA,080025.00,4843.26041,N,00920.55367,E,1,12,0.50,249.4,M,47.6,M,,*46
$GPGSV,3,1,11,02,03,026,,10,17,320,,12,27,221,40,13,39,147,47,1*6F
$GPGSV,3,2,11,14,23,054,44,15,59,200,42,17,35,074,48,19,35,114,47,1*6A
$GPGSV,3,3,11,22,44,057,46,23,27,276,,24,61,291,28,1*52
$GLGSV,3,1,10,65,47,312,38,66,03,336,,71,12,171,43,72,56,202,31,1*74
$GLGSV,3,2,10,73,22,056,43,74,65,029,36,75,50,261,40,82,10,006,36,1*78
$GLGSV,3,3,10,83,18,046,34,84,04,105,,1*72
$GAGSV,3,1,09,04,41,151,47,05,27,310,42,06,66,172,41,09,75,256,35,7*70
$GAGSV,3,2,09,13,02,032,,15,02,345,,23,47,057,47,24,23,221,31,7*79
$GAGSV,3,3,09,31,74,190,36,7*46
$GBGSV,3,1,10,05,15,124,39,07,22,049,44,10,32,060,43,11,04,016,,1*71
$GBGSV,3,2,10,19,51,263,36,20,34,196,47,22,20,320,39,23,02,072,,1*7F
$GBGSV,3,3,10,27,05,136,,28,18,096,42,1*79
$GNRMC,080026.00,A,4843.26044,N,00920.55368,E,0.014,,080225,,,A,V*19
$GNGGA,080026.00,4843.26044,N,00920.55368,E,1,12,0.50,249.6,M,47.6,M,,*4D
$GPGSV,3,1,11,02,03,026,,10,17,320,,12,27,221,40,13,39,147,47,1*6F
$GPGSV,3,2,11,14,23,054,44,15,59,200,42,17,35,074,48,19,35,114,47,1*6A
$GPGSV,3,3,11,22,44,057,46,23,27,276,,24,61,291,28,1*52
$GLGSV,3,1,10,65,47,312,38,66,03,336,,71,12,171,43,72,56,202,30,1*75
$GLGSV,3,2,10,73,22,056,43,74,65,029,36,75,50,261,40,82,10,006,36,1*78
$GLGSV,3,3,10,83,18,046,34,84,04,105,,1*72
$GAGSV,3,1,09,04,41,151,47,05,27,310,42,06,66,172,41,09,75,256,35,7*70
$GAGSV,3,2,09,13,02,032,,15,02,345,,23,47,057,47,24,23,221,30,7*78
$GAGSV,3,3,09,31,74,190,36,7*46
$GBGSV,3,1,10,05,15,124,39,07,22,049,44,10,32,060,43,11,04,016,,1*71
$GBGSV,3,2,10,19,51,263,36,20,34,196,47,22,20,320,39,23,02,072,,1*7F
$GBGSV,3,3,10,27,05,136,,28,18,096,43,1*78
$GNRMC,080027.00,A,4843.26047,N,00920.55370,E,0.007,,080225,,,A,V*10
$GNGGA,080027.00,4843.26047,N,00920.55370,E,1,12,0.50,249.7,M,47.6,M,,*47
$GPGSV,3,1,11,02,03,026,,10,17,320,,12,27,221,40,13,39,147,48,1*60
$GPGSV,3,2,11,14,23,054,44,15,59,200,41,17,35,074,49,19,35,114,47,1*68
$GPGSV,3,3,11,22,44,057,46,23,27,276,,24,61,291,28,1*52
$GLGSV,3,1,10,65,47,312,37,66,03,336,,71,12,171,43,72,56,202,29,1*72
$GLGSV,3,2,10,73,22,056,43,74,65,029,36,75,50,261,40,82,10,006,35,1*7B
$GLGSV,3,3,10,83,18,046,35,84,04,105,,1*73
$GAGSV,3,1,09,04,41,151,47,05,27,310,42,06,66,172,41,09,75,256,35,7*70
$GAGSV,3,2,09,13,02,032,,15,02,345,,23,47,057,47,24,23,221,30,7*78
$GAGSV,3,3,09,31,74,190,37,7*47
$GBGSV,3,1,10,05,15,124,39,07,22,049,44,10,32,060,43,11,04,016,,1*71
$GBGSV,3,2,10,19,51,263,36,20,34,196,47,22,20,320,39,23,02,072,,1*7F
$GBGSV,3,3,10,27,05,136,,28,18,096,43,1*78
$GNRMC,080028.00,A,4843.26050,N,00920.55371,E,0.005,,080225,,,A,V*1A
$GNGGA,080028.00,4843.26050,N,00920.55371,E,1,12,0.50,249.8,M,47.6,M,,*40
$GPGSV,3,1,11,02,03,026,,10,17,320,,12,27,221,40,13,39,147,47,1*6F
$GPGSV,3,2,11,14,23,054,44,15,59,200,41,17,35,074,49,19,35,114,47,1*68
$GPGSV,3,3,11,22,44,057,46,23,27,276,,24,61,291,28,1*52
$GLGSV,3,1,10,65,47,312,37,66,03,336,,71,12,171,43,72,56,202,27,1*7C
$GLGSV,3,2,10,73,22,056,43,74,65,029,36,75,50,261,40,82,10,006,34,1*7A
$GLGSV,3,3,10,83,18,046,36,84,04,105,,1*70
$GAGSV,3,1,09,04,41,151,47,05,27,310,42,06,66,172,41,09,75,256,35,7*70
$GAGSV,3,2,09,13,02,032,,15,02,345,,23,47,057,47,24,23,221,31,7*79
$GAGSV,3,3,09,31,74,190,37,7*47
$GBGSV,3,1,10,05,15,124,39,07,22,049,44,10,32,060,43,11,04,016,,1*71
$GBGSV,3,2,10,19,51,263,36,20,34,196,47,22,20,320,39,23,02,072,,1*7F
$GBGSV,3,3,10,27,05,136,,28,18,096,43,1*78
$GNGGA,080029.00,4843.26053,N,00920.55373,E,1,12,0.50,249.9,M,47.6,M,,*41
$GPGSV,3,1,11,02,03,026,,10,17,320,,12,27,221,40,13,39,147,47,1*6F
$GPGSV,3,2,11,14,23,054,44,15,59,200,40,17,35,074,49,19,35,114,47,1*69
$GPGSV,3,3,11,22,44,057,46,23,27,276,,24,61,291,29,1*53
$GLGSV,3,1,10,65,47,312,37,66,03,336,,71,12171,43,72,56,202,26,1*7D
$GLGSV,3,2,10,73,22,056,43,74,65,029,37,75,50,261,40,82,10,006,34,1*7B
$GLGSV,3,3,10,83,18,046,36,84,04,105,,1*70
$GAGSV,3,1,09,04,41,151,47,05,27,310,42,06,66,172,41,09,75,256,35,7*70
$GAGSV,3,2,09,13,02,032,,15,02,345,,23,47,057,47,24,23,221,32,7*7A
$GAGSV,3,3,09,31,74,190,37,7*47
$GBGSV,3,1,10,05,15,124,39,07,22,049,44,10,32,060,43,11,04,016,,1*71
$GBGSV,3,2,10,19,51,263,35,20,34,196,47,22,20,320,39,23,02,072,,1*7C
$GBGSV,3,3,10,27,05,136,,28,18,096,43,1*78
$GNRMC,080030.00,A,4843.26056,N,00920.55375,E,0.007,,080225,,,A,V*13
$GNGGA,080030.00,4843.26056,N,00920.55375,E,1,12,0.50,250.0,M,47.6,M,,*4B
$GPGSV,3,1,11,02,03,026,,10,17,320,,12,27,221,40,13,39,147,48,1*60
$GPGSV,3,2,11,14,23,054,44,15,59,200,40,17,35,074,49,19,35,114,47,1*69
$GPGSV,3,3,11,22,44,057,46,23,27,276,,24,61,291,29,1*53
$GLGSV,3,1,10,65,47,312,37,66,03,336,,71,12,171,44,72,56,202,24,1*78
$GLGSV,3,2,10,73,22,056,43,74,65,029,37,75,50,261,40,82,10,006,34,1*7B
$GLGSV,3,3,10,83,18,046,37,84,04,105,,1*71
$GAGSV,3,1,09,04,41,151,47,05,27,310,42,06,66,172,41,09,75,256,35,7*70
$GAGSV,3,2,09,13,02,032,,15,02,345,,23,47,057,47,24,23,221,32,7*7A
$GAGSV,3,3,09,31,74,190,36,7*46
$GBGSV,3,1,10,05,15,124,39,07,22,049,45,10,32,060,43,11,04,016,,1*70
$GBGSV,3,2,10,19,51,263,35,20,34,196,47,22,20,320,39,23,02,072,,1*7C
$GBGSV,3,3,10,27,05,136,,28,18,096,43,1*78
$GNRMC,080031.00,A,4843.26059,N,00920.55376,E,0.004,,080225,,,A,V*1D
$GNGGA,080031.00,4843.26059,N,0020.55376,E,1,12,0.50,250.1,M,47.6,M,,*47
$GPGSV,3,1,11,02,03,026,,10,17,320,,12,27,221,40,13,39,147,48,1*60
$GPGSV,3,2,11,14,23,054,44,15,59,200,40,17,35,074,49,19,35,114,47,1*69
$GPGSV,3,3,11,22,44,057,46,23,27,276,,24,61,291,30,1*5B
$GLGSV,3,1,10,65,47,312,37,66,03,336,,71,12,171,44,72,56,202,24,1*78
$GLGSV,3,2,10,73,22,056,43,74,65,029,37,75,50,261,40,82,10,006,33,1*7C
$GLGSV,3,3,10,83,18,046,37,84,04,105,,1*71
$GAGSV,3,1,09,04,41,151,47,05,27,310,42,06,66,172,41,09,75,256,35,7*70
$GAGSV,3,2,09,13,02,032,,15,02,345,,23,47,057,47,24,23,221,32,7*7A
$GAGSV,3,3,09,31,74,190,33,7*43
$GBGSV,3,1,10,05,15,124,39,07,22,049,45,10,32,060,43,11,04,016,,1*70
$GBGSV,3,2,10,19,51,263,35,20,34,196,47,22,20,320,39,23,02,072,,1*7C
$GBGSV,3,3,10,27,05,136,,28,18,096,43,1*78
$GNRMC,080032.00,A,4843.26062,N,00920.55376,E,0.009,,080225,,,A,V*1B
$GNGGA,080032.00,4843.26062,N,00920.55376,E,1,12,0.50,250.2,M,47.6,M,,*4F
$GPGSV,3,1,11,02,03,026,,10,17,320,,12,27,221,40,13,39,147,49,1*61
$GPGSV,3,2,11,14,23,054,44,15,59,200,40,17,35,074,49,19,35,114,47,1*69
$GPGSV,3,3,11,22,44,057,46,23,27,276,,24,61,291,31,1*5A
$GLGSV,3,1,10,65,47,312,36,66,03,336,,71,12,171,44,72,56,202,26,1*7B
$GLGSV,3,2,10,73,22,056,43,74,65,029,37,75,50,261,40,82,10,006,33,1*7C
$GLGSV,3,3,10,83,18,046,37,84,04,105,,1*71
$GAGSV,3,1,09,04,41,151,47,05,27,310,42,06,66,172,41,09,75,256,36,7*73
$GAGSV,3,2,09,13,02,032,,15,02,345,,23,47,057,47,24,23,221,33,7*7B
$GAGSV,3,3,09,31,74,190,37,7*47
$GBGSV,3,1,10,05,15,124,40,07,22,049,45,10,32,060,43,11,04,016,,1*7E
$GBGSV,3,2,10,19,51,263,35,20,34,196,47,22,20,320,39,23,02,072,,1*7C
$GBGSV,3,3,10,27,05,136,,28,18,096,43,1*78
$GNRMC,080033.00,A,4843.26065,N,00920.55377,E,0.005,,080225,,,A,V*10
$GNGGA,080033.00,4843.26065,N,00920.55377,E,1,12,0.50,250.3,M,47.6,M,,*49
$GPGSV,3,1,11,02,03,026,,10,17,320,,12,27,221,40,13,39,147,49,1*61
$GPGSV,3,2,11,14,23,054,43,15,59,200,40,17,35,074,48,19,35,114,47,1*6F
$GPGSV,3,3,11,22,44,057,46,23,27,276,,24,61,291,32,1*59
$GLGSV,3,1,10,65,47,312,36,66,03,336,,71,12,171,44,72,56,202,29,1*74
$GLGSV,3,2,10,73,22,056,43,74,65,029,37,75,50,261,41,82,10,006,32,1*7C
$GLGSV,3,3,10,83,18,046,37,84,04,105,,1*71
$GAGSV,3,1,09,04,41,151,47,05,27,310,42,06,66,172,41,09,75,256,36,7*73
$GAGSV,3,2,09,13,02,032,,15,02,345,,23,47,057,47,24,23,221,33,7*7B
$GAGSV,3,3,09,31,74,190,37,7*47
$GBGSV,3,1,10,05,15,124,39,07,22,049,45,10,32,060,43,11,04,016,,1*70
$GBGSV,3,2,10,19,51,263,35,20,34,196,46,22,20,320,39,23,02,072,,1*7D
$GBGSV,3,3,10,27,05,136,,28,18,096,43,1*78
$GNRMC,080034.00,A,4843.26068,N,00920.55377,E,0.015,,080225,,,A,V*1B
$GNGGA,080034.00,4843.26068,N,00920.55377,E,1,12,0.50,250.4,M,47.6,M,,*44
$GPGSV,3,1,11,02,03,026,,10,17,320,,12,27,221,40,13,39,147,49,1*61
$GPGSV,3,2,11,14,23,054,43,15,59,200,41,17,35,074,48,19,35,114,47,1*6E
$GPGSV,3,3,11,22,44,057,46,23,27,276,,24,61,291,33,1*58
$GLGSV,3,1,10,65,47,312,36,66,03,336,,71,12,171,44,72,56,202,30,1*7C
$GLGSV,3,2,10,73,22,056,43,74,65,029,36,75,50,261,41,82,10,006,33,1*7C
$GLGSV,3,3,10,83,18,046,37,84,04,105,,1*71
$GAGSV,3,1,09,04,41,151,47,05,27,310,42,06,66,172,41,09,75,256,36,7*73
$GAGSV,3,2,09,13,02,032,,15,02,345,,23,47,057,47,24,23,221,33,7*7B
$GAGSV,3,3,09,31,74,190,37,7*47
$GBGSV,3,1,10,05,15,124,39,07,22,049,45,10,32,060,43,11,04,016,,1*70
$GBGSV,3,2,10,19,51,263,35,20,34,196,46,22,20,320,39,23,02,072,,1*7D
$GBGSV,3,3,10,27,05,136,,28,18,096,43,1*78
$GNRMC,080035.00,A,4843.26070,N,00920.55377,E,0.013,,080225,,,A,V*15
$GNGGA,080035.00,4843.26070,N,00920.55377,E,1,12,0.50,250.5,M,47.6,M,,*4D
$GPGSV,3,1,11,02,03,026,,10,17,320,,12,27,221,40,13,39,147,48,1*60
$GPGSV,3,2,11,14,23,054,43,15,59,200,40,17,35,074,48,19,35,114,47,1*6F
$GPGSV,3,3,11,22,44,057,46,23,27,276,,24,61,291,33,1*58
$GLGSV,3,1,10,65,47,312,37,66,03,336,,71,12,171,44,72,56,202,31,1*7C
$GLGSV,3,2,10,73,22,056,43,74,65,029,36,75,50,261,41,82,10,006,34,1*7B
$GLGSV,3,3,10,83,18,046,37,84,04,105,,1*71
$GAGSV,3,109,04,41,151,47,05,27,310,42,06,66,172,41,09,75,256,36,7*73
$GAGSV,3,2,09,13,02,032,,15,02,345,,23,47,057,47,24,23,221,33,7*7B
$GAGSV,3,3,09,31,74,190,36,7*46
$GBGSV,3,1,10,05,15,124,39,07,22,049,45,10,32,060,43,11,04,016,,1*70
$GBGSV,3,2,10,19,51,263,36,20,33,196,46,22,20,320,39,23,02,072,,1*79
$GBGSV,3,3,10,27,05,136,,28,18,096,43,1*78
$GNRMC,080036.00,A,4843.26073,N,00920.55378,E,0.005,,080225,,,A,V*1D
$GNGGA,080036.00,4843.26073,N,00920.55378,E,1,12,0.50,250.6,M,47.6,M,,*41
$GPGSV,3,1,11,02,03,026,,10,17,320,,12,27,221,41,13,39,147,48,1*61
$GPGSV,3,2,11,14,23,054,43,15,59,200,40,17,35,074,48,19,35,114,47,1*6F
$GPGSV,3,3,11,22,44,057,46,23,27,276,,24,61,291,34,1*5F
$GLGSV,3,1,10,65,47,312,37,66,03,336,,71,12,171,45,72,56,202,32,1*7E
$GLGSV,3,2,10,73,22,056,43,74,65,029,35,75,50,261,41,82,10,006,34,1*78
$GLGSV,3,3,10,83,18,046,37,84,04,105,,1*71
$GAGSV,3,1,09,04,41,151,47,05,27,310,42,06,66,172,41,09,75,256,36,7*73
$GAGSV,3,2,09,13,02,032,,15,02,345,,23,47,057,47,24,23,221,34,7*7C
$GAGSV,3,3,09,31,74,190,36,7*46
$GBGSV,3,1,10,05,15,124,39,07,22,049,45,10,32,060,43,11,04,016,,1*70
$GBGSV,3,2,10,19,51,263,36,20,33,196,46,22,20,320,39,23,02,072,,1*79
$GBGSV,3,3,10,27,05,136,,28,18,096,43,1*78
$GNRMC,080037.00,A,4843.26076,N,00920.55379,E,0.007,,080225,,,A,V*1A
$GNGGA,080037.00,4843.26076,N,00920.55379,E,1,12,0.50,250.8,M,47.6,M,,*4A
$GPGSV,3,1,11,02,03,026,,10,17,320,,12,27,221,41,13,39,147,48,1*61
$GPGSV,3,2,11,14,23,054,43,15,59,200,41,17,35,074,48,19,35,114,47,1*6E
$GPGSV,3,3,11,22,44,057,46,23,27,276,,24,61,291,34,1*5F
$GLGSV,3,1,10,65,47,312,37,66,03,336,,71,12,171,45,72,56,202,33,1*7F
$GLGSV,3,2,10,73,22,056,43,74,65,029,35,75,50,261,41,82,10,006,34,1*78
$GLGSV,3,3,10,83,18,046,37,84,04,105,,1*71
$GAGSV,3,1,09,04,41,151,47,05,27,310,42,06,66,172,41,09,75,256,36,7*73
$GAGSV,3,2,09,13,02,032,,15,02,345,,23,47,057,46,24,23,221,34,7*7D
$GAGSV,3,3,09,31,74,190,36,7*46
$GBGSV,3,1,10,05,15,124,39,07,22,049,45,10,32,060,43,11,04,016,,1*70
$GBGSV,3,2,10,19,51,263,36,20,33,196,46,22,20,320,39,23,02,072,,1*79
$GBGSV,3,3,10,27,05,136,,28,18,096,43,1*78
$GNRMC,080038.00,A,4843.26078,N,00920.55380,E,0.011,,080225,,,A,V*1A
$GNGGA,080038.00,4843.26078,N,00920.55380,E,1,12,0.50,250.9,M,47.6,M,,*4C
$GPGSV,3,1,11,02,03,026,,10,17,320,,12,27,221,40,13,39,147,48,1*60
$GPGSV,3,2,11,14,23,054,43,15,59,200,41,17,35,074,47,19,35,114,47,1*61
$GPGSV,3,3,11,22,44,057,46,23,27,276,,24,61,291,33,1*58
$GLGSV,3,1,10,65,47,312,37,66,03,336,,71,12,171,45,72,56,202,36,1*7A
$GLGSV,3,2,10,73,22,056,44,74,65,029,34,75,50,261,41,82,10,006,33,1*79
$GLGSV,3,3,10,83,18,046,37,84,04,105,,1*71
$GAGSV,3,1,09,04,41,151,48,05,27,310,42,06,66,172,41,09,75,256,37,7*7D
$GAGSV,3,2,09,13,02,032,,15,02,345,,23,47,057,46,24,23,221,34,7*7D
$GAGSV,3,3,09,31,74,190,36,7*46
$GBGSV,3,1,10,05,15,124,39,07,22,049,45,10,32,060,43,11,04,016,,1*70
$GBGSV,3,2,10,19,51,263,37,20,33,196,46,22,20,320,39,23,02,072,,1*78
$GBGSV,3,3,10,27,05,136,,28,18,096,43,1*78
$GNRMC,080039.00,A,4843.26081,N,00920.55382,E,0.006,,080225,,,A,V*19
$GNGGA,080039.00,4843.26081,N,00920.55382,E,1,12,0.50,251.0,M,47.6,M,,*41
$GPGSV,3,1,11,02,03,026,,10,17,320,,12,27,221,41,13,39,147,48,1*61
$GPGSV,3,3,11,22,44,057,46,23,27,276,,24,61,291,33,1*58
$GLGSV,3,1,10,65,47,312,37,66,03,336,,71,12,171,45,72,56,202,36,1*7A
$GLGSV,3,2,10,73,22,056,44,74,65,029,34,75,50,261,42,82,10,006,34,1*7D
$GLGSV,3,3,10,83,18,046,37,84,04,105,,1*71
$GAGSV,3,1,09,04,41,151,48,05,27,310,42,06,66,172,41,09,75,256,37,7*7D
$GAGSV,3,2,09,13,02,032,,15,02,345,,23,47,057,46,24,23,221,35,7*7C
$GBGSV,3,1,10,05,15,124,39,07,22,049,45,10,32,060,43,11,04,016,,1*70
$GBGSV,3,2,10,19,51,263,37,20,33,196,46,22,20,320,39,23,02,072,,1*78
$GBGSV,3,3,10,27,05,136,,28,18,096,43,1*78
$GNRMC,080040.00,A,4843.26084,N,00920.55384,E,0.003,,080225,,,A,V*11
$GNGGA,080040.00,4843.26084,N,00920.55384,E,1,12,0.50,251.1,M,47.6,M,,*4D
$GPGSV,3,1,11,02,03,026,,10,17,320,,12,27,221,41,13,39,147,48,1*61
$GPGSV,3,2,11,14,23,054,44,15,59,200,41,17,35,074,48,19,35,114,47,1*69
$GPGSV,3,3,11,22,44,057,45,23,27,276,,24,61,291,34,1*5C
$GLGSV,3,1,10,65,47,312,37,66,03,336,,71,12,171,45,72,56,202,37,1*7B
$GLGSV,3,2,10,73,22,056,44,74,65,029,34,75,50,261,41,82,10,006,35,1*7F
$GLGSV,3,3,10,83,18,046,38,84,04,105,,1*7E
$GAGSV,3,1,09,04,41,151,48,05,27,310,42,06,66,172,41,09,75,256,37,7*7D
$GAGSV,3,2,09,13,02,032,,15,02,345,,23,47,057,46,24,23,221,35,7*7C
$GAGSV,3,3,09,31,74,190,36,7*46
$GBGSV,3,2,10,19,51,263,37,20,33,196,46,22,20,320,39,23,02,072,,1*78
$GBGSV,3,3,10,27,05,136,,28,18,096,43,1*78
$GNRMC,080041.00,A,4843.26087,N,00920.55386,E,0.010,,080225,,,A,V*13
$GNGGA,080041.00,4843.26087,N,00920.55386,E,1,12,0.50,251.2,M,47.6,M,,*4E
$GPGSV,3,1,11,02,03,026,,10,17,320,,12,27,221,41,13,39,147,48,1*61
$GPGSV,3,2,11,14,23,054,44,15,59,200,41,17,35,074,48,19,35,114,47,1*69
$GPGSV,3,3,11,22,44,057,45,23,27,276,,24,61,291,33,1*5B
$GLGSV,3,1,10,65,47,312,36,66,03,336,,71,12,171,46,72,56,202,37,1*79
$GLGSV,3,2,10,73,22,056,44,74,65,029,34,75,50,261,42,82,10,006,39,1*70
$GLGSV,3,3,10,83,18,046,38,84,04,105,,1*7E
$GAGSV,3,1,09,04,41,151,48,05,27,310,41,06,66,172,41,09,75,256,37,7*7E
$GAGSV,3,2,09,13,02,032,,15,02,345,,23,47,057,46,24,23,221,35,7*7C
$GAGSV,3,3,09,31,74,190,35,7*45
$GBGSV,3,1,10,05,15,124,39,07,22,049,45,10,32,060,43,11,04,016,,1*70
$GBGSV,3,2,10,19,51,263,37,20,33,196,46,22,20,320,39,23,02,072,,1*78
$GBGSV,3,3,10,27,05,136,,28,18,096,43,1*78
$GNRMC,080042.00,A,4843.26090,N,00920.55388,E,0.007,,080225,,,A,V*1E
$GNGGA,080042.00,4843.26090,N,00920.55388,E,1,12,0.50,251.3,M,47.6,M,,*44
$GPGSV,3,1,11,02,03,026,,10,17,320,,12,27,221,41,13,39,147,48,1*61
$GPGSV,3,2,11,14,23,054,44,15,59,200,41,17,35,074,48,19,35,114,47,1*69
$GPGSV,3,3,11,22,44,057,45,23,27,276,,24,61,291,34,1*5C
$GLGSV,3,1,10,65,47,312,37,66,03,336,,71,12,171,46,72,56,202,37,1*78
$GLGSV,3,2,10,73,22,056,44,74,65,029,33,75,50,261,41,82,10,006,39,1*74
$GLGSV,3,3,10,83,18,046,38,84,04,105,,1*7E
$GAGSV,3,1,09,04,41,151,48,05,27,310,42,06,66,172,41,09,75,256,37,7*7D
$GAGSV,3,2,09,13,02,032,,15,02,345,,23,47,057,46,24,23,221,35,7*7C
$GAGSV,3,3,09,31,74,190,35,7*45
$GBGSV,3,1,10,05,15,124,39,07,22,049,45,10,32,060,43,11,04,016,,1*70
$GBGSV,3,2,10,19,51,263,37,20,33,196,46,22,20,320,39,23,02,072,,1*78
$GBGSV,3,3,10,27,05,136,,28,18,096,44,1*7F
$GNRMC,080043.00,A,4843.26093,N,00920.55391,E,0.014,,080225,,,A,V*16
$GNGGA,080043.00,4843.26093,N,00920.55391,E,1,12,0.50,251.4,M,47.6,M,,*49
$GPGSV,3,1,11,02,03,026,,10,17,320,,12,27,221,41,13,39,147,48,1*61
$GPGSV,3,2,11,14,23,054,44,15,59,200,41,17,35,074,48,19,35,114,47,1*69
$GPGSV,3,3,11,22,44,057,45,23,27,276,,24,61,291,34,1*5C
$GLGSV,3,1,10,65,47,312,37,66,03,336,,71,12,171,46,72,56,202,37,1*78
$GLGSV,3,2,10,73,22,056,42,74,65,029,33,75,50,261,42,82,10,006,38,1*70
$GLGSV,3,3,10,83,18,046,38,84,04,105,,1*7E
$GAGSV,3,1,09,04,41,151,48,05,27,310,40,06,66,172,42,09,75,256,37,7*7C
$GAGSV,3,2,09,13,02,032,,15,02,345,,23,47,057,46,24,23,221,34,7*7D
$GAGSV,3,3,09,31,74,190,35,7*45
$GBGSV,3,1,10,05,15,124,39,07,22,049,45,10,32,060,43,11,04,016,,1*70
$GBGSV,3,2,10,19,51,263,37,20,33,196,46,22,20,320,37,23,02,072,,1*76
$GBGSV,3,3,10,27,05,136,,28,18,095,44,1*7C
$GNRMC,080044.00,A,4843.26095,N,00920.55393,E,0.011,,080225,,,A,V*10
$GNGGA,080044.00,4843.26095,N,00920.55393,E,1,12,0.50,251.4,M,47.6,M,,*4A
$GPGSV,3,1,11,02,03,026,,10,17,320,,12,27,221,41,13,39,147,48,1*61
$GPGSV,3,2,11,14,23,054,44,15,59,200,41,17,35,074,48,19,35,114,47,1*69
$GPGSV,3,3,11,22,44,057,45,23,27,276,,24,61,291,34,1*5C
$GLGSV,3,1,10,65,47,312,37,66,03,336,,71,12,171,46,72,56,202,37,1*78
$GLGSV,3,2,10,73,22,056,44,74,65,029,33,75,50,261,42,82,10,006,37,1*79
$GLGSV,3,3,10,83,18,046,37,84,04,105,,1*71
$GAGSV,3,1,09,04,41,151,48,05,27,310,42,06,66,172,41,09,75,256,37,7*7D
$GAGSV,3,2,09,13,02,032,,15,02,345,,23,47,057,45,24,23,221,34,7*7E
$GAGSV,3,3,09,31,74,190,34,7*44
$GBGSV,3,1,10,05,15,124,39,07,22,049,45,10,32,060,43,11,04,016,,1*70
$GBGSV,3,2,10,19,51,263,37,20,33,196,45,22,20,320,39,23,02,072,,1*7B
$GBGSV,3,3,10,27,05,136,,28,18,095,44,1*7C
$GNRMC,080045.00,A,4843.26098,N,00920.55395,E,0.007,,080225,,,A,V*1D
$GNGGA,080045.00,4843.26098,N,00920.55395,E,1,12,0.50,251.5,M,47.6,M,,*41
$GPGSV,3,1,11,02,03,026,,10,17,320,,12,27,221,41,13,39,147,48,1*61
$GPGSV,3,2,11,14,23,054,44,15,59,200,41,17,35,074,48,19,35,114,47,1*69
$GPGSV,3,3,11,22,44,057,45,23,27,276,,24,61,291,34,1*5C
$GLGSV,3,1,10,65,47,312,36,66,03,336,,71,12,171,46,72,56,202,37,1*79
$GLGSV,3,2,10,73,22,056,44,74,65,029,33,75,50,261,41,82,10,006,37,1*7A
$GLGSV,3,3,10,83,18,046,36,84,04,105,,1*70
$GAGSV,3,1,09,04,41,151,48,05,27,310,42,06,66,172,41,09,75,256,37,7*7D
$GAGSV,3,2,09,13,02,032,,15,02,345,,23,47,057,45,24,23,221,34,7*7E
$GAGSV,3,3,09,31,74,190,35,7*45
$GBGSV,3,1,10,05,15,124,39,07,22,049,45,10,32,060,43,11,04,016,,1*70
$GBGSV,3,2,10,19,51,263,38,20,33,196,45,22,20,320,39,23,02,072,,1*74
$GBGSV,3,3,10,27,05,136,,28,18,095,44,1*7C
$GNRMC,080046.00,A,4843.26100,N,00920.55397,E,0.010,,080225,,,A,V*1A
$GNGGA,080046.00,4843.26100,N,00920.55397,E,1,12,0.50,251.6,M,47.6,M,,*43
$GPGSV,3,1,11,02,03,026,,10,17,320,,12,27,221,42,13,39,147,48,1*62
$GPGSV,3,2,11,14,23,054,44,15,59,200,41,17,35,074,48,19,35,114,47,1*69
$GPGSV,3,3,11,22,44,057,45,23,27,276,,24,61,291,34,1*5C
$GLGSV,3,1,10,65,47,312,36,66,03,336,,71,12,171,46,72,56,202,37,1*79
$GLGSV,3,2,10,73,22,056,44,74,65,029,33,75,50,261,41,82,10,006,38,1*75
$GLGSV,3,3,10,83,18,046,36,84,04,105,,1*70
$GAGSV,3,1,09,04,41,151,48,05,27,310,42,06,66,172,41,09,75,256,37,7*7D
$GAGSV,3,2,09,13,02,032,,15,02,345,,23,47,057,45,24,23,221,34,7*7E
$GAGSV,3,3,09,31,74,190,34,7*44
$GBGSV,3,1,10,05,15,124,39,07,22,049,45,10,32,060,43,11,04,016,,1*70
$GBGSV,3,2,10,19,51,263,38,20,33,196,46,22,20,320,39,23,02,072,,1*77
$GBGSV,3,3,10,27,05,136,,28,18,095,44,1*7C
$GNRMC,080047.00,A,4843.26103,N,00920.55400,E,0.020,,080225,,,A,V*12
$GNGGA,080047.00,4843.26103,N,00920.55400,E,1,12,0.50,251.7,M,47.6,M,,*49
$GPGSV,3,1,11,02,03,026,,10,17,320,,12,27,221,41,13,39,147,48,1*61
$GPGSV,3,2,11,14,23,054,44,15,59,200,41,17,35,074,48,19,35,114,48,1*66
$GPGSV,3,3,11,22,44,057,43,23,27,276,,24,61,291,34,1*5A
$GLGSV,3,1,10,65,47,311,36,66,03,336,,71,12,171,46,72,56,202,37,1*7A
$GLGSV,3,2,10,73,22,056,43,74,65,029,34,75,50,261,41,82,10,006,38,1*75
$GLGSV,3,3,10,83,18,046,37,84,04,105,,1*71
$GAGSV,3,1,09,04,41,151,48,05,27,310,40,06,66,172,43,09,75,256,36,7*7C
$GAGSV,3,2,09,13,02,032,,15,02,345,,23,47,057,45,24,23,221,34,7*7E
$GAGSV,3,3,09,31,74,190,34,7*44
$GBGSV,3,1,10,05,15,124,39,07,22,049,45,10,32,060,43,11,04,016,,1*70
$GBGSV,3,2,10,19,51,263,38,20,33,196,46,22,20,320,39,23,02,072,,1*77
$GBGSV,3,3,10,27,05,136,,28,18,095,44,1*7C
$GNRMC,080048.00,A,4843.26105,N,00920.55402,E,0.020,,080225,,,A,V*19
$GNGGA,080048.00,4843.26105,N,00920.55402,E,1,12,0.50,251.8,M,47.6,M,,*4D
$GPGSV,3,1,11,02,03,026,,10,17,320,,12,27,221,41,13,39,147,48,1*61
$GPGSV,3,2,11,14,23,054,44,15,59,200,41,17,35,074,48,19,35,114,48,1*66
$GPGSV,3,3,11,22,44,057,44,23,27,276,,24,61,291,34,1*5D
$GLGSV,3,1,10,65,47,311,36,66,04,336,,71,12,171,46,72,56,202,36,1*7C
$GLGSV,3,2,10,73,22,056,43,74,65,029,34,75,50,261,41,82,10,006,38,1*75
$GLGSV,3,3,10,83,18,046,36,84,04,105,,1*70
$GAGSV,3,1,09,04,41,151,48,05,27,310,42,06,66,172,41,09,75,256,36,7*7C
$GAGSV,3,2,09,13,02,032,,15,02,345,,23,47,057,45,24,23,221,34,7*7E
$GAGSV,3,3,09,31,74,190,33,7*43
$GBGSV,3,1,10,05,15,124,39,07,22,049,45,10,32,060,43,11,04,016,,1*70
$GBGSV,3,2,10,19,51,263,38,20,33,196,46,22,20,320,39,23,02,072,,1*77
$GBGSV,3,3,10,27,05,136,,28,18,095,44,1*7C
$GNRMC,080049.00,A,4843.26107,N,00920.55405,E,0.012,,080225,,,A,V*1C
$GNGGA,080049.00,4843.26107,N,00920.55405,E,1,12,0.50,251.9,M,47.6,M,,*48
$GPGSV,3,1,11,02,03,026,,10,17,320,,12,27,221,41,13,39,147,48,1*61
$GPGSV,3,2,11,14,23,054,44,15,59,200,40,17,35,074,48,19,35,114,48,1*67
$GPGSV,3,3,11,22,44,057,44,23,27,276,,24,61,291,35,1*5C
$GLGSV,3,1,10,65,47,311,36,66,04,336,,71,12,171,46,72,56,202,35,1*7F
$GLGSV,3,2,10,73,22,056,43,74,65,029,34,75,50,261,41,82,10,006,40,1*7A
$GLGSV,3,3,10,83,18,046,37,84,04,105,,1*71
$GAGSV,3,1,09,04,41,151,47,05,27,310,41,06,66,172,41,09,75,256,36,7*70
$GAGSV,3,2,09,13,02,032,,15,02,345,,23,47,057,45,24,23,221,34,7*7E
$GAGSV,3,3,09,31,74,190,33,7*43
$GBGSV,3,1,10,05,15,124,39,07,22,049,45,10,32,060,43,11,04,016,,1*70
$GBGSV,3,2,10,19,51,263,37,20,33,196,46,22,20,320,37,23,02,072,,1*76
$GBGSV,3,3,10,27,05,136,,28,18,095,46,1*7E
$GNRMC,080050.00,A,4843.26110,N,00920.55408,E,0.016,,080225,,,A,V*1B
$GNGGA,080050.00,4843.26110,N,00920.55408,E,1,12,0.50,252.0,M,47.6,M,,*41
$GPGSV,3,1,11,02,03,026,,10,17,320,,12,27,221,42,13,39,147,49,1*63
$GPGSV,3,2,11,14,23,054,44,15,59,200,40,17,35,074,47,19,35,114,48,1*68
$GPGSV,3,3,11,22,44,057,44,23,27,276,,24,61,291,33,1*5A
$GLGSV,3,1,10,65,47,311,35,66,04,336,,71,12,171,46,72,56,202,35,1*7C
$GLGSV,3,2,10,73,22,056,43,74,65,029,34,75,50,261,41,82,10,006,38,1*75
$GLGSV,3,3,10,83,18,046,37,84,04,105,,1*71
$GAGSV,3,1,09,04,41,151,47,05,27,310,40,06,66,172,42,09,75,256,36,7*72
$GAGSV,3,2,09,13,02,032,,15,02,345,,23,47,057,45,24,23,221,34,7*7E
$GAGSV,3,3,09,31,74,190,33,7*43
$GBGSV,3,1,10,05,15,124,40,07,22,049,45,10,32,060,43,11,04,016,,1*7E
$GBGSV,3,2,10,19,51,263,38,20,33,196,46,22,20,320,36,23,02,072,,1*78
$GBGSV,3,3,10,27,05,136,,28,18,095,45,1*7D
$GNRMC,080051.00,A,4843.26113,N,00920.55410,E,0.014,,080225,,,A,V*12
$GNGGA,080051.00,4843.26113,N,00920.55410,E,1,12,0.50,252.1,M,47.6,M,,*4B
$GPGSV,3,1,11,02,03,026,,10,17,320,,12,27,221,42,13,39,147,49,1*63
$GPGSV,3,2,11,14,23,054,44,15,59,200,40,17,35,074,47,19,35,114,48,1*68
$GPGSV,3,3,11,22,44,057,44,23,27,276,,24,61,291,33,1*5A
$GLGSV,3,1,10,65,47,311,34,66,04,336,,71,12,171,46,72,56,202,34,1*7C
$GLGSV,3,2,10,73,22,056,43,74,65,029,33,75,50,261,41,82,10,006,33,1*79
$GLGSV,3,3,10,83,18,046,38,84,04,105,,1*7E
$GAGSV,3,1,09,04,41,151,47,05,27,310,42,06,66,172,42,09,75,256,36,7*70
$GAGSV,3,2,09,13,02,032,,15,02,345,,23,47,057,45,24,23,221,33,7*79
$GAGSV,3,3,09,31,74,190,32,7*42
$GBGSV,3,2,10,19,51,263,38,20,33,196,46,22,20,320,39,23,02,072,,1*77
$GBGSV,3,3,10,27,05,136,,28,18,095,44,1*7C
$GNRMC,080052.00,A,4843.26115,N,00920.55413,E,0.012,,080225,,,A,V*12
$GNGGA,080052.00,4843.26115,N,00920.55413,E,1,12,0.50,252.2,M,47.6,M,,*4E
$GPGSV,3,1,11,02,03,026,,10,17,320,,12,27,221,41,13,39,147,48,1*61
$GPGSV,3,2,11,14,23,054,43,15,59,200,40,17,35,074,47,19,35,114,48,1*6F
$GPGSV,3,3,11,22,44,057,44,23,27,276,,24,61,291,34,1*5D
$GLGSV,3,1,10,65,47,311,34,66,04,336,,71,12,171,46,72,56,202,33,1*7B
$GLGSV,3,2,10,73,22,056,43,74,65,029,34,75,50,261,41,82,10,006,33,1*7E
$GLGSV,3,3,10,83,18,046,38,84,04,105,,1*7E
$GAGSV,3,1,09,04,41,151,47,05,27,310,42,06,66,172,42,09,75,256,36,7*70
$GAGSV,3,2,09,13,02,032,,15,02,345,,23,47,057,45,24,23,221,33,7*79
$GAGSV,3,3,09,31,74,190,32,7*42
$GBGSV,3,1,10,05,15,124,39,07,22,049,45,10,32,060,43,11,04,016,,1*70
$GBGSV,3,2,10,19,51,263,37,20,33,196,45,22,20,320,39,23,02,072,,1*7B
$GBGSV,3,3,10,27,05,136,,28,18,095,44,1*7C
$GNRMC,080053.00,A,4843.26118,N,00920.55414,E,0.001,,080225,,,A,V*1B
$GNGGA,080053.00,4843.26118,N,00920.55414,E,1,12,0.50,252.3,M,47.6,M,,*44
$GPGSV,3,1,11,02,03,026,,10,17,320,,12,27,221,41,13,39,147,48,1*61
$GPGSV,3,2,11,14,23,054,43,15,59,200,40,17,35,074,47,19,35,114,48,1*6F
$GPGSV,3,3,11,22,44,057,44,23,27,276,,24,61,291,35,1*5C
$GLGSV,3,1,10,65,47,311,34,66,04,336,,71,12,171,46,72,56,202,33,1*7B
$GLGSV,3,2,10,73,22,056,43,74,65,029,34,75,50,261,41,82,10,006,32,1*7F
$GLGSV,3,3,10,83,18,046,38,84,04,105,,1*7E
$GAGSV,3,1,09,04,41,151,47,05,27,310,42,06,66,172,42,09,75,256,36,7*70
$GAGSV,3,2,09,13,02,032,,15,02,345,,23,47,057,45,24,23,221,33,7*79
$GAGSV,3,3,09,31,74,190,32,7*42
$GBGSV,3,1,10,05,15,124,39,07,22,049,45,10,32,060,43,11,04,016,,1*70
$GBGSV,3,2,10,19,51,263,37,20,33,196,46,22,20,320,39,23,02,072,,1*78
$GBGSV,3,3,10,27,05,136,,28,18,095,44,1*7C
$GNRMC,080054.00,A,4843.26121,N,00920.55416,E,0.012,,080225,,,A,V*16
$GNGGA,080054.00,4843.26121,N,00920.55416,E,1,12,0.50,252.4,M,47.6,M,,*4C
$GPGSV,3,1,11,02,03,026,,10,17,320,,12,27,221,41,13,39,147,48,1*61
$GPGSV,3,2,11,14,23,054,43,15,59,200,40,17,35,074,47,19,35,114,48,1*6F
$GPGSV,3,3,11,22,44,057,44,23,27,276,,24,61,291,34,1*5D
$GLGSV,3,1,10,65,47,311,34,66,04,336,,71,12,171,46,72,55,202,33,1*78
$GLGSV,3,2,10,73,22,056,43,74,65,029,34,75,50,261,40,82,10,006,32,1*7E
$GLGSV,3,3,10,83,18,046,39,84,04,105,,1*7F
$GAGSV,3,1,09,04,41,151,47,05,27,310,42,06,66,172,42,09,75,256,36,7*70
$GAGSV,3,2,09,13,02,032,,15,02,345,,23,47,057,45,24,23,221,32,7*78
$GAGSV,3,3,09,31,74,190,33,7*43
$GBGSV,3,1,10,05,15,124,39,07,22,049,45,10,32,060,43,11,04,016,,1*70
$GBGSV,3,2,10,19,51,263,36,20,33,196,46,22,20,320,39,23,02,072,,1*79
$GBGSV,3,3,10,27,05,136,,28,18,095,44,1*7C
$GNRMC,080055.00,A,4843.26124,N,00920.55417,E,0.009,,080225,,,A,V*19
$GNGGA,080055.00,4843.26124,N,00920.55417,E,1,12,0.50,252.5,M,47.6,M,,*48
$GPGSV,3,1,11,02,03,026,,10,17,320,,12,27,221,41,13,39,147,49,1*60
$GPGSV,3,2,11,14,23,054,43,15,59,200,40,17,35,074,47,19,35,114,48,1*6F
$GPGSV,3,3,11,22,44,057,44,23,27,276,,24,61,291,34,1*5D
$GLGSV,3,1,10,65,47,311,34,66,04,336,,71,12,171,47,72,55,202,33,1*79
$GLGSV,3,2,10,73,22,056,43,74,65,029,33,75,50,261,40,82,10,006,30,1*7B
$GLGSV,3,3,10,83,18,046,39,84,04,105,,1*7F
$GAGSV,3,1,09,04,41,151,46,05,27,310,42,06,66,172,41,09,75,256,36,7*72
$GAGSV,3,2,09,13,02,032,,15,02,345,,23,47,057,45,24,23,221,32,7*78
$GAGSV,3,3,09,31,74,190,33,7*43
$GBGSV,3,1,10,05,15,124,39,07,22,049,45,10,32,060,43,11,04,016,,1*70
$GBGSV,3,2,10,19,51,263,36,20,33,196,46,22,20,320,39,23,02,072,,1*79
$GBGSV,3,3,10,27,05,136,,28,18,095,43,1*7B
$GNRMC,080056.00,A,4843.26127,N,00920.55419,E,0.005,,080225,,,A,V*1B
$GNGGA,080056.00,4843.26127,N,00920.55419,E,1,12,0.50,252.6,M,47.6,M,,*45
$GPGSV,3,1,11,02,03,026,,10,17,320,,12,27,221,41,13,39,147,49,1*60
$GPGSV,3,2,11,14,23,054,44,15,59,200,40,17,35,074,47,19,35,114,48,1*68
$GPGSV,3,3,11,22,44,057,44,23,27,276,,24,61,291,35,1*5C
$GLGSV,3,1,10,65,47,311,34,66,04,336,,71,12,171,47,72,55,202,34,1*7E
$GLGSV,3,2,10,73,22,056,43,74,65,029,33,75,50,261,40,82,10,006,30,1*7B
$GLGSV,3,3,10,83,18,046,40,84,04,105,,1*71
$GAGSV,3,1,09,04,41,151,46,05,27,310,40,06,66,172,42,09,75,256,36,7*73
$GAGSV,3,2,09,13,02,032,,15,02,345,,23,47,057,44,24,23,221,31,7*7A
$GAGSV,3,3,09,31,74,190,33,7*43
$GBGSV,3,1,10,05,15,124,39,07,22,049,45,10,32,060,43,11,04,016,,1*70
$GBGSV,3,2,10,19,51,263,36,20,33,196,45,22,20,320,39,23,02,072,,1*7A
$GBGSV,3,3,10,27,05,136,,28,18,095,43,1*7B
$GNRMC,080057.00,A,4843.26129,N,00920.55420,E,0.007,,080225,,,A,V*1C
$GNGGA,080057.00,4843.26129,N,00920.55420,E,1,12,0.50,252.7,M,47.6,M,,*41
$GPGSV,3,1,11,02,03,026,,10,17,320,,12,27,221,40,13,39,147,49,1*61
$GPGSV,3,2,11,14,23,054,42,15,59,200,40,17,35,074,47,19,35,114,48,1*6E
$GPGSV,3,3,11,22,44,057,43,23,27,276,,24,61,291,35,1*5B
$GLGSV,3,1,10,65,47,311,34,66,04,336,,71,12,171,47,72,55,202,36,1*7C
$GLGSV,3,2,10,73,22,056,43,74,65,029,33,75,51,261,40,82,10,006,30,1*7A
$GLGSV,3,3,10,83,18,046,40,84,04,105,,1*71
$GAGSV,3,1,09,04,41,151,46,05,27,310,42,06,66,172,42,09,75,256,36,7*71
$GAGSV,3,2,09,13,02,032,,15,02,345,,23,47,057,44,24,23,221,31,7*7A
$GAGSV,3,3,09,31,74,190,32,7*42
$GBGSV,3,1,10,05,15,124,39,07,22,049,45,10,32,060,43,11,04,016,,1*70
$GBGSV,3,2,10,19,51,263,36,20,33,196,46,22,20,320,40,23,02,072,,1*77
$GBGSV,3,3,10,27,05,136,,28,18,095,43,1*7B
$GNRMC,080058.00,A,4843.26132,N,00920.55421,E,0.020,,080225,,,A,V*1D
$GNGGA,080058.00,4843.26132,N,00920.55421,E,1,12,0.50,252.7,M,47.6,M,,*45
$GPGSV,3,1,11,02,03,026,,10,17,320,,12,27,221,39,13,39,147,49,1*6F
$GPGSV,3,2,11,14,23,054,42,15,59,200,40,17,35,074,47,19,35,114,48,1*6E
$GPGSV,3,3,11,22,44,057,43,23,27,276,,24,61,291,35,1*5B
$GLGSV,3,1,10,65,47,311,34,66,04,336,,71,12,171,47,72,55,202,38,1*72
$GLGSV,3,2,10,73,22,056,43,74,65,029,33,75,51,261,39,82,10,006,28,1*7D
$GLGSV,3,3,10,83,18,046,41,84,04,105,,1*70
$GAGSV,3,1,09,04,41,151,46,05,27,310,42,06,66,172,42,09,75,256,36,7*71
$GAGSV,3,2,09,13,02,032,,15,02,345,,23,47,057,44,24,23,221,31,7*7A
$GAGSV,3,3,09,31,74,190,33,7*43
$GBGSV,3,1,10,05,15,124,39,07,22,049,45,10,32,060,43,11,04,016,,1*70
$GBGSV,3,2,10,19,51,263,36,20,33,196,46,22,20,320,40,23,02,072,,1*77
$GBGSV,3,3,10,27,05,136,,28,18,095,43,1*7B
$GNRMC,080059.00,A,4843.26135,N,00920.55422,E,0.021,,080225,,,A,V*19
$GNGGA,080059.00,4843.26135,N,00920.55422,E,1,12,0.50,252.8,M,47.6,M,,*4F
$GPGSV,3,1,11,02,03,026,,10,17,320,,12,27,221,39,13,39,147,49,1*6F
$GPGSV,3,2,11,14,23,054,42,15,59,200,40,17,35,074,47,19,35,114,48,1*6E
$GPGSV,3,3,11,22,44,057,43,23,27,276,,24,61,291,35,1*5B
$GLGSV,3,1,10,65,47,311,35,66,04,336,,71,12,171,48,72,55,202,36,1*72
$GLGSV,3,2,10,73,22,056,43,74,65,029,32,75,51,261,40,82,10,006,2,1*73
$GLGSV,3,3,10,83,18,046,41,84,04,105,,1*70
$GAGSV,3,1,09,04,41,151,46,05,27,310,42,06,66,172,42,09,75,256,36,7*71
$GAGSV,3,2,09,13,02,032,,15,02,345,,2,47,057,44,24,23,221,31,7*7A
$GAGSV,3,3,09,31,74,190,33,7*43
$GBGSV,3,1,10,05,15,124,39,07,22,049,45,10,32,060,43,11,04,016,,1*70
$GBGSV,3,2,10,19,51,263,36,20,33,196,46,22,20,320,39,23,02,072,,1*79
$GBGSV,3,3,10,27,05,136,,28,18,095,42,1*7A
$GNRMC,080100.00,A,4843.26138,N,00920.55424,E,0.013,,080225,,,A,V*1E
$GNGGA,080100.00,4843.26138,N,00920.55424,E,1,12,0.52,252.9,M,47.6,M,,*4A
$GPGSV,3,1,11,02,03,026,,10,17,320,,12,27,221,39,13,39,147,49,1*6F
$GPGSV,3,2,11,14,23,054,42,15,59,200,40,17,35,074,47,19,35,114,48,1*6E
$GPGSV,3,3,11,22,44,057,43,23,27,276,,24,61,291,34,1*5A
$GLGSV,3,1,10,65,47,311,35,66,04,336,,71,12,171,48,72,55,202,38,1*7C
$GLGSV,3,2,10,73,22,056,43,74,65,029,32,75,51,261,40,82,10,006,28,1*72
$GLGSV,3,3,10,83,18,046,41,84,04,105,,1*70
$GAGSV,3,1,09,04,41,151,46,05,27,310,42,06,66,172,42,09,75,256,36,7*71
$GAGSV,3,2,09,13,02,032,,15,02,345,,23,47,057,44,24,23,221,31,7*7A
$GAGSV,3,3,09,31,74,190,32,7*42
$GBGSV,3,1,10,05,15,124,39,07,22,049,45,10,32,060,43,11,04,016,,1*70
$GBGSV,3,2,10,19,51,263,36,20,33,196,46,22,20,320,39,23,02,072,,1*79
$GBGSV,3,3,10,27,05,136,,28,18,095,42,1*7A
$GNRMC,080101.00,A,4843.26141,N,00920.55424,E,0.008,,080225,,,A,V*1B
$GNGGA,080101.00,4843.26141,N,00920.55424,E,1,12,0.50,253.0,M,47.6,M,,*4F
$GPGSV,3,1,11,02,03,026,,10,17,320,,12,27,221,38,13,39,147,49,1*6E
$GPGSV,3,2,11,14,23,054,43,15,59,200,40,17,35,074,47,19,35,114,48,1*6F
$GPGSV,3,3,11,22,44,057,43,23,27,276,,24,61,291,34,1*5A
$GLGSV,3,1,10,65,47,311,35,66,04,336,,71,12,171,48,72,55,202,37,1*73
$GLGSV,3,2,10,73,22,056,43,74,65,029,31,75,51,261,40,82,10,006,27,1*7E
$GLGSV,3,3,10,83,18,046,41,84,04,105,,1*70
$GAGSV,3,1,09,04,41,151,46,05,27,310,42,06,66,172,42,09,75,256,36,7*71
$GAGSV,3,2,09,13,02,032,,15,02,345,,23,47,057,44,24,23,221,30,7*7B
$GAGSV,3,3,09,31,74,190,33,7*43
$GBGSV,3,1,10,05,15,124,39,07,22,049,45,10,32,060,43,11,04,016,,1*70
$GBGSV,3,2,10,19,51,263,36,20,33,196,46,22,20,320,40,23,02,072,,1*77
$GBGSV,3,3,10,27,05,136,,28,18,095,42,1*7A
$GNRMC,080102.00,A,4843.26143,N,00920.55425,E,0.008,,080225,,,A,V*1B
$GNGGA,080102.00,4843.26143,N,00920.55425,E,1,12,0.50,253.0,M,47.6,M,,*4F
$GPGSV,3,1,11,02,03,026,,10,17,320,,12,27,221,38,13,39,147,49,1*6E
$GPGSV,3,2,11,14,23,054,43,15,59,200,40,17,35,074,47,19,35,114,481*6F
$GPGSV,3,3,11,22,44,057,42,23,27,276,,24,61,291,33,1*5C
$GLGSV,3,1,10,65,47,311,35,66,04,336,,71,12,171,48,72,55,202,37,1*73
$GLGSV,3,2,10,73,22,056,43,74,65,029,31,75,51,261,40,82,10,006,30,1*78
$GLGSV,3,3,10,83,18,046,40,84,04,105,,1*71
$GAGSV,3,1,09,04,41,151,46,05,27,310,42,06,66,172,42,09,75,256,36,7*71
$GAGSV,3,2,09,13,02,032,,15,02,345,,23,47,057,43,24,23,221,30,7*7C
$GAGSV,3,3,09,31,74,190,33,7*43
$GBGSV,3,1,10,05,15,124,39,07,22,049,45,10,32,060,43,11,04,016,,1*70
$GBGSV,3,2,10,19,51,263,35,20,33,196,45,22,20,320,40,23,02,072,,1*77
$GBGSV,3,3,10,27,05,136,,28,18,095,42,1*7A
$GNRMC,080103.00,A,4843.26146,N,00920.55426,E,0.015,,080225,,,A,V*10
$GNGGA,080103.00,4843.26146,N,00920.55426,E,1,12,0.52,253.1,M,47.6,M,,*4B
$GPGSV,3,1,11,02,03,026,,10,17,320,,12,27,221,38,13,39,147,49,1*6E
$GPGSV,3,2,11,14,23,054,43,15,59,200,40,17,35,074,47,19,35,114,48,1*6F
$GPGSV,3,3,11,22,44,057,42,23,27,276,,24,61,291,33,1*5C
$GLGSV,3,1,10,65,47,311,35,66,04,336,,71,12,171,48,72,55,202,37,1*73
$GLGSV,3,2,10,73,22,056,43,74,65,029,31,75,51,261,40,82,10,006,32,1*7A
$GLGSV,3,3,10,83,18,046,40,84,04,105,,1*71
$GAGSV,3,1,09,04,41,151,46,05,27,310,42,06,66,172,42,09,75,256,36,7*71
$GAGSV,3,2,09,13,02,032,,15,02,345,,23,47,057,43,24,23,221,,7*7F
$GAGSV,3,3,09,31,74,190,33,7*43
$GBGSV,3,1,10,05,15,124,39,07,22,049,45,10,32,060,43,11,04,016,,1*70
$GBGSV,3,2,10,19,51,263,36,20,33,196,45,22,20,320,40,23,02,072,,1*74
$GBGSV,3,3,10,27,05,136,,28,18,095,42,1*7A
$GNRMC,080104.00,A,4843.26149,N,00920.55427,E,0.003,,080225,,,A,V*1E
$GNGGA,080104.00,4843.26149,N,00920.55427,E,1,12,0.52,253.1,M,47.6,M,,*42
$GPGSV,3,1,11,02,03,026,,10,17,320,,12,27,221,38,13,39,147,49,1*6E
$GPGSV,3,2,11,14,23,054,43,15,59,200,40,17,35,074,47,19,35,114,48,1*6F
$GPGSV,3,3,11,22,44,057,42,23,27,276,,24,61,291,32,1*5D
$GLGSV,3,1,10,65,47,311,36,66,04,336,,71,12,171,48,72,55,202,37,1*70
$GLGSV,3,2,10,73,22,056,43,74,65,029,31,75,51,261,40,82,09,005,32,1*71
$GLGSV,3,3,10,83,18,046,40,84,04,105,,1*71
$GAGSV,3,1,09,04,41,151,46,05,27,310,42,06,66,172,42,09,75,256,36,7*71
$GAGSV,3,2,09,13,02,032,,15,02,345,,23,47,057,43,24,23,221,31,7*7D
$GAGSV,3,3,09,31,74,190,33,7*43
$GBGSV,3,1,10,05,15,124,39,07,22,049,45,10,32,060,43,11,04,016,,1*70
$GBGSV,3,2,10,19,51,263,36,20,33,196,45,22,20,320,40,23,02,072,,1*74
$GBGSV,3,3,10,27,05,136,,28,18,095,42,1*7A
$GNRMC,080105.00,A,4843.26152,N,00920.55427,E,0.004,,080225,,,A,V*12
$GNGGA,080105.00,4843.26152,N,00920.55427,E,1,12,0.52,253.2,M,47.6,M,,*4A
$GPGSV,3,1,11,02,03,026,,10,17,320,,12,27,221,38,13,39,147,49,1*6E
$GPGSV,3,2,11,14,23,054,43,15,59,200,40,17,35,074,47,19,35,114,47,1*60
$GPGSV,3,3,11,22,44,057,42,23,27,276,,24,61,291,32,1*5D
$GLGSV,3,1,10,65,47,311,36,66,04,336,,71,12,171,47,72,55,202,37,1*7F
$GLGSV,3,2,10,73,22,056,43,74,65,029,31,75,51,261,40,82,09,005,31,1*72
$GLGSV,3,3,10,83,18,045,40,84,04,105,,1*72
$GAGSV,3,1,09,04,41,151,45,05,27,310,42,06,66,172,42,09,75,256,36,7*72
$GAGSV,3,2,09,13,02,032,,15,02,345,,23,47,057,43,24,23,221,,7*7F
$GAGSV,3,3,09,31,74,190,34,7*44
$GBGSV,3,1,10,05,15,124,39,07,22,049,45,10,32,060,43,11,04,016,,1*70
$GBGSV,3,2,10,19,51,263,36,20,33,196,45,22,20,320,40,23,02,072,,1*74
$GBGSV,3,3,10,27,05,136,,28,18,095,42,1*7A
$GNRMC,080106.00,A,4843.26154,N,00920.55428,E,0.010,,080225,,,A,V*1D
$GNGGA,080106.00,4843.26154,N,00920.55428,E,1,12,0.52,253.2,M,47.6,M,,*40
$GPGSV,3,1,11,02,03,026,,10,17,320,,12,27,221,38,13,39,147,49,1*6E
$GPGSV,3,2,11,14,23,054,44,15,59,200,40,17,35,074,47,19,35,114,47,1*67
$GPGSV,3,3,11,22,44,057,42,23,27,276,,24,61,291,31,1*5E
$GLGSV,3,1,10,65,47,311,36,66,04,336,,71,12,171,47,72,55,202,37,1*7F
$GLGSV,3,2,10,73,22,056,44,74,65,029,30,75,51,261,39,82,09,005,31,1*7A
$GLGSV,3,3,10,83,18,045,41,84,05,105,,1*72
$GAGSV,3,1,09,04,41,151,45,05,27,310,42,06,66,172,42,09,75,256,36,7*72
$GAGSV,3,2,09,13,02,032,,15,02,345,,23,47,057,43,24,23,221,31,7*7D
$GAGSV,3,3,09,31,74,190,33,7*43
$GBGSV,3,1,10,05,15,124,39,07,22,049,45,10,32,060,43,11,04,016,,1*70
$GBGSV,3,2,10,19,51,263,36,2033,196,45,22,20,320,40,23,02,072,,1*74
$GBGSV,3,3,10,27,05,136,,28,18,095,42,1*7A
$GNRMC,080107.00,A,4843.26157,N,00920.55428,E,0.004,,080225,,,A,V*1A
$GNGGA,080107.00,4843.26157,N,00920.55428,E,1,12,0.50,253.2,M,47.6,M,,*40
$GPGSV,3,1,11,02,03,026,,10,17,320,,12,27,221,38,13,39,147,49,1*6E
$GPGSV,3,2,11,14,23,054,44,15,59,200,39,17,35,074,47,19,35,114,47,1*69
$GPGSV,3,3,11,22,44,057,42,23,27,276,,24,61,291,30,1*5F
$GLGSV,3,1,10,65,47,311,36,66,04,336,,71,12,171,47,72,55,202,37,1*7F
$GLGSV,3,2,10,73,22,056,44,74,65,029,30,75,51,261,39,82,09,005,31,1*7A
$GLGSV,3,3,10,83,18,045,40,84,05,105,,1*73
$GAGSV,3,1,09,04,41,151,45,05,27,310,42,06,66,172,42,09,75,256,37,7*73
$GAGSV,3,2,09,13,02,032,,15,02,345,,23,47,057,43,24,23,221,30,7*7C
$GAGSV,3,3,09,31,74,190,33,7*43
$GBGSV,3,1,10,05,15,124,39,07,22,049,45,10,32,060,43,11,04,016,,*70
$GBGSV,3,2,10,19,51,263,36,20,33,196,46,22,20,320,40,23,02,072,,1*77
$GBGSV,3,3,10,27,05,136,,28,18,095,43,1*7B
$GNRMC,080108.00,A,4843.26159,N,00920.55429,E,0.007,,080225,,,A,V*19
$GNGGA,080108.00,4843.26159,N,00920.55429,E,1,12,0.52,253.3,M,47.6,M,,*43
$GPGSV,3,1,11,02,03,026,,10,17,320,,12,27,221,38,13,39,147,49,1*6E
$GPGSV,3,2,11,14,23,054,44,15,59,200,39,17,35,074,47,19,35,114,47,1*69
$GPGSV,3,3,11,22,44,057,42,23,27,276,,24,61,291,30,1*5F
$GLGSV,3,1,10,65,47,311,36,66,04,336,,71,12,171,47,72,55,202,37,1*7F
$GLGSV,3,2,10,73,22,056,44,74,65,029,30,75,51,261,39,82,09,005,31,1*7A
$GLGSV,3,3,10,83,18,045,40,84,05,105,,1*73
$GAGSV,3,1,09,04,41,151,45,05,27,310,42,06,66,172,42,09,75,256,37,7*73
$GAGSV,3,2,09,13,02,032,,15,02,345,,23,47,057,43,24,23,221,,7*7F
$GAGSV,3,3,09,31,74,190,33,7*43
$GBGSV,3,1,10,05,15,124,39,07,22,049,45,10,32,060,43,11,04,016,,1*70
$GBGSV,3,2,10,19,51,263,36,20,33,196,46,22,20,320,40,23,02,072,,1*77
$GBGSV,3,3,10,27,05,136,,28,18,095,43,1*7B
$GNRMC,080109.00,A,4843.26162,N,00920.55430,E,0.008,,080225,,,A,V*17
$GNGGA,080109.00,4843.26162,N,00920.55430,E,1,12,0.52,253.4,M,47.6,M,,*45
$GPGSV,3,1,11,02,03,026,,10,17,320,,12,27,221,37,13,39,147,49,1*61
$GPGSV,3,2,11,14,23,054,44,15,59,200,39,17,35,074,47,19,35,114,47,1*69
$GPGSV,3,3,11,22,44,057,42,23,27,276,,24,61,291,29,1*57
