$GNRMC,160000.00,A,4843.26084,N,00920.55556,E,0.013,,080225,,,A,V*12
$GNGGA,160000.00,4843.26084,N,00920.55556,E,1,12,0.50,248.7,M,47.6,M,,*41
$GPGSV,3,1,12,05,09,031,24,07,06,335,36,08,06,281,,10,14,165,42,1*69
$GPGSV,3,2,12,15,02,080,,16,67,280,,18,62,062,43,23,38,130,47,1*61
$GPGSV,3,3,12,26,63,198,41,27,38,284,,29,17,089,44,31,12,212,38,1*64
$GLGSV,3,1,10,65,06,112,,71,11,011,43,72,19,059,43,77,02,168,15,1*72
$GLGSV,3,2,10,78,52,200,39,79,53,304,38,80,07,335,,81,42,256,40,1*7C
$GLGSV,3,3,10,87,15,053,43,88,71,014,42,1*76
$GAGSV,3,1,11,02,70,277,32,10,27,050,39,11,55,056,41,12,05,047,09,7*76
$GAGSV,3,2,11,16,23,146,45,19,01,033,,25,47,153,46,29,01,353,,7*71
$GAGSV,3,3,11,30,20,311,39,34,17,222,,36,68,205,39,7*4E
$GNRMC,160001.00,A,4843.26084,N,00920.55557,E,0.067,,080225,,,A,V*11
$GNGGA,160001.00,4843.26084,N,00920.55557,E,1,12,0.50,248.7,M,47.6,M,,*41
$GPGSV,3,1,12,05,09,031,24,07,06,335,36,08,06,281,,10,14,165,42,1*69
$GPGSV,3,2,12,15,02,079,,16,67,280,,18,62,062,43,23,38,130,47,1*67
$GPGSV,3,3,12,26,63,198,41,27,38,284,,29,17,089,44,31,12,212,37,1*6B
$GLGSV,3,1,10,65,06,112,,71,11,011,44,72,19,059,43,77,02,168,13,1*73
$GLGSV,3,2,10,78,52,200,39,79,53,304,39,80,07,335,,81,42,256,40,1*7D
$GLGSV,3,3,10,87,15,053,43,88,71,014,42,1*76
$GAGSV,3,1,11,02,70,277,32,10,27,050,39,11,55,056,41,12,05,047,12,7*7C
$GAGSV,3,2,11,16,23,146,45,19,01,033,,25,47,153,45,29,01,353,,7*72
$GNRMC,160002.00,A,4843.26085,N,00920.55557,E,0.014,,080225,,,A,V*17
$GNGGA,160002.00,4843.26085,N,00920.55557,E,1,12,0.50,248.7,M,47.6,M,,*43
$GPGSV,3,1,12,05,09,031,23,07,06,335,36,08,06,281,,10,14,165,42,1*6E
$GPGSV,3,2,12,15,02,079,,16,68,278,,18,62,062,43,23,39,129,47,1*66
$GPGSV,3,3,12,26,62,197,41,27,38,284,,29,17,090,44,31,11,212,37,1*6E
$GLGSV,3,1,10,65,06,112,,71,11,011,44,72,19,059,43,77,02,168,16,1*76
$GLGSV,3,2,10,78,52,200,39,79,53,304,38,80,07,335,,81,42,256,39,1*72
$GLGSV,3,3,10,87,15,053,43,88,71,014,43,1*77
$GAGSV,3,1,11,02,70,277,32,10,27,050,38,11,55,056,41,12,05,047,13,7*7C
$GAGSV,3,2,11,16,23,146,45,19,01,033,,25,47,153,45,29,01,353,,7*72
$GAGSV,3,3,11,30,20,311,38,34,17,222,,36,68,205,39,7*4F
$GBGSV,3,1,11,02,02,101,37,05,17,123,40,08,36,044,44,12,06,253,,1*7B
$GNRMC,160003.00,A,4843.26086,N,00920.55556,E,0.035,,080225,,,A,V*17
$GNGGA,160003.00,4843.26086,N,00920.55556,E,1,12,0.50,248.6,M,47.6,M,,*41
$GPGSV,3,1,12,05,09,031,23,07,06,335,36,08,06,281,,10,14,165,43,1*6F
$GPGSV,3,2,12,15,02,079,,16,68,278,,18,62,062,43,23,39,129,47,1*66
$GPGSV,3,3,12,26,62,197,41,27,38,284,,29,17,090,44,31,11,212,36,1*6F
$GLGSV,3,1,10,65,06,112,,71,11,011,45,72,19,059,43,77,02,168,12,1*73
$GLGSV,3,2,10,78,52,200,39,79,53,304,38,80,07,335,,81,42,256,38,1*73
$GLGSV,3,3,10,87,15,053,44,88,71,014,43,1*70
$GAGSV,3,1,11,02,70,277,32,10,27,050,38,11,55,056,41,12,05,047,09,7*77
$GAGSV,3,2,11,16,23,146,45,19,01,033,,25,47,153,45,29,01,353,,7*72
$GAGSV,3,3,11,30,20,311,38,34,17,222,,36,68,205,39,7*4F
$GNRMC,160004.00,A,4843.26087,N,00920.55555,E,0.025,,080225,,,A,V*13
$GNGGA,160004.00,4843.26087,N,00920.55555,E,1,12,0.50,248.6,M,47.6,M,,*44
$GPGSV,3,1,12,05,09,031,21,07,06,335,35,08,06,281,,10,14,165,43,1*6E
$GPGSV,3,2,12,15,02,079,,16,68,278,,18,62,062,43,23,39,129,47,1*66
$GLGSV,3,1,10,65,06,112,,71,11,011,45,72,19,059,44,77,02,168,12,1*74
$GLGSV,3,2,10,78,52,200,39,79,53,304,38,80,07,335,,81,42,256,36,1*7D
$GLGSV,3,3,10,87,15,053,43,88,71,014,43,1*77
$GAGSV,3,1,11,02,70,277,33,10,27,050,38,11,55,056,41,12,05,047,11,7*7F
$GAGSV,3,2,11,16,23,146,45,19,01,033,,25,47,153,45,29,01,353,,7*72
$GAGSV,3,3,11,30,20,311,38,34,17,222,,36,68,205,39,7*4F
$GBGSV,3,1,11,02,02,101,37,05,17,123,39,08,36,044,44,12,06,253,,1*75
$GNRMC,160005.00,A,4843.26087,N,00920.55554,E,0.010,,080225,,,A,V*15
$GNGGA,160005.00,4843.26087,N,00920.55554,E,1,12,0.50,248.6,M,47.6,M,,*44
$GPGSV,3,1,12,05,09,031,21,07,06,335,35,08,06,281,,10,14,165,43,1*6E
$GPGSV,3,2,12,15,02,079,,16,68,278,,18,62,062,43,23,39,129,46,1*67
$GPGSV,3,3,12,26,62,197,41,27,38,284,,29,17,090,44,31,11,212,37,1*6E
$GLGSV,3,1,10,65,06,112,,71,11,011,45,72,19,059,44,77,02,168,11,1*77
$GLGSV,3,2,10,78,52,200,39,79,53,304,39,80,07,335,,81,42,256,35,1*7F
$GLGSV,3,3,10,87,15,053,44,88,71,014,44,1*77
$GAGSV,3,1,11,02,70,277,32,10,27,050,38,11,55,056,41,12,05,047,13,7*7C
$GAGSV,3,2,11,16,23,146,45,19,01,033,,25,47,153,45,29,01,353,,7*72
$GAGSV,3,3,11,30,20,311,38,34,17,222,,36,68,205,39,7*4F
$GNRMC,160006.00,A,4843.26088,N,00920.55552,E,0.021,,080225,,,A,V*1D
$GNGGA,160006.00,4843.26088,N,00920.55552,E,1,12,0.50,248.6,M,47.6,M,,*4E
$GPGSV,3,1,12,05,09,031,22,07,06,335,34,08,06,281,,10,14,165,43,1*6C
$GPGSV,3,2,12,15,02,079,,16,68,278,,18,62,062,42,23,39,129,47,1*67
$GPGSV,3,3,12,26,62,197,40,27,38,284,,29,17,090,44,31,11,212,38,1*60
$GLGSV,3,1,10,65,06,112,,71,11,011,45,72,19,059,44,77,02,168,14,1*72
$GLGSV,3,2,10,78,52,200,40,79,53,304,40,80,07,335,,81,42,256,38,1*72
$GLGSV,3,3,10,87,15,053,44,88,71,014,44,1*77
$GAGSV,3,1,11,02,70,277,33,10,27,050,38,11,55,056,41,12,05,047,13,7*7D
$GAGSV,3,2,11,16,23,146,45,19,01,033,,25,47,153,45,29,01,353,,7*72
$GAGSV,3,3,11,30,20,311,38,34,17,222,,36,68,205,39,7*4F
$GNRMC,160007.00,A,4843.26089,N,00920.55551,E,0.034,,080225,,,A,V*1A
$GNGGA,160007.00,4843.26089,N,00920.55551,E,1,12,0.50,248.6,M,47.6,M,,*4D
$GPGSV,3,1,12,05,09,031,23,07,06,335,36,08,06,281,,10,14,165,43,1*6F
$GPGSV,3,2,12,15,02,079,,16,68,278,,18,62,062,43,23,39,129,47,1*66
$GPGSV,3,3,12,26,62,197,40,27,38,284,,29,17,090,45,31,11,212,38,1*61
$GLGSV,3,1,10,65,06,112,,71,11,011,45,72,19,059,44,77,02,168,11,1*77
$GLGSV,3,2,10,78,52,200,40,79,53,304,40,80,07,335,,81,42,256,37,1*7D
$GLGSV,3,3,10,87,15,053,44,88,71,014,44,1*77
$GAGSV,3,1,11,02,70,277,33,10,27,050,38,11,55,056,41,12,05,047,14,7*7A
$GAGSV,3,2,11,16,23,146,45,19,01,033,,25,47,153,45,29,01,353,,7*72
$GAGSV,3,3,11,30,20,311,38,34,17,222,,36,68,205,38,7*4E
$GBGSV,3,1,11,02,02,101,38,05,17,123,39,08,36,044,44,12,06,253,,1*7A
$GBGSV,3,2,11,13,40,053,41,17,04,167,,19,10,125,,20,20,079,50,1*74
$GNRMC,160008.00,A,4843.26090,N,00920.55551,E,0.015,,080225,,,A,V*1E
$GNGGA,160008.00,4843.26090,N,00920.55551,E,1,12,0.50,248.6,M,47.6,M,,*4A
$GPGSV,3,1,12,05,09,031,21,07,06,335,35,08,06,281,,10,14,165,42,1*6F
$GPGSV,3,2,12,15,02,079,,16,68,278,,18,62,062,42,23,39,129,47,1*67
$GLGSV,3,1,10,65,06,112,,71,11,011,44,72,19,059,44,77,02,168,12,1*75
$GLGSV,3,2,10,78,52,200,41,79,53,304,40,80,07,335,,81,42,256,34,1*7F
$GLGSV,3,3,10,87,15,053,44,88,71,014,44,1*77
$GAGSV,3,1,11,02,70,277,34,10,27,050,38,11,55,056,41,12,05,047,12,7*7B
$GAGSV,3,2,11,16,23,146,45,19,01,033,,25,47,153,45,29,01,353,,7*72
$GAGSV,3,3,11,30,20,311,39,34,17,222,,36,68,205,38,7*4F
$GBGSV,3,1,11,02,02,101,38,05,17,123,39,08,36,044,44,12,06,253,,1*7A
$GNRMC,160009.00,A,4843.26092,N,00920.55549,E,0.092,,080225,,,A,V*1B
$GNGGA,160009.00,4843.26092,N,00920.55549,E,1,12,0.49,248.6,M,47.6,M,,*48
$GPGSV,3,1,12,05,09,031,21,07,06,335,35,08,06,281,,10,14,165,42,1*6F
$GPGSV,3,2,12,15,02,079,,16,68,278,,18,62,062,42,23,39,129,46,1*66
$GPGSV,3,3,12,26,62,197,40,27,38,284,,29,17,090,45,31,11,212,38,1*61
$GLGSV,3,1,10,65,06,112,,71,11,011,44,72,19,059,44,77,02,168,10,1*77
$GLGSV,3,2,10,78,52,200,41,79,53,304,41,80,07,335,,81,42,256,38,1*72
$GLGSV,3,3,10,87,15,053,44,88,71,014,44,1*77
$GAGSV,3,1,11,02,70,277,33,10,27,050,38,11,55,056,41,12,05,047,12,7*7C
$GAGSV,3,2,11,16,23,146,46,19,01,033,,25,47,153,45,29,01,353,,7*71
$GAGSV,3,3,11,30,20,311,38,34,17,222,,36,68,205,38,7*4E
$GBGSV,3,1,11,02,02,101,3,05,17,123,39,08,36,044,44,12,06,253,,1*75
$GNRMC,160010.00,A,4843.26093,N,00920.55548,E,0.010,,080225,,,A,V*19
$GNGGA,160010.00,4843.26093,N,00920.55548,E,1,12,0.49,248.6,M,47.6,M,,*40
$GPGSV,3,1,12,05,09,031,20,07,06,335,35,08,06,281,,10,14,165,42,1*6E
$GPGSV,3,2,12,15,02,079,,16,68,278,,18,62,062,42,23,39,129,46,1*66
$GPGSV,3,3,12,26,62,197,40,27,38,284,,29,17,090,45,31,11,212,38,1*61
$GLGSV,3,1,10,65,06,112,,71,11,011,44,72,19,059,45,77,02,168,13,1*75
$GLGSV,3,2,10,78,52,200,41,79,53,304,42,80,07,335,,81,42,256,38,1*71
$GLGSV,3,3,10,87,15,053,45,88,71,014,44,1*76
$GAGSV,3,1,11,02,70,277,34,10,27,050,39,11,55,056,41,12,05,047,13,7*7B
$GAGSV,3,2,11,16,3,146,45,19,01,033,,25,47,153,45,29,01,353,,7*72
$GAGSV,3,3,11,30,20,311,38,34,17,222,,36,68,205,38,7*4E
$GNRMC,160011.00,A,4843.26093,N,00920.55548,E,0.027,,080225,,,A,V*1C
$GNGGA,160011.00,4843.26093,N,00920.55548,E,1,12,0.49,248.6,M,47.6,M,,*41
$GPGSV,3,1,12,05,09,031,20,07,06,335,35,08,06,281,,10,14,165,42,1*6E
$GPGSV,3,2,12,15,02,079,,16,68,278,,18,62,062,42,23,39,129,46,1*66
$GPGSV,3,3,12,26,62,197,39,27,38,284,,29,17,090,45,31,11,212,38,1*6F
$GLGSV,3,1,10,65,06,112,,71,11,011,45,72,19,059,45,77,02,168,12,1*75
$GLGSV,3,2,10,78,52,200,40,79,53,304,42,80,07,335,,81,42,256,38,1*70
$GLGSV,3,3,10,87,15,053,45,88,71,014,44,1*76
$GNRMC,160012.00,A,4843.26093,N,00920.55549,E,0.009,,080225,,,A,V*12
$GNGGA,160012.00,4843.26093,N,00920.55549,E,1,12,0.49,248.6,M,47.6,M,,*43
$GPGSV,3,1,12,05,09,031,19,07,06,335,35,08,06,281,,10,14,165,42,1*64
$GPGSV,3,2,12,15,02,079,,16,68,278,,18,62,062,42,23,39,129,46,1*66
$GPGSV,3,3,12,26,62,197,39,27,39,285,,29,17,090,45,31,11,212,38,1*6F
$GLGSV,3,1,10,65,06,112,,71,11,011,45,72,19,059,45,77,02,168,10,1*77
$GLGSV,3,2,10,78,52,200,40,79,53,304,42,80,07,335,,81,42,256,38,1*70
$GLGSV,3,3,10,87,15,053,45,88,71,014,44,1*76
$GAGSV,3,1,11,02,70,277,34,10,27,050,38,11,55,056,41,12,05,047,16,7*7F
$GAGSV,3,2,11,16,23,146,45,19,01,033,,25,47,153,45,29,01,353,,7*72
$GAGSV,3,3,11,30,20,311,38,34,17,222,,36,68,205,38,7*4E
$GBGSV,3,1,11,02,02,101,37,05,17,123,40,08,36,044,44,12,06,253,,1*7B
$GNRMC,160013.00,A,4843.26092,N,00920.55548,E,0.025,,080225,,,A,V*1D
$GNGGA,160013.00,4843.26092,N,00920.55548,E,1,12,0.49,248.6,M,47.6,M,,*42
$GPGSV,3,1,12,05,09,031,17,07,06,335,35,08,06,281,,10,14,165,42,1*6A
$GPGSV,3,2,12,15,02,079,,16,68,278,,18,62,062,42,23,39,129,46,1*66
$GLGSV,3,1,10,65,06,112,,71,11,011,44,72,19,059,45,77,02,168,14,1*72
$GLGSV,3,2,10,78,52,200,40,79,53,304,42,80,07,335,,81,42,256,37,1*7F
$GLGSV,3,3,10,87,15,053,46,88,71,014,44,1*75
$GAGSV,3,1,11,02,70,277,34,10,27,050,38,11,55,056,41,12,05,047,13,7*7A
$GAGSV,3,2,11,16,23,146,45,19,01,033,,25,47,153,44,29,01,353,,7*73
$GAGSV,3,3,11,30,20,311,38,34,17,222,,36,68,205,38,7*4E
$GBGSV,3,1,11,02,02,101,37,05,17,123,40,08,36,044,44,12,06,253,,1*7B
$GNRMC,160014.00,A,4843.26092,N,00920.55548,E,0.011,,080225,,,A,V*1D
$GNGGA,160014.00,4843.26092,N,00920.55548,E,1,12,0.49,248.6,M,47.6,M,,*45
$GPGSV,3,1,12,05,09,031,16,07,06,335,35,08,06,281,,10,14,165,42,1*6B
$GPGSV,3,2,12,15,02,079,,16,68,278,,18,62,062,42,23,39,129,46,1*66
$GPGSV,3,3,12,26,62,197,40,27,39,285,,29,17,090,46,31,11,212,37,1*6D
$GLGSV,3,1,10,65,06,112,,71,11,011,44,72,19,059,45,77,02,168,15,1*73
$GLGSV,3,2,10,78,52,200,39,79,53,304,43,80,07,335,,81,42,256,37,1*70
$GLGSV,3,3,10,87,15,053,46,88,71,014,44,1*75
$GAGSV,3,1,11,02,70,277,34,10,27,050,38,11,55,056,41,12,05,047,09,7*71
$GAGSV,3,2,11,16,23,146,45,19,01,033,,25,47,153,44,29,01,353,,7*73
$GAGSV,3,3,11,30,20,311,38,34,17,222,,36,68,205,37,7*41
$GBGSV,3,1,11,02,02,101,37,05,17,123,40,08,36,044,44,12,06,253,,1*7B
$GNRMC,160015.00,A,4843.26091,N,00920.55549,E,0.028,,080225,,,A,V*14
$GNGGA,160015.00,4843.26091,N,00920.55549,E,1,12,0.49,248.6,M,47.6,M,,*46
$GPGSV,3,1,12,05,09,031,15,07,06,335,34,08,06,281,,10,14,165,42,1*69
$GPGSV,3,2,12,15,02,079,,16,68,278,,18,62,062,43,23,39,129,46,1*67
$GPGSV,3,3,12,26,62,197,40,27,39,285,,29,17,090,46,31,11,212,37,1*6D
$GLGSV,3,1,10,65,06,112,,71,11,011,44,72,19,059,45,77,02,168,14,1*72
$GLGSV,3,2,10,78,52,200,39,79,53,304,42,80,07,335,,81,42,256,37,1*71
$GLGSV,3,3,10,87,15,053,45,88,71,014,44,1*76
$GAGSV,3,1,11,02,70,277,34,10,27,050,38,11,55,056,41,12,05,047,13,7*7A
$GAGSV,3,2,11,16,23,146,45,19,01,033,,25,47,153,45,29,01,353,,7*72
$GAGSV,3,3,11,30,20,311,38,34,17,222,,36,68,205,37,7*41
$GNRMC,160016.00,A,4843.26090,N,00920.55550,E,0.017,,080225,,,A,V*12
$GNGGA,160016.00,4843.26090,N,00920.55550,E,1,12,0.49,248.7,M,47.6,M,,*4D
$GPGSV,3,1,12,05,09,031,18,07,06,335,34,08,06,281,,10,14,165,42,1*64
$GPGSV,3,2,12,15,02,079,,16,68,278,,18,62,062,43,23,39,129,46,1*67
$GPGSV,3,3,12,26,62,197,40,27,39,285,,29,17,090,46,31,11,212,38,1*62
$GLGSV,3,1,10,65,06,112,,71,11,011,45,72,19,059,44,77,02,168,14,1*72
$GLGSV,3,2,10,78,52,200,38,79,53,304,42,80,07,335,,81,42,256,37,1*70
$GLGSV,3,3,10,87,15,053,45,88,71,014,44,1*76
$GAGSV,3,1,11,02,70,277,33,10,27,050,38,11,55,056,41,12,05,047,11,7*7F
$GAGSV,3,2,11,16,23,146,45,19,01,033,,25,47,153,45,29,01,353,,7*72
$GAGSV,3,3,11,30,20,311,39,34,17,222,,36,68,205,37,7*40
$GNRMC,160017.00,A,4843.26088,N,00920.55549,E,0.015,,080225,,,A,V*10
$GNGGA,160017.00,4843.26088,N,00920.55549,E,1,12,0.49,248.7,M,47.6,M,,*4D
$GPGSV,3,1,12,05,09,031,19,07,06,335,34,08,06,281,,10,14,165,43,1*64
$GPGSV,3,2,12,15,02,079,,16,68,278,,18,62,062,43,23,39,129,46,1*67
$GPGSV,3,3,12,26,62,197,41,27,39,285,,29,17,090,45,31,11,212,38,1*60
$GLGSV,3,1,10,65,06,112,,71,11,011,45,72,19,059,44,77,02,168,11,1*77
$GLGSV,3,2,10,78,52,200,37,79,53,304,42,80,07,335,,81,42,256,38,1*70
$GLGSV,3,3,10,87,15,053,45,88,71,014,44,1*76
$GAGSV,3,1,11,02,70,277,34,10,27,050,38,11,55,056,41,12,05,047,12,7*7B
$GAGSV,3,2,11,16,23,146,46,19,01,033,,25,47,153,45,29,01,353,,7*71
$GAGSV,3,3,11,30,20,311,38,34,17,222,,36,68,205,37,7*41
$GBGSV,3,1,11,02,02,101,37,05,17,123,39,08,36,043,44,12,06,253,,1*72
$GNRMC,160018.00,A,4843.26087,N,00920.55548,E,0.023,,080225,,,A,V*14
$GNGGA,160018.00,4843.26087,N,00920.55548,E,1,12,0.49,248.8,M,47.6,M,,*43
$GPGSV,3,1,12,05,09,031,17,07,06,335,34,08,06,281,,10,14,165,42,1*6B
$GPGSV,3,2,12,15,02,079,,16,68,278,,18,62,062,43,23,39,129,46,1*67
$GPGSV,3,3,12,26,62,197,41,27,39,285,,29,17,090,46,31,11,212,38,1*63
$GLGSV,3,1,10,65,06,112,,71,11,011,45,72,19,059,44,77,02,168,13,1*75
$GLGSV,3,2,10,78,52,200,37,79,53,304,42,80,07,335,,81,42,256,39,1*71
$GLGSV,3,3,10,87,15,053,45,88,71,014,44,1*76
$GAGSV,3,1,11,02,70,277,34,10,27,050,39,11,55,056,41,12,05,047,13,7*7B
$GAGSV,3,2,11,16,23,146,46,19,01,033,,25,47,153,45,29,01,353,,7*71
$GAGSV,3,3,11,30,20,311,38,34,17,222,,36,68,205,37,7*41
$GBGSV,3,1,11,02,02,101,37,05,17,123,39,08,36,043,44,12,06,253,,1*72
$GBGSV,3,2,11,13,40,053,41,17,04,167,,19,10,125,,20,20,078,50,1*75
$GNRMC,160019.00,A,4843.26085,N,00920.55547,E,0.003,,080225,,,A,V*1A
$GNGGA,160019.00,4843.26085,N,00920.55547,E,1,12,0.49,248.8,M,47.6,M,,*4F
$GPGSV,3,1,12,05,09,031,17,07,06,335,34,08,06,281,,10,14,165,42,1*6B
$GPGSV,3,2,12,15,02,079,,16,68,278,,18,62,062,43,23,39,129,46,1*67
$GPGSV,3,3,12,26,62,197,42,27,39,285,,29,17,090,45,31,11,212,38,1*63
$GLGSV,3,1,10,65,06,112,,71,11,011,44,72,19,059,43,77,02,168,11,1*71
$GLGSV,3,2,10,78,52,200,37,79,53,304,43,80,07,335,,81,42,256,39,1*70
$GLGSV,3,3,10,87,15,053,45,88,71,014,44,1*76
$GAGSV,3,1,11,02,70,277,34,10,27,050,38,11,55,056,41,12,05,047,11,7*78
$GAGSV,3,2,11,16,23,146,46,19,01,033,,25,47,153,45,29,01,353,,7*71
$GAGSV,3,3,11,30,20,311,38,34,17,222,,36,68,205,37,7*41
$GBGSV,3,1,11,02,02,101,37,05,17,123,39,08,36,043,44,12,06,253,,1*72
$GNRMC,160020.00,A,4843.26083,N,00920.55547,E,0.012,,080225,,,A,V*16
$GNGGA,160020.00,4843.26083,N,00920.55547,E,1,12,0.49,248.9,M,47.6,M,,*42
$GPGSV,3,1,12,05,09,031,19,07,06,335,34,08,06,281,,10,14,165,42,1*65
$GPGSV,3,2,12,15,02,079,,16,68,278,,18,62,062,43,23,39,129,46,1*67
$GPGSV,3,3,12,26,62,197,42,27,39,285,,29,17,090,45,31,11,212,38,1*63
$GLGSV,3,1,10,65,06,112,,71,11,011,44,72,19,059,43,77,02,168,13,1*73
$GLGSV,3,2,10,78,52,200,37,79,53,304,43,80,07,335,,81,42,256,40,1*7E
$GLGSV,3,3,10,87,15,053,45,88,71,014,44,1*76
$GAGSV,3,1,11,02,70,276,34,10,27,050,38,11,55,056,41,12,05,047,14,7*7C
$GAGSV,3,2,11,16,23,146,46,19,01,033,,25,47,153,45,29,01,353,,7*71
$GAGSV,3,3,11,30,20,311,38,34,17,222,,36,68,205,37,7*41
$GNGGA,160021.00,4843.26081,N,00920.55546,E,1,12,0.49,248.9,M,47.6,M,,*40
$GPGSV,3,1,12,05,09,031,21,07,06,335,34,08,06,281,,10,14,165,43,1*6F
$GPGSV,3,2,12,15,02,079,,16,68,278,,18,62,062,43,23,39,129,45,1*64
$GPGSV,3,3,12,26,62,197,42,27,39,285,,29,17,090,45,31,11,212,38,1*63
$GLGSV,3,1,10,65,06,112,,71,11,011,44,72,19,059,42,77,02,168,13,1*72
$GLGSV,3,2,10,78,52,200,37,79,53,304,43,80,07,335,,81,42,256,40,1*7E
$GLGSV,3,3,10,87,15,053,44,88,71,014,44,1*77
$GAGSV,3,1,11,02,70,276,34,10,27,050,38,11,55,056,41,12,05,047,14,7*7C
$GAGSV,3,2,11,16,23,146,46,19,01,033,,25,47,153,44,29,01,353,,7*70
$GAGSV,3,3,11,30,20,311,38,34,17,222,,36,68,205,37,7*41
$GBGSV,3,1,11,02,02,101,37,05,17,123,39,8,36,043,44,12,06,253,,1*72
$GNRMC,160022.00,A,4843.26080,N,00920.55546,E,0.019,,080225,,,A,V*1D
$GNGGA,160022.00,4843.26080,N00920.55546,E,1,12,0.49,248.9,M,47.6,M,,*42
$GPGSV,3,1,12,05,09,031,23,07,06,335,35,08,06,281,,10,14,165,43,1*6C
$GPGSV,3,2,12,15,02,079,,16,68,278,,18,62,062,43,23,39,129,45,1*64
$GPGSV,3,3,12,26,62,197,42,27,39,285,,29,17,090,45,31,11,212,38,1*63
$GLGSV,3,1,10,65,06,112,,71,11,011,43,72,19,059,43,77,02,168,11,1*76
$GLGSV,3,2,10,78,52,200,38,79,53,304,43,80,07,335,,81,42,256,40,1*71
$GLGSV,3,3,10,87,15,053,44,88,71,014,44,1*77
$GAGSV,3,1,11,02,70,276,34,10,27,050,39,11,55,056,41,12,05,047,12,7*7B
$GAGSV,3,2,11,16,23,146,46,19,01,033,,25,47,153,44,29,01,353,,7*70
$GAGSV,3,3,11,30,20,311,38,34,17,222,,36,68,205,38,7*4E
$GBGSV,3,1,11,02,02,101,37,05,17,123,39,08,36,043,44,12,06,253,,1*72
$GNRMC,160023.00,A,4843.26078,N,00920.55545,E,0.036,,080225,,,A,V*15
$GNGGA,160023.00,4843.26078,N,00920.55545,E,1,12,0.49,248.9,M,47.6,M,,*47
$GPGSV,3,1,12,05,09,031,23,07,06,335,35,08,06,281,,10,14,165,43,1*6C
$GPGSV,3,2,12,15,02,079,,16,68,278,,18,62,062,43,23,39,129,45,1*64
$GPGSV,3,3,12,26,62,197,43,27,39,285,,29,17,090,46,31,11,212,38,1*61
$GLGSV,3,1,10,65,06,112,,71,11,011,42,72,19,059,43,77,02,168,12,1*74
$GLGSV,3,2,10,78,52,200,38,79,53,304,43,80,07,335,,81,42,256,40,1*71
$GLGSV,3,3,10,87,15,053,44,88,71,014,44,1*77
$GAGSV,3,1,11,02,70,276,34,10,27,050,39,11,55,056,41,12,05,047,09,7*71
$GAGSV,3,2,11,16,23,146,47,19,01,033,,25,47,153,44,29,01,353,,7*71
$GAGSV,3,3,11,30,20,311,38,34,17,222,,36,68,205,38,7*4E
$GNRMC,160024.00,A,4843.26077,N,00920.55545,E,0.016,,080225,,,A,V*1F
$GNGGA,160024.00,4843.26077,N,00920.55545,E,1,12,0.49,248.9,M,47.6,M,,*4F
$GPGSV,3,1,12,05,09,031,23,07,06,335,35,08,06,281,,10,14,165,44,1*6B
$GPGSV,3,2,12,15,02,079,,16,68,278,,18,62,062,43,23,39,129,45,1*64
$GPGSV,3,3,12,26,62,197,42,27,39,285,,29,17,090,46,31,11,212,38,1*60
$GLGSV,3,1,10,65,06,112,,71,11,011,41,72,19,059,43,77,02,168,13,1*76
$GLGSV,3,2,10,78,52,200,38,79,53,304,43,80,07,335,,81,42,256,41,1*70
$GLGSV,3,3,10,87,15,053,44,88,71,014,44,1*77
$GAGSV,3,1,11,02,70,276,34,10,27,050,39,11,55,056,41,12,05,047,12,7*7B
$GAGSV,3,2,11,16,23,146,47,19,01,033,,25,47,153,44,29,01,353,,7*71
$GAGSV,3,3,11,30,20,311,38,34,17,222,,36,68,205,38,7*4E
$GBGSV,3,1,11,02,02,101,37,05,17,123,39,08,36,043,44,12,06,253,,1*72
$GNRMC,160025.00,A,4843.26076,N,00920.55544,E,0.007,,080225,,,A,V*1E
$GNGGA,160025.00,4843.26076,N,00920.55544,E,1,12,0.49,248.9,M,47.6,M,,*4E
$GPGSV,3,1,12,05,09,031,24,07,06,335,35,08,06,281,,10,14,165,43,1*6B
$GPGSV,3,2,12,15,02,079,,16,68,278,,18,62,062,43,23,39,129,45,1*64
$GPGSV,3,3,12,26,62,197,42,27,39,285,,29,17,090,46,31,11,212,38,1*60
$GLGSV,3,1,10,65,06,112,,71,11,011,41,72,19,059,43,77,02,168,11,1*74
$GLGSV,3,2,10,78,52,200,39,79,53,304,43,80,07,335,,81,42,256,41,1*71
$GLGSV,3,3,10,87,15,053,44,88,71,014,43,1*70
$GAGSV,3,1,11,02,70,276,34,10,27,050,39,11,55,056,41,12,05,047,13,7*7A
$GAGSV,3,2,11,16,23,146,47,19,01,033,,25,47,153,44,29,01,353,,7*71
$GAGSV,3,3,11,30,20,311,38,34,17,222,,36,68,205,38,7*4E
$GBGSV,3,1,11,02,02,101,37,05,17,123,39,08,36,043,44,12,06,253,,1*72
$GNRMC,160026.00,A,4843.26074,N,00920.55544,E,0.005,,080225,,,A,V*1D
$GNGGA,160026.00,4843.26074,N,00920.55544,E,1,12,0.49,248.9,M,47.6,M,,*4F
$GPGSV,3,1,12,05,09,031,24,07,06,335,35,08,06,281,,10,14,165,43,1*6B
$GPGSV,3,2,12,15,02,079,,16,68,278,,18,62,062,43,23,39,129,45,1*64
$GPGSV,3,3,12,26,62,197,42,27,39,285,,29,17,090,46,31,11,212,39,1*61
$GLGSV,3,1,10,65,06,112,,71,11,011,41,72,19,059,43,77,02,168,12,1*77
$GLGSV,3,2,10,78,52,200,38,79,53,304,42,80,07,335,,81,42,256,42,1*72
$GLGSV,3,3,10,87,15,053,44,88,71,014,43,1*70
$GAGSV,3,1,11,02,70,276,34,10,27,050,39,11,55,056,41,12,05,047,14,7*7D
$GAGSV,3,2,11,16,23,146,47,19,01,033,,25,47,153,44,29,01,353,,7*71
$GAGSV,3,3,11,30,20,311,38,34,17,222,,36,68,205,37,7*41
$GNRMC,160027.00,A,4843.26073,N,00920.55545,E,0.009,,080225,,,A,V*16
$GNGGA,160027.00,4843.26073,N,00920.55545,E,1,12,0.49,248.9,M,47.6,M,,*48
$GPGSV,3,1,12,05,09,031,25,07,06,335,34,08,06,281,,10,14,165,42,1*6A
$GPGSV,3,2,12,15,02,079,,16,68,278,,18,62,062,43,23,39,129,45,1*64
$GPGSV,3,3,12,26,62,197,42,27,39,285,,29,17,090,46,31,11,212,39,1*61
$GLGSV,3,1,10,65,06,112,,71,11,011,41,72,19,059,43,77,02,168,14,1*71
$GLGSV,3,2,10,78,52,200,37,79,53,304,42,80,07,335,,81,42,256,43,1*7C
$GLGSV,3,3,10,87,15,053,44,88,71,014,43,1*70
$GAGSV,3,1,11,02,70,276,34,10,27,050,39,11,55,056,41,12,05,047,12,7*7B
$GAGSV,3,2,11,16,23,146,47,19,01,033,,25,47,153,44,29,01,353,,7*71
$GNRMC,160028.00,A,4843.26071,N,00920.55545,E,0.004,,080225,,,A,V*16
$GNGGA,160028.00,4843.26071,N,00920.55545,E,1,12,0.49,248.8,M,47.6,M,,*44
$GPGSV,3,1,12,05,09,031,26,07,06,335,34,08,06,281,,10,14,165,43,1*68
$GPGSV,3,2,12,15,02,079,,16,68,278,,18,62,062,44,23,39,129,45,1*63
$GPGSV,3,3,12,26,62,197,42,27,39,285,,29,17,090,46,31,11,212,39,1*61
$GLGSV,3,1,10,65,06,112,,71,11,011,42,72,19,059,43,77,02,168,14,1*72
$GLGSV,3,2,10,78,52,200,37,79,53,304,42,80,07,335,,81,42,256,43,1*7C
$GLGSV,3,3,10,87,15,053,44,88,71,014,43,1*70
$GAGSV,3,1,11,02,70,276,34,10,27,050,39,11,55,056,41,12,05,047,11,7*78
$GNRMC,160029.00,A,4843.26070,N,00920.55545,E,0.009,,080225,,,A,V*1B
$GNGGA,160029.00,4843.26070,N,00920.55545,E,1,12,0.49,248.8,M,47.6,M,,*44
$GPGSV,3,1,12,05,09,031,26,07,06,335,34,08,06,281,,10,14,165,43,1*68
$GPGSV,3,2,12,15,02,079,,16,68,278,,18,62,062,44,23,39,129,45,1*63
$GPGSV,3,3,12,26,62,197,43,27,39,285,,29,17,090,46,31,11,212,39,1*60
$GLGSV,3,110,65,06,112,,71,11,011,42,72,19,059,43,77,02,168,12,1*74
$GLGSV,3,2,10,78,52,200,36,79,53,304,42,80,07,335,,81,42,256,43,1*7D
$GLGSV,3,3,10,87,15,053,44,88,71,014,43,1*70
$GAGSV,3,1,11,02,70,276,34,10,27,050,39,11,55,056,41,12,05,047,11,7*78
$GAGSV,3,2,11,16,23,146,47,19,01,033,,25,47,153,44,29,01,353,,7*71
$GAGSV,3,3,11,30,20,311,38,34,17,222,,36,68,205,38,7*4E
$GBGSV,3,1,11,02,02,101,37,05,17,123,39,08,36,043,44,12,06,253,,1*72
$GNRMC,160030.00,A,4843.26069,N,00920.55545,E,0.021,,080225,,,A,V*11
$GNGGA,160030.00,4843.26069,N,00920.55545,E,1,12,0.49,248.8,M,47.6,M,,*44
$GPGSV,3,1,12,05,09,031,28,07,06,335,34,08,06,281,,10,14,165,43,1*66
$GPGSV,3,2,12,15,02,079,,16,68,278,,18,62,062,44,23,39,129,45,1*63
$GPGSV,3,3,12,26,62,197,43,27,39,285,,29,17,090,46,31,11,212,39,1*60
$GLGSV,3,1,10,65,06,112,,71,11,011,42,72,19,059,44,77,02,168,12,1*73
$GLGSV,3,2,10,78,52,200,37,79,53,304,42,80,07,335,,81,42,256,42,1*7D
$GLGSV,3,3,10,87,15,053,43,88,71,014,42,1*76
$GAGSV,3,1,11,02,70,276,34,10,27,050,39,11,55,056,41,12,05,047,12,7*7B
$GAGSV,3,2,11,16,23,146,48,19,01,033,,25,47,153,44,29,01,353,,7*7E
$GAGSV,3,3,11,30,20,311,38,34,17,222,,36,68,205,38,7*4E
$GNRMC,160031.00,A,4843.26069,N,00920.55545,E,0.008,,080225,,,A,V*1B
$GNGGA,160031.00,4843.26069,N,00920.55545,E,1,12,0.49,248.8,M,47.6,M,,*45
$GPGSV,3,1,12,05,09,031,28,07,06,335,35,08,06,281,,10,14,165,43,1*67
$GPGSV,3,2,12,15,02,079,,16,68,278,,18,62,062,44,23,39,129,45,1*63
$GPGSV,3,3,12,26,62,197,42,27,39,285,,29,17,090,45,31,11,212,39,1*62
$GLGSV,3,1,10,65,06,112,,71,11,011,42,72,19,059,44,77,02,168,13,1*72
$GLGSV,3,2,10,78,52,200,38,79,53,304,41,80,07,335,,81,42,256,42,1*71
$GLGSV,3,3,10,87,15,053,43,88,71,014,42,1*76
$GAGSV,3,1,11,02,70,276,34,10,27,050,39,11,55,056,41,12,05,047,12,7*7B
$GAGSV,3,2,11,16,23,146,48,19,01,033,,25,47,153,43,29,01,353,,7*79
$GAGSV,3,3,11,30,20,311,38,34,17,222,,36,68,205,38,7*4E
$GBGSV,3,1,11,02,02,101,37,05,17,123,39,08,36,043,44,12,06,253,,1*72
$GBGSV,3,2,11,13,40,053,41,17,04,167,,19,10,125,,20,20,078,50,1*75
$GBGSV,3,3,11,24,34,302,39,26,47,234,38,29,38,070,44,1*42
$GNRMC,160032.00,A,4843.26068,N,00920.55546,E,0.014,,080225,,,A,V*17
$GNGGA,160032.00,4843.26068,N,00920.55546,E,1,12,0.49,248.7,M,47.6,M,,*4B
$GPGSV,3,1,12,05,09,031,27,07,06,335,35,08,06,281,,10,14,165,43,1*68
$GPGSV,3,2,12,15,02,079,,16,68,278,,18,62,062,44,23,39,129,45,1*63
$GPGSV,3,3,12,26,62,197,42,27,39,285,,29,17,090,45,31,11,212,39,1*62
$GLGSV,3,1,10,65,06,112,,71,11,011,42,72,19,059,44,77,02,168,14,1*75
$GLGSV,3,2,10,78,52,200,38,79,53,304,42,80,07,335,,81,42,256,42,1*72
$GLGSV,3,3,10,87,15,053,43,88,71,014,42,1*76
$GAGSV,3,1,11,02,70,276,34,10,27,050,39,11,55,056,41,12,05,047,10,7*79
$GAGSV,3,2,11,16,23,146,48,19,01,033,,25,47,153,43,29,01,353,,7*79
$GAGSV,3,3,11,30,20,311,38,34,17,222,,36,68,205,38,7*4E
$GBGSV,3,1,11,02,02,101,37,05,17,123,39,08,36,043,44,12,06,253,,1*72
$GNRMC,160033.00,A,4843.26067,N,00920.55547,E,0.006,,080225,,,A,V*1B
$GNGGA,160033.00,4843.26067,N,00920.55547,E,1,12,0.49,248.7,M,47.6,M,,*44
$GPGSV,3,1,12,05,09,031,26,07,06,335,34,08,06,281,,10,14,165,43,1*68
$GPGSV,3,2,12,15,02,079,,16,68,278,,18,62,062,44,23,39,129,45,1*63
$GPGSV,3,3,12,26,62,197,42,27,39,285,,29,17,090,45,31,11,212,39,1*62
$GLGSV,3,1,10,65,06,112,,71,11,011,42,72,19,059,44,77,02,168,11,1*70
$GLGSV,3,2,10,78,52,200,38,79,53,304,42,80,07,335,,81,42,256,42,1*72
$GLGSV,3,3,10,87,15,053,43,88,71,014,42,1*76
$GAGSV,3,1,11,02,70,276,34,10,27,050,39,11,55,056,41,12,05,047,15,7*7C
$GAGSV,3,2,11,16,22,146,48,19,01,033,,25,47,153,43,29,01,353,,7*78
$GAGSV,3,3,11,30,20,311,38,34,17,22,,36,68,205,37,7*41
$GNRMC,160034.00,A,4843.26067,N,00920.55548,E,0.006,,080225,,,A,V*13
$GNGGA,160034.00,4843.26067,N,00920.55548,E,1,12,0.49,248.7,M,47.6,M,,*4C
$GPGSV,3,1,12,05,09,031,26,07,06,335,35,08,06,281,,10,14,165,43,1*69
$GPGSV,3,2,12,15,02,079,,16,68,278,,18,62,062,44,23,39,129,46,1*60
$GPGSV,3,3,12,26,62,197,42,27,39,285,,29,17,09044,31,11,212,39,1*63
$GLGSV,3,1,10,65,06,112,,71,11,011,42,72,19,059,44,77,02,168,14,1*75
$GLGSV,3,2,10,78,52,200,37,79,53,304,42,80,07,335,,81,42,256,43,1*7C
$GLGSV,3,3,10,87,15,053,43,88,71,014,42,1*76
$GAGSV,3,1,11,02,70,276,34,10,27,050,39,11,55,056,41,12,05,047,15,7*7C
$GAGSV,3,2,11,16,22,146,48,19,01,033,,25,47,153,43,29,01,353,,7*78
$GAGSV,3,3,11,30,20,311,38,34,17,222,,36,68,205,37,7*41
$GBGSV,3,1,11,02,02,101,37,05,17,123,39,08,36,043,44,12,06,253,,1*72
$GNRMC,160035.00,A,4843.26066,N,00920.55549,E,0.016,,080225,,,A,V*13
$GNGGA,160035.00,4843.26066,N,00920.55549,E,1,12,0.49,248.6,M,47.6,M,,*4C
$GPGSV,3,1,12,05,09,031,26,07,06,335,34,08,06,281,,10,14,165,43,1*68
$GPGSV,3,2,12,15,02,079,,16,68,278,,18,62,062,44,23,39,129,46,1*60
$GPGSV,3,3,12,26,62,197,42,27,39,285,,29,17,090,44,31,11,212,39,1*63
$GLGSV,3,1,10,65,06,112,,71,11,011,42,72,19,059,44,77,02,168,15,1*74
$GLGSV,3,2,10,78,52,200,38,79,53,304,42,80,07,335,,81,42,256,43,1*73
$GLGSV,3,3,10,87,15,053,43,88,71,014,42,1*76
$GAGSV,3,1,11,02,70,276,34,10,27,050,39,11,55,056,41,12,05,047,13,7*7A
$GAGSV,3,2,11,16,22,146,48,19,01,033,,25,47,153,43,29,01,353,,7*78
$GAGSV,3,3,11,30,20,311,38,34,17,222,,36,68,205,37,7*41
$GNRMC,160036.00,A,4843.26065,N,00920.55550,E,0.013,,080225,,,A,V*1E
$GNGGA,160036.00,4843.26065,N,00920.55550,E,1,12,0.50,248.6,M,47.6,M,,*4C
$GPGSV,3,1,12,05,09,031,27,07,06,335,34,08,06,281,,10,14,165,43,1*69
$GPGSV,3,2,12,15,02,079,,16,68,278,,18,62,062,44,23,39,129,46,1*60
$GPGSV,3,3,12,26,62,197,42,27,39,285,,29,17,090,44,31,11,212,39,1*63
$GLGSV,3,1,10,65,06,112,,71,11,011,43,72,19,059,43,77,02,168,13,1*74
$GLGSV,3,2,10,78,52,200,38,79,53,304,42,80,07,335,,81,42,256,42,1*72
$GLGSV,3,3,10,87,15,053,43,88,71,014,42,1*76
$GAGSV,3,1,11,02,70,276,34,10,27,050,39,11,55,056,41,12,05,047,16,7*7F
$GAGSV,3,2,11,16,22,146,48,19,01,033,,25,47,153,43,29,01,353,,7*78
$GAGSV,3,3,11,30,20,311,38,34,17,222,,36,68,205,37,7*41
$GNRMC,160037.00,A,4843.26064,N,00920.55551,E,0.009,,080225,,,A,V*14
$GNGGA,160037.00,4843.26064,N,00920.55551,E,1,12,0.50,248.6,M,47.6,M,,*4D
$GPGSV,3,1,12,05,09,031,28,07,06,335,34,08,06,281,,10,14,165,42,1*67
$GPGSV,3,2,12,15,02,079,,16,68,278,,18,62,062,45,23,39,129,45,1*62
$GPGSV,3,3,12,26,62,197,42,27,39,285,,29,17,090,44,31,11,212,39,1*63
$GLGSV,3,1,10,65,06,112,,71,11,011,43,72,19,059,43,77,02,168,15,1*72
$GLGSV,3,2,10,78,52,200,38,79,53,304,42,80,07,335,,81,42,256,42,1*72
$GLGSV,3,3,10,87,15,053,43,88,71,014,42,1*76
$GAGSV,3,1,11,02,70,276,34,10,27,050,39,11,55,056,41,12,05,047,09,7*71
$GAGSV,3,2,11,16,22,146,49,19,01,033,,25,47,153,43,29,01,353,,7*79
$GAGSV,3,3,11,30,20,311,38,34,17,222,,36,68,205,37,7*41
$GBGSV,3,1,11,02,02,101,37,05,17,123,39,08,36,043,44,12,06,253,,1*72
$GNRMC,160038.00,A,4843.26063,N,00920.55553,E,0.009,,080225,,,A,V*1E
$GNGGA,160038.00,4843.26063,N,00920.55553,E,1,12,0.50,248.5,M,47.6,M,,*44
$GPGSV,3,1,12,05,09,031,28,07,06,335,34,08,06281,,10,14,165,42,1*67
$GPGSV,3,2,12,15,02,079,,16,68,278,,18,62,062,45,23,39,129,45,1*62
$GPGSV,3,3,12,26,62,197,42,27,39,285,,29,17,090,42,31,11,212,40,1*6B
$GLGSV,3,1,10,65,06,112,,71,11,011,43,72,19,059,43,77,02,168,09,1*7F
$GLGSV,3,2,10,78,52,200,38,79,53,304,41,80,07,335,,81,42,256,42,1*71
$GLGSV,3,3,10,87,15,053,43,88,71,014,42,1*76
$GAGSV,3,1,11,02,70,276,34,10,27,050,39,11,55,056,41,12,05,047,12,7*7B
$GAGSV,3,2,11,16,22,146,49,19,01,033,,25,46,154,43,29,01,353,,7*7F
$GAGSV,3,3,11,30,20,311,38,34,17,222,,36,68,205,37,7*41
$GBGSV,3,1,11,02,02,101,37,05,17,123,39,08,36,043,44,12,06,253,,1*72
$GNRMC,160039.00,A,4843.26063,N,00920.55554,E,0.024,,080225,,,A,V*17
$GNGGA,160039.00,4843.26063,N,00920.55554,E,1,12,0.50,248.5,M,47.6,M,,*42
$GPGSV,3,1,12,05,09,031,29,07,06,335,34,08,06,281,,10,14,165,42,1*66
$GPGSV,3,2,12,15,02,079,,16,68,278,,18,62,062,45,23,39,129,45,1*62
$GPGSV,3,3,12,26,62,197,42,27,39,285,,29,17,090,44,31,11,212,39,1*63
$GLGSV,3,1,10,65,06,112,,71,11,011,43,72,19,059,43,77,02,168,10,1*77
$GLGSV,3,2,10,78,52,200,39,79,53,304,41,80,07,335,,81,42,256,41,1*73
$GLGSV,3,3,10,87,15,053,43,88,71,014,41,1*75
$GAGSV,3,1,11,02,70,276,34,10,27,050,39,11,55,056,41,12,05,047,12,7*7B
$GAGSV,3,2,11,16,22,146,49,19,01,033,,25,46,154,43,29,01,353,,7*7F
$GAGSV,3,3,11,30,20,311,38,34,17,222,,36,68,205,37,7*41
$GBGSV,3,1,11,02,02,101,37,05,17,123,39,08,36,043,44,12,06,253,,1*72
$GNRMC,160040.00,A,4843.26063,N,00920.55555,E,0.040,,080225,,,A,V*1A
$GNGGA,160040.00,4843.26063,N,00920.55555,E,1,12,0.49,248.5,M,47.6,M,,*45
$GPGSV,3,1,12,05,09,031,30,07,06,335,33,08,06,281,,10,14,165,43,1*68
$GPGSV,3,2,12,15,02,079,,16,68,278,,18,62,062,46,23,39,129,4,1*61
$GPGSV,3,3,12,26,62,197,42,27,39,285,,29,17,090,44,31,11,212,39,1*63
$GLGSV,3,1,10,65,06,112,,71,11,011,44,72,19,059,44,77,02,168,11,1*76
$GLGSV,3,2,10,78,52,200,38,79,53,304,41,80,07,335,,81,42,256,39,1*7D
$GLGSV,3,3,10,87,15,053,43,88,71,014,41,1*75
$GAGSV,3,1,11,02,70,276,34,10,27,050,39,11,55,056,41,12,05,047,,7*78
$GAGSV,3,2,11,16,22,146,49,19,01,033,,25,46,154,44,29,01,353,,7*78
$GAGSV,3,3,11,30,20,311,35,34,17,222,,36,68,205,37,7*4C
$GBGSV,3,1,11,02,02,101,37,05,17,123,39,08,36,043,44,12,06,253,,1*72
$GNRMC,160041.00,A,4843.26062,N,00920.55555,E,0.024,,080225,,,A,V*18
$GNGGA,160041.00,4843.26062,N,00920.55555,E,1,12,0.49,248.4,M,47.6,M,,*44
$GPGSV,3,1,12,05,09,031,29,07,06,335,34,08,06,281,,10,14,165,43,1*67
$GPGSV,3,2,12,15,02,079,,16,68,278,,18,62,062,45,23,39,129,45,1*62
$GPGSV,3,3,12,26,62,197,42,27,39,285,,2917,090,44,31,11,212,40,1*6D
$GLGSV,3,1,10,65,06,112,,71,11,011,45,72,19,059,44,77,02,168,12,1*74
$GLGSV,3,2,10,78,52,200,38,79,53,304,41,80,07,335,,81,42,256,41,1*72
$GLGSV,3,3,10,87,15,053,43,88,71,014,41,1*75
$GNRMC,160042.00,A,4843.26062,N,00920.55556,E,0.003,,080225,,,A,V*1D
$GNGGA,160042.00,4843.26062,N,00920.55556,E,1,12,0.49,248.4,M,47.6,M,,*44
$GPGSV,3,1,12,05,09,031,29,07,06,335,34,08,06,281,,10,14,165,42,1*66
$GPGSV,3,2,12,15,02,079,,16,68,278,,18,62,062,45,23,39,129,44,1*63
$GPGSV,3,3,12,26,62,197,42,27,39,285,,29,17,090,44,31,11,212,41,1*6C
$GLGSV,3,1,10,65,06,112,,71,11,011,45,72,19,059,44,77,02,168,13,1*75
$GLGSV,3,2,10,78,52,200,38,79,53,304,41,80,07,335,,81,42,256,40,1*73
$GLGSV,3,3,10,87,15,053,43,88,71,014,40,1*74
$GAGSV,3,1,11,02,70,276,34,10,27,050,39,11,55,056,41,12,05,047,,7*78
$GAGSV,3,2,11,16,22,146,49,19,01,033,,25,46,154,44,29,01,352,,7*79
$GAGSV,3,3,11,30,21,311,38,34,17,222,,36,68,205,37,7*40
$GBGSV,3,1,11,02,02,101,37,05,17,123,39,08,36,043,44,12,06,253,,1*72
$GBGSV,3,2,11,13,40,053,41,17,04,167,,19,10,125,,20,20,078,50,1*75
$GNRMC,160043.00,A,4843.26061,N,00920.55556,E,0.023,,080225,,,A,V*1D
$GNGGA,160043.00,4843.26061,N,00920.55556,E,1,12,0.49,248.4,M,47.6,M,,*46
$GPGSV,3,1,12,05,09,031,28,07,06,335,34,08,06,281,,10,14,165,43,1*66
$GPGSV,3,2,12,15,02,079,,16,68,278,,18,62,062,46,23,39,129,44,1*60
$GPGSV,3,3,12,26,62,197,42,27,39,285,,29,17,090,44,31,11,212,40,1*6D
$GLGSV,3,1,10,65,06,112,,71,11,011,44,72,19,059,44,77,02,168,14,1*73
$GLGSV,3,2,10,78,52,200,38,79,53,304,40,80,07,335,,81,42,256,40,1*72
$GLGSV,3,3,10,87,15,053,42,88,71,014,40,1*75
$GAGSV,3,1,11,02,70,276,34,10,27,050,38,11,55,056,41,12,05,047,,7*79
$GAGSV,3,2,11,16,22,146,49,19,01,033,,25,46,154,44,29,01,352,,7*79
$GAGSV,3,3,11,30,21,311,38,34,17,222,,36,68,205,37,7*40
$GNRMC,160044.00,A,4843.26060,N,00920.55557,E,0.008,,080225,,,A,V*13
$GNGGA,160044.00,4843.26060,N,00920.55557,E,1,12,0.49,248.3,M,47.6,M,,*46
$GPGSV,3,1,12,05,09,031,28,07,06,335,34,08,06,281,,10,14,165,43,1*66
$GPGSV,3,2,12,15,02,079,,16,68,278,,18,62,062,45,23,39,129,44,1*63
$GPGSV,3,3,12,26,62,197,42,27,39,285,,29,17,090,45,31,11,212,40,1*6C
$GLGSV,3,1,10,65,06,112,,71,11,011,44,72,19,059,45,77,02,168,11,1*77
$GLGSV,3,2,10,78,52,200,37,79,53,304,40,80,07,335,,81,42,256,40,1*7D
$GLGSV,3,3,10,87,15,053,42,88,71,014,40,1*75
$GAGSV,3,1,11,02,70,276,34,10,27,050,38,11,55,056,41,12,05,047,,7*79
$GAGSV,3,2,11,16,22,146,49,19,01,033,,25,46,154,44,29,01,352,,7*79
$GAGSV,3,3,11,30,21,311,38,34,17,222,,36,68,205,37,7*40
$GBGSV,3,1,11,02,02,101,37,05,17,123,39,08,36,043,44,12,06,253,,1*72
$GNRMC,160045.00,A,4843.26059,N,00920.55557,E,0.009,,080225,,,A,V*19
$GNGGA,160045.00,4843.26059,N,00920.55557,E,1,12,0.49,248.3,M,47.6,M,,*4D
$GPGSV,3,1,12,05,09,031,28,07,06,335,34,08,06,281,,10,14,165,43,1*66
$GPGSV,3,2,12,15,02,079,,16,68,278,,18,62,062,45,23,39,129,43,1*64
$GPGSV,3,3,12,26,62,197,42,27,39,285,,29,17,090,45,31,11,212,39,1*62
$GLGSV,3,1,10,65,06,112,,71,11,011,44,72,19,059,45,77,02,168,12,1*74
$GLGSV,3,2,10,78,52,200,36,79,53,304,40,80,07,335,,81,42,256,40,1*7C
$GLGSV,3,3,10,87,15,053,42,88,71,014,40,1*75
$GAGSV,3,1,11,02,70,276,34,10,27,050,38,11,55,056,41,12,05,047,,7*79
$GAGSV,3,2,11,16,22,146,49,19,01,033,,25,46,154,44,29,01,352,,7*79
$GAGSV,3,3,11,30,21,311,38,34,17,222,,36,68,205,36,7*41
$GNRMC,160046.00,A,4843.26059,N,00920.55557,E,0.011,,080225,,,A,V*13
$GNGGA,160046.00,4843.26059,N,00920.55557,E,1,12,0.49,248.3,M,47.6,M,,*4E
$GPGSV,3,1,12,05,09,031,29,07,06,335,34,08,06,281,,10,14,165,43,1*67
$GPGSV,3,2,12,15,02,079,,16,68,278,,18,62,062,45,23,39,129,43,1*64
$GPGSV,3,3,12,26,62,197,42,27,39,285,,29,17,090,46,31,11,212,39,1*61
$GLGSV,3,1,10,65,06,112,,71,11,011,44,72,19,059,45,77,02,168,11,1*77
$GLGSV,3,2,10,78,52,200,35,79,53,304,39,80,07,335,,81,42,256,40,1*71
$GLGSV,3,3,10,87,15,053,41,88,71,014,41,1*77
$GAGSV,3,1,11,02,70,276,34,10,27,050,38,11,55,056,41,12,05,047,,7*79
$GAGSV,3,2,11,16,22,146,49,19,01,033,,25,46,154,44,29,01,352,,7*79
$GAGSV,3,3,11,30,21,311,38,34,17,222,,36,69,205,37,7*41
$GBGSV,3,1,11,02,02,101,37,05,17,123,39,08,36,043,44,12,06,253,,1*72
$GNRMC,160047.00,A,4843.26058,N,00920.55557,E,0.012,,080225,,,A,V*10
$GNGGA,160047.00,4843.26058,N,00920.55557,E,1,12,0.49,248.4,M,47.6,M,,*49
$GPGSV,3,1,12,05,09,031,29,07,06,335,33,08,06,281,,10,14,165,43,1*60
$GPGSV,3,2,12,15,02,079,,16,68,278,,18,62,062,45,23,39,129,43,1*64
$GPGSV,3,3,12,26,62,197,42,27,39,285,,29,17,090,46,31,11,212,39,1*61
$GLGSV,3,1,10,65,06,112,,71,11,011,44,72,19,059,45,77,02,168,14,1*72
$GLGSV,3,2,10,78,52,200,35,79,53,304,38,80,07,335,,81,42,256,40,1*70
$GLGSV,3,3,10,87,15,053,41,88,71,014,40,1*76
$GAGSV,3,1,11,02,70,276,34,10,27,050,38,11,55,056,41,12,05,047,,7*79
$GAGSV,3,2,11,16,22,146,49,19,01,033,,25,46,154,44,29,01,352,,7*79
$GAGSV,3,3,11,30,21,311,38,34,17,222,,36,69,205,36,7*40
$GBGSV,3,1,11,02,02,101,37,05,17,123,39,08,36,043,44,12,06,253,,1*72
$GNRMC,160048.00,A,4843.26057,N,00920.55556,E,0.002,,080225,,,A,V*10
$GNGGA,160048.00,4843.26057,N,00920.55556,E,1,12,0.49,248.4,M,47.6,M,,*48
$GPGSV,3,1,12,05,09,031,29,07,06,335,33,08,06,281,,10,14,165,43,1*60
$GPGSV,3,2,12,15,02,079,,16,68,278,,18,62,062,45,23,39,129,43,1*64
$GPGSV,3,3,12,26,62,197,42,27,39,285,,29,17,090,46,31,11,212,39,1*61
$GLGSV,3,1,10,65,06,112,,71,11,011,43,72,19,059,45,77,02,168,14,1*75
$GLGSV,3,2,10,78,52,200,34,79,53,304,37,80,07,335,,81,42,256,40,1*7E
$GLGSV,3,3,10,87,15,053,41,88,71,014,40,1*76
$GAGSV,3,1,11,02,70,276,35,10,27,050,38,11,55,056,41,12,05,047,,7*78
$GAGSV,3,2,11,16,22,146,49,19,01,033,,25,46,154,43,29,01,352,,7*7E
$GAGSV,3,3,11,30,21,311,38,34,17,222,,36,69,205,36,7*40
$GBGSV,3,1,11,02,02,101,37,05,17,123,39,08,36,043,44,12,06,253,,1*72
$GNRMC,160049.00,A,4843.26056,N,00920.55555,E,0.004,,080225,,,A,V*15
$GNGGA,160049.00,4843.26056,N,00920.55555,E,1,12,0.49,248.4,M,47.6,M,,*4B
$GPGSV,3,1,12,05,09,031,29,07,06,335,33,08,06,281,,10,14,165,43,1*60
$GPGSV,3,2,12,15,02,079,,16,68,278,,18,62,062,45,23,39,129,43,1*64
$GPGSV,3,3,12,26,62,197,42,27,39,285,,29,17,090,46,31,11,212,39,1*61
$GLGSV,3,1,10,65,06,112,,71,11,011,44,72,19,059,45,77,02,168,11,1*77
$GLGSV,3,2,10,78,52,200,34,79,53,304,37,80,07,335,,81,42,256,40,1*7E
$GLGSV,3,3,10,87,15,053,41,88,71,014,40,1*76
$GAGSV,3,1,11,02,70,276,34,10,27,050,38,11,55,056,41,12,05,047,10,7*78
$GAGSV,3,2,11,16,22,146,50,19,01,033,,25,46,154,43,29,01,52,,7*76
$GAGSV,3,3,11,30,21,311,38,34,17,222,,36,69,205,36,7*40
$GBGSV,3,1,11,02,02,101,37,05,17,123,39,08,36,043,44,12,06,253,,1*72
$GNRMC,160050.00,A,4843.26055,N,00920.55554,E,0.012,,080225,,,A,V*18
$GNGGA,160050.00,4843.26055,N,00920.55554,E,1,12,0.49,248.4,M,47.6,M,,*41
$GPGSV,3,1,12,05,09,031,29,07,06,335,33,08,06,281,,10,14,165,43,1*60
$GPGSV,3,2,12,15,02,079,,16,68,278,,18,62,062,45,23,39,129,43,1*64
$GPGSV,3,3,12,26,62,197,42,27,39,285,,29,17,090,46,31,11,212,39,1*61
$GLGSV,3,1,10,65,06,112,,71,11,011,43,72,19,059,45,77,02,168,14,1*75
$GLGSV,3,2,10,78,52,200,34,79,53,304,37,80,07,335,,81,42,256,39,1*70
$GLGSV,3,3,10,87,15,053,40,88,71,014,40,1*77
$GAGSV,3,1,11,02,70,276,35,10,27,050,38,11,55,056,41,12,05,047,12,7*7B
$GAGSV,3,2,11,16,22,146,50,19,01,033,,25,46,154,43,29,01,352,,7*76
$GAGSV,3,3,11,30,21,311,38,34,17,222,,36,69,205,36,7*40
$GBGSV,3,1,11,02,02,101,37,05,17,123,39,08,36,043,44,12,06,253,,1*72
$GNRMC,160051.00,A,4843.26054,N,00920.55553,E,0.010,,080225,,,A,V*1D
$GNGGA,160051.00,4843.26054,N,00920.55553,E,1,12,0.49,248.4,M,47.6,M,,*46
$GPGSV,3,1,12,05,09,031,29,07,06,335,33,08,06,281,,10,14,165,43,1*60
$GPGSV,3,2,12,15,02,079,,16,68,278,,18,62,062,45,23,39,129,43,1*64
$GPGSV,3,3,12,26,62,197,42,27,39,285,,29,17,090,46,31,11,212,39,1*61
$GLGSV,3,1,10,65,06,112,,71,11,011,43,72,19,059,45,77,02,168,13,1*72
$GLGSV,3,2,10,78,52,200,34,79,53,304,38,80,07,335,,81,42,256,39,1*7F
$GNRMC,160052.00,A,4843.26053,N,00920.55552,E,0.009,,080225,,,A,V*10
$GNGGA,160052.00,4843.26053,N,00920.55552,E,1,12,0.49,248.4,M,47.6,M,,*43
$GPGSV,3,1,12,05,09,031,28,07,06,335,33,08,06,281,,10,14,165,42,1*60
$GPGSV,3,2,12,15,02,079,,16,68,278,,18,62,062,45,23,39,129,43,1*64
$GPGSV,3,3,12,26,62,197,43,27,39,285,,29,17,090,46,31,11,212,39,1*60
$GLGSV,3,1,10,65,06,112,,71,11,011,43,72,19,059,45,77,02,168,12,1*73
$GLGSV,3,2,10,78,52,200,35,79,53,304,38,80,07,335,,81,42,256,38,1*7F
$GLGSV,3,3,10,87,15,053,40,88,71,014,41,1*76
$GAGSV,3,1,11,02,70,276,34,10,27,050,38,11,55,056,41,12,05,047,17,7*7F
$GAGSV,3,2,11,16,22,146,50,19,01,033,,25,46,154,43,29,01,352,,7*76
$GAGSV,3,3,11,30,21,311,38,34,17,222,,36,69,205,36,7*40
$GBGSV,3,1,11,02,02,101,37,05,17,123,39,08,36,043,43,12,06,253,,1*75
$GNRMC,160053.00,A,4843.26052,N,00920.55550,E,0.013,,080225,,,A,V*19
$GNGGA,160053.00,4843.26052,N,00920.55550,E,1,12,0.49,248.4,M,47.6,M,,*41
$GPGSV,3,1,12,05,09,031,28,07,06,335,33,08,06,281,,10,14,165,42,1*60
$GPGSV,3,2,12,15,02,079,,16,68,278,,18,62,062,44,23,39,129,43,1*65
$GPGSV,3,3,12,26,62,197,43,27,39,285,,29,17,090,46,31,11,212,39,1*60
$GLGSV,3,1,10,65,06,112,,71,11,011,43,72,19,059,44,77,02,168,14,1*74
$GLGSV,3,2,10,78,52,200,34,79,53,304,39,80,07,335,,81,42,256,37,1*70
$GLGSV,3,3,10,87,15,053,40,88,71,014,41,1*76
$GAGSV,3,1,11,02,70,276,34,10,27,050,38,11,55,056,41,12,05,047,15,7*7D
$GAGSV,3,2,11,16,22,146,50,19,01,033,,25,46,154,43,29,01,352,,7*76
$GAGSV,3,3,11,30,21,311,39,34,17,222,,36,69,205,36,7*41
$GBGSV,3,1,11,02,02,101,37,05,17,123,39,08,36,043,43,12,06,253,,1*75
$GNRMC,160054.00,A,4843.26050,N,00920.55549,E,0.034,,080225,,,A,V*11
$GNGGA,160054.00,4843.26050,N,00920.55549,E,1,12,0.49,248.4,M,47.6,M,,*4C
$GPGSV,3,1,12,05,09,031,29,07,06,335,33,08,06,281,,10,14,165,42,1*61
$GPGSV,3,2,12,15,02,079,,16,68,278,,18,62,062,44,23,39,129,43,1*65
$GPGSV,3,3,12,26,62,197,43,27,39,285,,29,17,090,46,31,11,212,39,1*60
$GLGSV,3,1,10,65,06,112,,71,11,011,42,72,19,059,44,77,02,168,13,1*72
$GLGSV,3,2,10,78,52,200,34,79,53,304,39,80,07,335,,81,42,256,37,1*70
$GLGSV,3,3,10,87,15,053,40,88,71,014,42,1*75
$GAGSV,3,1,11,02,70,276,34,10,27,050,38,11,55,056,41,12,05,047,15,7*7D
$GAGSV,3,2,11,16,22,146,50,19,01,033,,25,46,154,43,29,01,352,,7*76
$GAGSV,3,3,11,30,21,311,39,34,17,222,,36,69,205,36,7*41
$GBGSV,3,1,11,02,02,101,37,05,17,123,39,08,36,043,43,12,06,253,,1*75
$GNRMC,160055.00,A,4843.26049,N,00920.55548,E,0.012,,080225,,,A,V*1D
$GNGGA,160055.00,4843.26049,N,00920.55548,E,1,12,0.49,248.5,M,47.6,M,,*45
$GPGSV,3,1,12,05,09,031,29,07,06,335,33,08,06,281,,10,14,165,42,1*61
$GPGSV,3,2,12,15,02,079,,16,68,278,,18,62,062,44,23,39,129,43,1*65
$GPGSV,3,3,12,26,62,197,43,27,39,285,,29,17,090,46,31,11,212,38,1*61
$GLGSV,3,1,10,65,06,112,,71,11,011,42,72,19,059,44,77,02,168,13,1*72
$GLGSV,3,2,10,78,52,200,35,79,53,304,39,80,07,335,,81,42,256,36,1*70
$GLGSV,3,3,10,87,15,053,40,88,71,014,42,1*75
$GAGSV,3,1,11,02,70,276,34,10,27,050,38,11,55,056,41,12,05,047,16,7*7E
$GAGSV,3,2,11,16,22,146,50,19,01,033,,25,46,154,43,29,01,352,,7*76
$GAGSV,3,3,11,3,21,311,39,34,17,222,,36,69,205,36,7*41
$GNRMC,160056.00,A,4843.26048,N,00920.55546,E,0.018,,080225,,,A,V*1B
$GNGGA,160056.00,4843.26048,N,00920.55546,E,1,12,0.49,248.5,M,47.6,M,,*49
$GPGSV,3,1,12,05,09,031,29,07,06,335,33,08,06,281,,10,14,165,42,1*61
$GPGSV,3,2,12,15,02,079,,16,68,278,,18,62,062,44,23,39,129,44,1*62
$GPGSV,3,3,12,26,62,197,43,27,39,285,,29,17,090,46,31,11,212,38,1*61
$GLGSV,3,1,10,65,06,112,,71,11,011,42,72,19,059,44,77,02,168,14,1*75
$GLGSV,3,2,10,78,52,200,35,79,53,304,39,80,07,335,,81,42,256,36,1*70
$GLGSV,3,3,10,87,15,053,39,88,71,014,42,1*7B
$GAGSV,3,1,11,02,70,276,34,10,27,050,38,11,55,056,41,12,05,047,16,7*7E
$GAGSV,3,2,11,16,22,146,50,19,01,033,,25,46,154,42,29,01,352,,7*77
$GAGSV,3,3,11,30,21,311,39,34,17,222,,36,69,205,36,7*41
$GBGSV,3,1,11,02,02,101,36,05,17,123,39,08,36,043,43,12,06,253,,1*74
$GNRMC,160057.00,A,4843.26047,N,00920.55545,E,0.010,,080225,,,A,V*1E
$GNGGA,160057.00,4843.26047,N,00920.55545,E,1,12,0.49,248.5,M,47.6,M,,*44
$GPGSV,3,1,12,05,09,031,28,07,06,335,33,08,06,281,,10,14,165,42,1*60
$GPGSV,3,2,12,15,02,079,,16,68,278,,18,62,062,44,23,39,129,44,1*62
$GPGSV,3,3,12,26,62,197,43,27,39,285,,29,17,090,45,31,11,212,37,1*6D
$GLGSV,3,1,10,65,06,112,,71,11,011,42,72,19,059,44,77,02,168,10,1*71
$GLGSV,3,2,10,78,52,200,36,79,53,304,39,80,07,335,,81,42,256,36,1*73
$GLGSV,3,3,10,87,15,053,39,88,71,014,42,1*7B
$GAGSV,3,1,11,02,70,276,33,10,27,050,38,11,55,056,41,12,05,047,14,7*7B
$GAGSV,3,2,11,16,22,146,50,19,01,033,,25,46,154,42,29,01,352,,7*77
$GAGSV,3,3,11,30,21,311,39,34,17,222,,36,69,205,36,7*41
$GBGSV,3,1,11,02,02,101,37,05,17,123,39,08,36,043,43,12,07,254,,1*73
$GNRMC,160058.00,A,4843.26046,N,00920.55543,E,0.007,,080225,,,A,V*10
$GNGGA,160058.00,4843.26046,N,00920.55543,E,1,12,0.49,248.5,M,47.6,M,,*4C
$GPGSV,3,1,12,05,09,031,28,07,06,335,33,08,06,281,,10,14,165,42,1*60
$GPGSV,3,2,12,15,02,079,,16,68,278,,18,62,062,44,23,39,129,45,1*63
$GPGSV,3,3,12,26,62,197,43,27,39,285,,29,17,090,45,31,11,212,37,1*6D
$GLGSV,3,1,10,65,06,112,,71,11,011,42,72,19,059,43,77,02,168,17,1*71
$GLGSV,3,2,10,78,52,200,36,79,53,304,40,80,07,335,,81,42,256,36,1*7D
$GLGSV,3,3,10,87,15,053,39,88,71,014,42,1*7B
$GAGSV,3,1,11,02,70,276,34,10,27,050,38,11,55,056,41,12,05,047,15,7*7D
$GAGSV,3,2,11,16,22,146,50,19,01,033,,25,46,154,42,29,01,352,,7*77
$GAGSV,3,3,11,30,21,311,39,34,17,222,,36,69,205,37,7*40
$GBGSV,3,1,11,02,02,101,37,05,17,123,39,08,36,043,43,12,07,254,,1*73
$GNRMC,160059.00,A,4843.26045,N,00920.55542,E,0.005,,080225,,,A,V*11
$GNGGA,160059.00,4843.26045,N,00920.55542,E,1,12,0.49,248.5,M,47.6,M,,*4F
$GPGSV,3,1,12,05,09,031,28,07,06,335,33,08,06,281,,10,14,165,42,1*60
$GPGSV,3,2,12,15,02,079,,16,68,278,,18,62,062,44,23,39,129,45,1*63
$GPGSV,3,3,12,26,62,197,43,27,39,285,,29,17,090,45,31,11,212,37,1*6D
$GLGSV,3,1,10,65,06,112,,71,11,011,42,72,19,059,42,77,02,168,10,1*77
$GLGSV,3,2,10,78,52,200,36,79,53,304,40,80,07,335,,81,42,256,36,1*7D
$GLGSV,3,3,10,87,15,053,38,88,71,014,42,1*7A
$GAGSV,3,1,11,02,70,276,34,10,27,050,38,11,55,056,41,12,05,047,16,7*7E
$GAGSV,3,2,11,16,22,146,50,19,01,033,,25,46,154,42,29,01,352,,7*77
$GAGSV,3,3,11,30,21,311,39,34,17,222,,36,69,205,37,7*40
$GBGSV,3,1,11,02,02,101,37,05,17,123,39,08,36,043,43,12,07,254,,1*73
$GNRMC,160100.00,A,4843.26044,N,00920.55540,E,0.003,,080225,,,A,V*19
$GNGGA,160100.00,4843.26044,N,00920.55540,E,1,12,0.49,248.5,M,47.6,M,,*41
$GPGSV,3,1,12,05,09,031,29,07,06,335,32,08,06,281,,10,14,165,42,1*60
$GPGSV,3,2,12,15,02,079,,16,68,278,,18,62,062,44,23,39,129,45,1*63
$GPGSV,3,3,12,26,62,197,42,27,39,285,,29,17,090,45,31,11,212,37,1*6C
$GLGSV,3,1,10,65,06,112,,71,11,011,42,72,19,059,42,77,02,168,13,1*74
$GLGSV,3,2,10,78,52,200,35,79,53,304,40,80,07,335,,81,42,256,36,1*7E
$GLGSV,3,3,10,87,15,053,38,88,71,014,42,1*7A
$GAGSV,3,1,11,02,70,276,34,10,27,050,38,11,55,056,41,12,05,047,13,7*7B
$GAGSV,3,2,11,16,22,146,50,19,01,033,,25,46,154,42,29,01,352,,7*77
$GAGSV,3,3,11,30,21,311,39,34,17,222,,36,69,205,37,7*40
$GBGSV,3,1,11,02,02,101,37,05,17,123,39,08,36,043,43,12,07,254,,1*73
$GNRMC,160101.00,A,4843.26043,N,00920.55538,E,0.006,,080225,,,A,V*15
$GNGGA,160101.00,4843.26043,N,00920.55538,E,1,12,0.49,248.5,M,47.6,M,,*48
$GPGSV,3,1,12,05,09,031,28,07,06,335,32,08,06,281,,10,14,165,41,1*62
$GPGSV,3,2,12,15,02,079,,16,68,278,,1,62,062,44,23,39,129,45,1*63
$GPGSV,3,3,12,26,62,197,42,27,39,285,,29,17,090,45,31,11,212,37,1*6C
$GLGSV,3,1,10,65,06,112,,71,11,011,42,72,19,059,42,77,02,168,12,1*75
$GLGSV,3,2,10,78,52,200,35,79,53,304,40,80,07,335,,81,42,256,37,1*7F
$GLGSV,3,3,10,87,15,053,38,88,71,014,42,1*7A
$GAGSV,3,1,11,02,70,276,34,10,27,050,38,11,55,056,41,12,05,047,18,7*70
$GAGSV,3,2,11,16,22,146,50,19,01,033,,25,46,154,42,29,01,352,,7*77
$GAGSV,3,3,11,30,21,311,39,34,17,222,,36,69,205,37,7*40
$GBGSV,3,1,11,02,02,101,37,05,17,123,39,08,36,043,43,12,07,254,,1*73
$GNRMC,160102.00,A,4843.26043,N,00920.55535,E,0.007,,080225,,,A,V*1A
$GNGGA,160102.00,4843.26043,N,00920.55535,E,1,12,0.49,248.5,M,47.6,M,,*46
$GPGSV,3,1,12,05,09,031,29,07,06,335,32,08,06,281,,10,14,165,40,1*62
$GPGSV,3,2,12,15,02,079,,16,68,278,,18,62,062,44,23,39,129,46,1*60
$GPGSV,3,3,12,26,62,197,42,27,39,285,,29,17,00,45,31,11,212,7,1*6C
$GLGSV,3,1,10,65,06,112,,71,11,011,42,72,19,059,41,77,02,168,13,1*77
$GLGSV,3,2,10,78,52,200,36,79,53,304,39,80,07,335,,81,42,256,37,1*72
$GLGSV,3,3,10,87,15,053,38,88,71,014,42,1*7A
$GAGSV,3,1,11,02,70,276,34,10,27,050,38,11,55,056,41,12,05,047,17,7*7F
$GAGSV,3,2,11,16,22,146,50,19,01,033,,25,46,154,42,29,01,352,,7*77
$GAGSV,3,3,11,30,21,311,39,34,17,222,,36,69,205,37,7*40
$GNGGA,160103.00,4843.26042,N,00920.55532,E,1,12,0.49,248.4,M,47.6,M,,*40
$GPGSV,3,1,12,05,09,031,28,07,06,335,31,08,06,281,,10,14,165,40,1*60
$GPGSV,3,2,12,15,02,079,,16,68,278,,18,62,062,44,23,39,129,46,1*60
$GPGSV,3,3,12,26,62,197,42,27,39,285,,29,17,090,45,31,11,212,37,1*6C
$GLGSV,3,1,10,65,06,112,,71,11,011,43,72,19,059,41,77,02,168,10,1*75
$GLGSV,3,2,10,78,52,200,36,79,53,304,39,80,07,335,,81,42,256,37,1*72
$GLGSV,3,3,10,87,15,053,38,88,71,014,42,1*7A
$GAGSV,3,3,11,30,21,311,39,34,17,222,,36,69,205,37,7*40
$GBGSV,3,1,11,02,02,101,37,05,17,123,39,08,36,043,43,12,07,254,,1*73
$GNRMC,160104.00,A,4843.26042,N,00920.55529,E,0.010,,080225,,,A,V*16
$GNGGA,160104.00,4843.26042,N,00920.55529,E,1,12,0.50,248.4,M,47.6,M,,*45
$GPGSV,3,1,12,05,09,031,29,07,06,335,30,08,06,281,,10,14,165,40,1*60
$GPGSV,3,2,12,15,02,079,,16,68,278,,18,62,062,44,23,39,129,46,1*60
$GPGSV,3,3,12,26,62,197,42,27,39,285,,29,17,090,45,31,11,212,37,1*6C
$GLGSV,3,1,10,65,06,112,,71,11,011,43,72,19,059,41,77,02,168,12,1*77
$GLGSV,3,2,10,78,52,200,36,79,53,304,39,80,07,335,,81,42,256,37,1*72
$GLGSV,3,3,10,87,15,053,39,88,71,014,42,1*7B
$GAGSV,3,1,11,02,70,276,34,10,27,050,39,11,55,056,41,12,05,047,15,7*7C
$GAGSV,3,2,11,16,22,146,50,19,01,033,,25,46,154,41,29,01,352,,7*74
$GAGSV,3,3,11,30,21,311,39,34,17,222,,36,69,205,37,7*40
$GBGSV,3,1,11,02,02,101,37,05,17,123,39,08,36,043,43,12,07,254,,1*73
$GNRMC,160105.00,A,4843.26041,N,00920.55526,E,0.008,,080225,,,A,V*12
$GNGGA,160105.00,4843.26041,N,00920.55526,E,1,12,0.49,248.3,M,47.6,M,,*47
$GPGSV,3,1,12,05,09,031,29,07,06,335,30,08,06,281,,10,14,165,40,1*60
$GPGSV,3,2,12,15,02,079,,16,68,278,,18,62,062,44,23,39,129,46,1*60
$GPGSV,3,3,12,26,62,197,41,27,39,285,,29,17,090,45,31,11,212,37,1*6F
$GLGSV,3,1,10,65,06,112,,71,11,011,43,72,19,059,41,77,02,168,11,1*74
$GLGSV,3,2,10,78,52,200,35,79,53,304,38,80,07,335,,81,42,256,37,1*70
$GLGSV,3,3,10,87,15,053,39,88,71,014,42,1*7B
$GAGSV,3,1,11,02,70,276,34,10,27,050,39,11,55,056,41,12,05,047,16,7*7F
$GAGSV,3,2,11,16,22,146,50,19,01,033,,25,46,154,41,29,01,352,,7*74
$GAGSV,3,3,11,30,21,311,39,34,17,222,,36,69,205,38,7*4F
$GNRMC,160106.00,A,4843.26041,N,00920.55523,E,0.017,,080225,,,A,V*1A
$GNGGA,160106.00,4843.26041,N,00920.55523,E,1,12,0.49,248.3,M,47.6,M,,*41
$GPGSV,3,1,12,05,09,031,29,07,06,335,30,08,06,281,,10,14,165,41,1*61
$GPGSV,3,2,12,15,02,079,,16,68,278,,18,62,062,44,23,39,129,46,1*60
$GPGSV,3,3,12,26,62,197,41,27,39,285,,29,17,090,45,31,11,212,37,1*6F
$GLGSV,3,1,10,65,06,112,,71,11,011,44,72,19,059,40,77,02,168,13,1*70
$GLGSV,3,2,10,78,52,200,35,79,53,304,37,80,07,335,,81,42,256,37,1*7F
$GLGSV,3,3,10,87,15,053,39,88,71,014,42,1*7B
$GAGSV,3,1,11,02,70,276,34,10,27,050,39,11,55,056,41,12,05,047,17,7*7E
$GAGSV,3,2,11,16,22,146,50,19,01,033,,25,46,154,41,29,01,352,,7*74
$GAGSV,3,3,11,30,21,311,40,34,17,222,,36,69,205,38,7*41
$GBGSV,3,1,11,02,02,101,36,05,17,123,39,08,36,043,43,12,07,254,,1*72
$GNRMC,160107.00,A,4843.26041,N,00920.55520,E,0.006,,080225,,,A,V*18
$GNGGA,160107.00,4843.26041,N,00920.55520,E,1,12,0.49,248.3,M,47.6,M,,*43
$GPGSV,3,1,12,05,09,031,30,07,06,335,29,08,06,281,,10,14,165,41,1*61
$GPGSV,3,2,12,15,02,079,,16,68,278,,18,62,062,44,23,39,129,46,1*60
$GPGSV,3,3,12,26,62,197,40,27,39,285,,29,17,090,46,31,11,212,37,1*6D
$GLGSV,3,1,10,65,06,112,,71,11,011,45,72,19,059,40,77,02,168,12,1*70
$GLGSV,3,2,10,78,52,200,36,79,53,304,37,80,07,335,,81,42,256,37,1*7C
$GLGSV,3,3,10,87,15,053,39,88,71,014,42,1*7B
$GAGSV,3,1,11,02,70,276,34,10,27,050,39,11,55,056,41,12,05,047,17,7*7E
$GAGSV,3,2,11,16,22,146,50,19,01,033,,25,46,154,41,29,01,352,,7*74
$GAGSV,3,3,11,30,21,311,39,34,17,222,,36,69,205,38,7*4F
$GNRMC,160108.00,A,4843.26041,N,00920.55517,E,0.008,,080225,,,A,V*1D
$GNGGA,160108.00,4843.26041,N,00920.55517,E,1,12,0.49,248.2,M,47.6,M,,*49
$GPGSV,3,1,12,05,09,031,30,07,06,335,29,08,06,281,,10,14,165,42,1*62
$GPGSV,3,2,12,15,02,079,,16,68,278,,18,62,062,44,23,39,129,46,1*60
$GPGSV,3,3,12,26,62,196,40,27,39,285,,29,17,090,45,31,11,212,36,1*6E
$GLGSV,3,1,10,65,06,112,,71,11,011,45,72,19,059,40,77,02,168,10,1*72
$GLGSV,3,2,10,78,52,200,36,79,53,304,36,80,07,335,,81,42,256,37,1*7D
$GLGSV,3,3,10,87,15,053,39,88,71,014,42,1*7B
$GAGSV,3,1,11,02,70,276,34,10,27,050,39,11,55,056,41,12,05,047,16,7*7F
$GAGSV,3,2,11,16,22,146,50,19,01,033,,25,46,154,41,29,01,352,,7*74
$GAGSV,3,3,11,30,21,311,40,34,17,222,,36,69,205,38,7*41
$GBGSV,3,1,11,02,02,101,37,05,17,123,39,08,36,043,43,12,07,254,,1*73
$GBGSV,3,2,11,13,40,053,41,17,04,167,,19,11,125,,20,20,078,50,1*74
$GNRMC,160109.00,A,4843.26041,N,00920.55513,E,0.010,,080225,,,A,V*11
$GNGGA,160109.00,4843.26041,N,00920.55513,E,1,12,0.49,248.2,M,47.6,M,,*4C
$GPGSV,3,1,12,05,09,031,32,07,06,335,29,08,06,281,,10,14,165,42,1*60
$GPGSV,3,2,12,15,02,079,,16,68,278,,18,62,062,44,23,39,129,45,1*63
$GPGSV,3,3,12,26,62,196,40,27,39,285,,29,17,090,46,31,11,212,36,1*6D
$GLGSV,3,1,10,65,06,112,,71,11,011,45,72,19,059,40,77,02,168,09,1*7A
$GLGSV,3,2,10,78,52,200,36,79,53,304,36,80,07,335,,81,42,256,37,1*7D
$GLGSV,3,3,10,87,15,053,40,88,71,014,42,1*75
$GAGSV,3,1,11,02,70,276,34,10,27,050,39,11,55,056,41,12,05,047,17,7*7E
$GAGSV,3,2,11,16,22,146,50,19,01,033,,25,46,154,40,29,01,352,,7*75
$GAGSV,3,3,11,30,21,311,40,34,17,222,,36,69,205,38,7*41
$GBGSV,3,1,11,02,02,101,36,05,17,123,39,08,36,043,43,12,07,254,,1*72
$GNRMC,160110.00,A,4843.26041,N,00920.55510,E,0.011,,080225,,,A,V*1B
$GNGGA,160110.00,4843.26041,N,00920.55510,E,1,12,0.49,248.1,M,47.6,M,,*44
$GPGSV,3,1,12,05,09,031,33,07,06,335,28,08,06,281,,10,14,165,42,1*60
$GPGSV,3,2,12,15,02,079,,16,68,278,,18,62,062,43,23,39,129,45,1*64
$GPGSV,3,3,12,26,62,196,40,27,39,285,,29,17,090,46,31,11,212,36,1*6D
$GLGSV,3,1,10,65,06,112,,71,11,011,45,72,19,059,40,77,02,168,10,1*72
$GLGSV,3,2,10,78,52,200,36,79,53,304,37,80,07,335,,81,42,256,36,1*7D
$GLGSV,3,3,10,87,15,053,41,88,71,014,42,1*74
$GAGSV,3,1,11,02,70,276,33,10,27,050,39,11,55,056,41,12,05,047,16,7*78
$GAGSV,3,2,11,16,22,146,50,19,01,033,,25,46,154,39,29,01,352,,7*7B
$GAGSV,3,3,11,30,21,311,39,34,17,222,,36,69,205,38,7*4F
$GBGSV,3,1,11,02,02,101,36,05,17,123,39,08,36,043,43,12,07,254,,1*72
$GNRMC,160111.00,A,4843.26041,N,00920.55507,E,0.028,,080225,,,A,V*16
$GNGGA,160111.00,4843.26041,N,00920.55507,E,1,12,0.49,248.1,M,47.6,M,,*43
$GPGSV,3,1,12,05,09,031,32,07,06,335,33,08,06,281,,10,14,165,41,1*68
$GPGSV,3,2,12,15,02,079,,16,68,278,,18,62,062,44,23,39,129,45,1*63
$GPGSV,3,3,12,26,62,196,40,27,39,285,,29,17,090,46,31,11,212,36,1*6D
$GLGSV,3,1,10,65,06,112,,71,11,011,45,72,19,059,39,77,02,168,11,1*7D
$GLGSV,3,2,10,78,52,200,35,79,53,304,36,80,07,335,,81,42,256,38,1*71
$GLGSV,3,3,10,87,15,053,41,88,71,014,42,1*74
$GAGSV,3,1,11,02,71,275,34,10,27,050,39,11,54,056,41,12,05,047,13,7*79
$GAGSV,3,2,11,16,22,146,50,19,01,033,,25,46,154,41,29,01,352,,7*74
$GAGSV,3,3,11,30,21,311,40,34,17,222,,36,69,205,39,7*40
$GBGSV,3,1,11,02,02,101,36,05,17,123,39,08,36,043,43,12,07,254,,1*72
$GBGSV,3,2,11,13,40,053,41,17,04,167,,19,11,125,,20,20,078,51,1*75
$GNRMC,160112.00,A,4843.26041,N,00920.55505,E,0.032,,080225,,,A,V*1C
$GNGGA,160112.00,4843.26041,N,00920.55505,E,1,12,0.49,248.1,M,47.6,M,,*42
$GPGSV,3,1,12,05,09,031,32,07,06,335,27,08,06,281,,10,14,165,40,1*6C
$GPGSV,3,2,12,15,02,079,,16,68,278,,18,62,062,44,23,39,129,45,1*63
$GPGSV,3,3,12,26,62,196,40,27,39,285,,29,17,090,46,31,11,212,36,1*6D
$GLGSV,3,1,10,65,06,112,,71,11,011,45,72,19,059,40,77,02,168,14,1*76
$GLGSV,3,2,10,78,52,200,35,79,53,304,36,80,07,335,,81,42,256,37,1*7E
$GLGSV,3,3,10,87,15,053,42,88,71,014,42,1*77
$GAGSV,3,1,11,02,71,275,34,10,27,050,39,11,54,056,41,12,05,047,15,7*7F
$GAGSV,3,2,11,16,22,146,50,19,01,033,,25,46,154,41,29,01,352,,7*74
$GAGSV,3,3,11,30,21,311,40,34,17,222,,36,69,205,39,7*40
$GNRMC,160113.00,A,4843.26040,N,00920.55502,E,0.014,,080225,,,A,V*1F
$GNGGA,160113.00,4843.26040,N,00920.55502,E,1,12,0.49,248.1,M,47.6,M,,*45
$GPGSV,3,1,12,05,09,031,32,07,06,335,26,08,06,281,,10,14,165,40,1*6D
$GPGSV,3,2,12,15,02,079,,16,68,278,,18,62,062,44,23,39,129,44,1*62
$GPGSV,3,3,12,26,62,196,40,27,39,285,,29,17,090,46,31,11,212,37,1*6C
$GLGSV,3,1,10,65,06,112,,71,11,011,44,72,19,059,40,77,02,168,15,1*76
$GLGSV,3,2,10,78,52,200,36,79,53,304,35,80,07,335,,81,42,256,37,1*7E
$GLGSV,3,3,10,87,15,053,42,88,71,014,42,1*77
$GAGSV,3,1,11,02,71,275,34,10,27,050,39,11,54,056,41,12,05,047,17,7*7D
$GAGSV,3,2,11,16,22,146,50,19,01,033,,25,46,154,41,29,01,352,,7*74
$GAGSV,3,3,11,30,21,311,40,34,17,222,,36,69,205,39,7*40
$GNRMC,160114.00,A,4843.26039,N,00920.55500,E,0.033,,080225,,,A,V*11
$GNGGA,160114.00,4843.26039,N,00920.55500,E,1,12,0.49,248.1,M,47.6,M,,*4E
$GPGSV,3,1,12,05,09,031,32,07,06,335,25,08,06,281,,10,14,165,39,1*60
$GPGSV,3,2,12,15,02,079,,16,68,278,,18,62,062,44,23,39,129,44,1*62
$GPGSV,3,3,12,26,62,196,40,27,39,285,,29,17,090,46,31,11,212,36,1*6D
$GLGSV,3,1,10,65,06,112,,71,11,011,44,72,19,059,41,77,02,168,10,1*72
$GLGSV,3,2,10,78,52,200,36,79,53,304,35,80,07,335,,81,42,256,37,1*7E
$GLGSV,3,3,10,87,15,053,42,88,71,014,42,1*77
$GAGSV,3,1,11,02,71,275,34,10,27,050,39,11,54,056,41,12,05,047,18,7*72
$GAGSV,3,2,11,16,22,146,50,19,01,033,,25,46,154,41,29,01,352,,7*74
$GAGSV,3,3,11,30,21,311,40,34,17,222,,36,69,205,39,7*40
$GBGSV,3,1,11,02,02,101,36,05,17,123,39,08,36,043,43,12,07,254,,1*72
$GBGSV,3,2,11,13,40,053,41,17,04,167,,19,11,125,,20,20,078,50,1*74
$GNRMC,160115.00,A,4843.26039,N,00920.55497,E,0.018,,080225,,,A,V*16
$GNGGA,160115.00,4843.26039,N,00920.55497,E,1,12,0.49,248.1,M,47.6,M,,*40
$GPGSV,3,1,12,05,09,031,32,07,06,335,25,08,06,281,,10,14,165,39,1*60
$GPGSV,3,2,12,15,02,079,,16,68,278,,18,62,062,44,23,39,129,44,1*62
$GPGSV,3,3,12,26,62,196,40,27,39,285,,29,17,090,46,31,11,212,37,1*6C
$GLGSV,3,1,10,65,07,112,,71,11,011,44,72,19,059,41,77,02,168,12,1*71
$GLGSV,3,2,10,78,52,200,37,79,53,304,36,80,07,335,,81,42,256,38,1*73
$GLGSV,3,3,10,87,15,053,42,88,71,014,43,1*76
$GAGSV,3,1,11,02,71,275,34,10,27,050,39,11,54,056,41,12,05,047,14,7*7E
$GAGSV,3,2,11,16,22,146,50,19,01,033,,25,46,154,41,29,01,352,,7*74
$GAGSV,3,3,11,30,21,311,40,34,17,222,,36,69,205,39,7*40
$GNRMC,160116.00,A,4843.26038,N,00920.55494,E,0.026,,080225,,,A,V*1A
$GNGGA,160116.00,4843.26038,N,00920.55494,E,1,12,0.49,248.0,M,47.6,M,,*40
$GPGSV,3,1,12,05,09,031,32,07,06,335,24,08,06,281,,10,14,165,40,1*6F
$GPGSV,3,2,12,15,03,078,,16,68,278,,18,62,062,44,23,39,129,44,1*62
$GPGSV,3,3,12,26,62,196,41,27,39,285,,29,17,090,46,31,11,212,37,1*6D
$GLGSV,3,1,10,65,07,112,,71,11,011,44,72,19,059,42,77,02,168,12,1*72
$GLGSV,3,2,10,78,52,200,37,79,53,304,37,80,07,335,,81,42,256,38,1*72
$GLGSV,3,3,10,87,15,053,42,88,71,014,43,1*76
$GAGSV,3,1,11,02,71,275,34,10,27,050,39,11,54,056,41,12,05,047,13,7*79
$GAGSV,3,2,11,16,22,146,50,19,01,033,,25,46,154,41,29,01,352,,7*74
$GAGSV,3,3,11,30,21,311,40,34,18,222,,36,69,205,40,7*41
$GBGSV,3,1,11,02,02,101,36,05,17,123,39,08,36,043,43,12,07,254,,1*72
$GBGSV,3,2,11,13,40,053,41,17,04,167,,19,11,125,,20,20,078,51,1*75
$GNRMC,160117.00,A,4843.26038N,00920.55491,E,0.011,,080225,,,A,V*1A
$GNGGA,160117.00,4843.26038,N,00920.55491,E,1,12,0.52,248.1,M,47.6,M,,*4F
$GPGSV,3,1,12,05,09,031,32,07,06,335,24,08,06,281,,10,14,165,40,1*6F
$GPGSV,3,2,12,15,03,078,,16,68,278,,18,62,062,44,23,39,129,44,1*62
$GPGSV,3,3,12,26,62,196,41,27,39,285,,29,17,090,46,31,11,212,37,1*6D
$GLGSV,3,1,10,65,07,112,,71,11,011,44,72,19,059,42,77,02,168,15,1*75
$GLGSV,3,2,10,78,52,200,37,79,53,304,38,80,07,335,,81,42,256,38,1*7D
$GLGSV,3,3,10,87,15,053,42,88,71,014,43,1*76
$GAGSV,3,1,11,02,71,275,34,10,27,050,39,11,54,056,40,12,05,047,,7*7A
$GAGSV,3,2,11,16,22,146,50,19,01,033,,25,46,154,42,29,01,352,,7*77
$GAGSV,3,3,11,30,21,311,40,34,18,222,,36,69,205,40,7*41
$GNRMC,160118.00,A,4843.26038,N,00920.55489,E,0.016,,080225,,,A,V*1B
$GNGGA,160118.00,4843.26038,N,00920.55489,E,1,12,0.52,248.0,M,47.6,M,,*48
$GPGSV,3,1,12,05,09,031,32,07,06,335,25,08,06,281,,10,14,165,40,1*6E
$GPGSV,3,2,12,15,03,078,,16,68,278,,18,62,062,44,23,39,129,44,1*62
$GPGSV,3,3,12,26,62,196,41,27,39,285,,29,17,090,46,31,11,212,37,1*6D
$GLGSV,3,1,10,65,07,112,,71,11,011,45,72,19,059,43,77,02,168,11,1*71
$GLGSV,3,2,10,78,52,200,37,79,53,304,38,80,07,335,,81,42,256,38,1*7D
$GLGSV,3,3,10,87,15,053,43,88,71,014,43,1*77
$GAGSV,3,1,11,02,71,275,34,10,27,050,39,11,54,056,41,12,05,047,,7*7B
$GAGSV,3,2,11,16,22,146,50,19,01,033,,25,46,154,42,29,01,352,,7*77
$GAGSV,3,3,11,30,21,311,40,34,18,222,40,36,69,205,40,7*45
$GBGSV,3,1,11,02,02,101,36,05,17,123,39,08,36,043,43,12,07,254,,1*72
$GNRMC,160119.00,A,4843.26037,N,00920.55486,E,0.027,,080225,,,A,V*18
