$GNRMC,14731.00,A,4843.26099,N,00920.55557,E,0.009,,080225,,,A,V*13
$GNGGA,104731.00,4843.26099,N,00920.55557,E,1,12,0.46,250.9,M,47.6,M,,*4B
$GPGSV,3,1,10,03,01,358,,06,25,065,47,11,24,102,44,12,75,051,,1*6A
$GPGSV,3,2,10,19,15,043,36,24,40,143,44,25,59,275,36,28,14,307,32,1*6A
$GPGSV,3,3,10,29,22,203,44,32,37,287,36,1*62
$GLGSV,3,1,09,65,06,217,15,66,31,261,37,67,25,322,43,75,44,078,39,1*70
$GLGSV,3,2,09,76,60,319,41,77,17,290,,84,19,024,33,85,48,080,48,1*73
$GLGSV,3,3,09,86,26,150,44,1*4F
$GAGSV,3,1,12,03,29,310,40,05,46,245,,06,02,175,,09,19,189,39,7*74
$GAGSV,3,2,12,10,02,150,,12,13,131,42,16,50,267,35,24,78,290,38,7*7C
$GAGSV,3,3,12,25,26,261,39,26,12,028,,31,44,070,44,33,25,077,44,7*73
$GBGSV,3,1,09,05,15,124,41,07,05,053,30,10,18,056,43,21,18,306,38,1*71
$GBGSV,3,2,09,22,17,254,40,27,43,071,45,28,12,036,,29,06,189,,1*7B
$GBGSV,3,3,09,30,45,147,47,1*4C
$GNRMC,14825.00,A,4843.26120,N,00920.55546,E,0.016,,080225,,,A,V*14
$GNGGA,104825.00,4843.26120,N,00920.55546,E,1,12,0.46,250.1,M,47.6,M,,*4A
$GPGSV,3,1,10,03,01,358,,06,25,065,46,11,24,102,48,12,75,051,,1*67
$GPGSV,3,2,10,19,14,043,35,24,40,143,45,25,60,276,32,28,15,308,33,1*6B
$GPGSV,3,3,10,29,23,203,34,32,37,286,32,1*61
$GLGSV,3,1,09,65,06,217,10,66,31,261,37,67,25,322,45,75,44,078,45,1*78
$GLGSV,3,2,09,76,60,319,43,77,17,290,,84,19,024,35,85,48,080,48,1*77
$GLGSV,3,3,09,86,26,150,47,1*4C
$GAGSV,3,1,12,03,29,309,36,05,46,244,,06,01,174,,09,18,189,43,7*72
$GAGSV,3,2,12,10,03,150,,12,14,131,43,16,51,267,38,24,78,292,37,7*7A
$GAGSV,3,3,12,25,26,262,37,26,12,028,,31,44,071,39,33,26,076,43,7*70
$GBGSV,3,1,09,05,15,124,36,07,05,053,33,10,18,056,43,21,18,306,34,1*7E
$GBGSV,3,2,09,22,17,254,40,27,43,071,45,28,12,036,,29,06,189,,1*7B
$GBGSV,3,3,09,30,45,147,46,1*4D
$GNRMC,14630.00,A,4843.26108,N,00920.55620,E,0.010,,080225,,,A,V*10
$GNGGA,114630.00,4843.26108,N,00920.55620,E,1,12,0.45,248.7,M,47.6,M,,*44
$GPGSV,3,1,09,06,19,040,41,11,33,074,46,12,50,080,43,24,14,151,43,1*69
$GPGSV,3,2,09,25,82,342,36,28,38,306,42,29,50,210,39,31,15,312,35,1*64
$GPGSV,3,3,09,32,29,256,,1*56
$GLGSV,3,1,09,66,07,240,35,67,23,290,40,68,15,340,36,75,22,105,45,1*74
$GLGSV,3,2,09,76,73,040,44,77,41,310,,85,37,040,44,86,56,129,45,1*7D
$GLGSV,3,3,09,87,22,175,44,1*4D
$GAGSV,3,1,12,03,33,286,32,05,28,226,34,08,09,333,,10,23,142,44,7*77
$GAGSV,3,2,12,11,07,164,39,12,33,118,44,16,68,292,40,24,78,049,,7*74
$GAGSV,3,3,12,25,43,278,,26,00,015,,31,26,085,45,33,28,053,44,7*7B
$GBGSV,3,1,11,02,00,103,,05,15,124,41,08,03,083,31,10,12,062,35,1*75
$GBGSV,3,2,11,13,02,090,,14,01,354,,17,11,111,,21,10,285,43,1*75
$GNRMC,14010.00,A,4843.25994,N,00920.55577,E,0.014,,080225,,,A,V*1C
$GNGGA,124010.00,4843.25994,N,00920.55577,E,1,12,0.51,248.6,M,47.6,M,,*48
$GPGSV,3,1,11,06,03,027,,11,27,049,41,12,29,097,47,18,11,179,44,1*68
$GPGSV,3,2,11,20,11,077,46,25,69,092,46,26,14,290,,28,56,283,41,1*6B
$GPGSV,3,3,11,29,76,218,34,31,36,306,43,32,12,237,,1*53
$GLGSV,3,1,11,67,05,267,42,68,16,313,36,69,08,000,,75,00,123,12,1*70
$GLGSV,3,2,11,76,56,108,52,77,68,332,,78,11,309,42,85,13,029,35,1*78
$GLGSV,3,3,11,86,62,065,47,87,53,175,37,88,00,200,,1*4E
$GAGSV,3,1,12,02,09,283,,03,25,266,,05,10,217,,08,17,319,,7*73
$GAGSV,3,2,12,10,43,131,43,11,27,159,45,12,46,096,39,16,82,352,34,7*70
$GAGSV,3,3,12,24,62,086,42,25,60,294,32,31,11,098,42,33,20,037,42,7*70
$GBGSV,3,1,11,02,00,102,,05,16,124,44,08,16,079,43,10,06,069,,1*7E
$GBGSV,3,2,11,13,15,087,45,14,04,337,,17,12,124,,26,12,306,35,1*7F
$GBGSV,3,3,11,27,11,044,30,29,54,190,43,30,57,069,47,1*48
$GNRMC,140000.00,A,4843.26056,N,00920.55677,E,0.016,,080225,,,A,V*1A
$GNGGA,140000.00,4843.26056,N,00920.55677,E,1,12,0.52,248.0,M,47.6,M,,*49
$GPGSV,4,1,13,04,08,319,,05,21,079,48,09,02,346,,11,00,034,,1*6D
$GPGSV,4,2,13,12,00,117,12,16,18,298,,18,48,173,49,20,16,043,32,1*64
$GPGSV,4,3,13,25,34,123,47,26,47,298,35,28,45,222,41,29,65,058,40,1*6D
$GPGSV,4,4,13,31,51,259,,1*5E
$GLGSV,2,1,08,69,07,323,34,70,08,023,30,76,19,141,48,77,66,145,39,1*78
$GLGSV,2,2,08,78,48,318,40,86,26,038,45,87,76,047,41,88,39,215,44,1*79
$GAGSV,3,1,11,02,33,298,33,03,03,245,,07,05,340,,08,12,292,,7*74
$GAGSV,3,2,11,10,59,085,46,11,58,145,43,12,41,055,38,16,65,112,47,7*72
$GAGSV,3,3,11,24,38,115,41,25,87,333,34,36,20,190,38,7*46
$GBGSV,3,1,09,02,01,102,,05,16,123,45,08,31,068,43,13,31,078,43,1*75
$GBGSV,3,2,09,17,11,142,,26,41,303,37,29,83,110,44,30,28,056,44,1*70
$GNRMC,140001.00,A,4843.26056,N,00920.55678,E,0.026,,080225,,,A,V*17
$GNGGA,140001.00,4843.26056,N,00920.55678,E,1,12,0.52,247.9,M,47.6,M,,*41
$GPGSV,4,1,13,04,08,319,,05,21,079,47,09,02,346,,11,00,034,,1*62
$GPGSV,4,2,13,12,00,117,13,16,18,298,,18,48,173,48,20,16,043,32,1*64
$GPGSV,4,3,13,25,34,123,48,26,47,298,35,28,45,222,41,29,65,058,40,1*62
$GPGSV,4,4,13,31,51,259,,1*5E
$GLGSV,2,1,08,69,07,323,34,70,08,023,30,76,19,141,47,77,66,145,40,1*79
$GLGSV,2,2,08,78,48,318,40,86,26,038,46,87,76,047,42,88,39,215,45,1*78
$GAGSV,3,1,11,02,33,298,33,03,03,245,,07,05,340,,08,12,292,,7*74
$GAGSV,3,2,11,10,59,085,45,11,58,145,43,12,41,055,38,16,65,113,46,7*71
$GAGSV,3,3,11,24,38,115,41,25,87,333,34,36,20,190,38,7*46
$GBGSV,3,1,09,02,01,102,,05,16,123,45,08,31,068,43,13,31,078,43,1*75
$GNRMC,140002.00,A,4843.26057,N,00920.55677,E,0.013,,080225,,,A,V*1C
$GNGGA,140002.00,4843.26057,N,00920.55677,E,1,12,0.52,247.8,M,47.6,M,,*4D
$GPGSV,4,1,13,04,08,319,,05,21,079,47,09,02,346,,11,00,034,,1*62
$GPGSV,4,2,13,12,00,117,13,16,18,298,,18,48,173,48,20,16,043,32,1*64
$GPGSV,4,3,13,25,34,123,48,26,47,298,35,28,45,222,42,29,65,058,40,1*61
$GPGSV,4,4,13,31,51,259,,1*5E
$GLGSV,2,1,08,69,07,323,27,70,08,023,30,76,19,141,49,77,66,145,40,1*75
$GLGSV,2,2,08,78,48,318,40,86,26,038,46,87,76,047,40,88,39,215,44,1*7B
$GAGSV,3,1,11,02,33,298,33,03,03,245,,07,05,340,,08,12,292,,7*74
$GAGSV,3,2,11,10,59,085,46,11,58,145,43,12,41,055,38,16,65,113,47,7*73
$GAGSV,3,3,11,24,38,115,40,25,87,333,34,36,20,190,38,7*47
$GBGSV,3,1,09,02,01,102,,05,16,123,45,08,31,068,43,13,31,078,43,1*75
$GBGSV,3,2,09,17,11,142,,26,41,303,38,29,83,110,44,30,28,056,44,1*7F
$GNRMC,140003.00,A,4843.26058,N,00920.55677,E,0.033,,080225,,,A,V*10
$GNGGA,140003.00,4843.26058,N,00920.55677,E,1,12,0.52,247.8,M,47.6,M,,*43
$GPGSV,4,1,13,04,08,319,,05,21,079,47,09,02,346,,11,00,034,,1*62
$GPGSV,4,2,13,12,00,117,11,16,18,298,,18,48,173,48,20,16,043,31,1*65
$GPGSV,4,3,13,25,34,123,47,26,47,298,35,28,45,222,42,29,65,058,40,1*6E
$GPGSV,4,4,13,31,51,259,,1*5E
$GLGSV,2,1,08,69,07,323,33,70,08,023,31,76,19,141,47,77,66,145,39,1*71
$GLGSV,2,2,08,78,48,318,40,86,6,038,46,87,76,047,40,88,39,215,44,1*7B
$GAGSV,3,1,11,02,33,298,33,03,03,245,,07,05,340,,08,12,292,,7*74
$GAGSV,3,2,11,10,59,085,45,11,58,145,43,12,41,055,38,16,65,113,48,7*7F
$GAGSV,3,3,11,24,38,115,41,25,87,333,34,36,20,190,38,7*46
$GBGSV,3,1,09,02,01,102,,05,16,123,45,08,31,068,43,13,31,078,43,1*75
$GBGSV,3,2,09,17,11,142,,26,41,303,37,29,83,110,44,30,28,056,43,1*77
$GNRMC,140004.00,A,4843.26059,N,00920.55676,E,0.034,,080225,,,A,V*10
$GNGGA,140004.00,4843.26059,N,00920.55676,E,1,12,0.52,247.7,M,47.6,M,,*4B
$GPGSV,4,1,13,04,08,319,,05,21,079,47,09,02,346,,11,00,034,,1*62
$GPGSV,4,2,13,12,00,117,12,16,18,298,,18,48,173,48,20,16,043,32,1*65
$GPGSV,4,3,13,25,34,123,48,26,47,298,35,28,45,222,42,29,65,058,40,1*61
$GPGSV,4,4,13,31,51,259,,1*5E
$GLGSV,2,1,08,69,07,323,34,70,08,023,31,76,19,141,47,77,66,145,40,1*78
$GLGSV,2,2,08,78,48,318,39,86,26,038,46,87,76,047,40,88,39,215,45,1*74
$GAGSV,3,1,11,02,33,298,33,03,03,245,,07,05,340,,08,12,292,,7*74
$GAGSV,3,2,11,10,59,085,45,11,58,145,43,12,41,055,38,16,65,113,47,7*70
$GAGSV,3,3,11,24,38,115,41,25,87,333,34,36,20,190,39,7*47
$GBGSV,3,1,09,02,01,102,,05,16,13,44,08,31,068,43,13,31,078,43,1*74
$GNRMC,140005.00,A,4843.26060,N,00920.55674,E,0.008,,080225,,,A,V*16
$GNGGA,140005.00,4843.26060,N,00920.55674,E,1,12,0.52,247.6,M,47.6,M,,*43
$GPGSV,4,1,13,04,08,319,,05,21,079,47,09,02,346,,11,00,034,,1*62
$GPGSV,4,2,13,12,00,117,11,16,18,298,,18,48,173,47,20,16,043,32,1*69
$GPGSV,4,3,13,25,34,123,48,26,47,298,35,28,45,222,42,29,65,058,41,1*60
$GPGSV,4,4,13,31,51,259,,1*5E
$GLGSV,2,1,08,69,07,32334,70,08,023,31,76,19,141,47,77,66,145,40,1*78
$GLGSV,2,2,08,78,48,318,39,86,26,038,46,87,76,047,41,88,39,215,44,1*74
$GAGSV,3,1,11,02,33,298,33,03,03,245,,07,05,340,,08,12,292,,7*74
$GAGSV,3,2,11,10,59,085,45,11,58,145,43,12,41,055,38,16,65,113,48,7*7F
$GAGSV,3,3,11,24,37,115,42,25,87,333,34,36,20,190,39,7*4B
$GBGSV,3,1,09,02,01,102,,05,16,123,44,08,31,068,42,13,31,078,43,1*75
$GNRMC,140006.00,A,4843.26061,N,00920.55674,E,0.016,,080225,,,A,V*1B
$GNGGA,140006.00,4843.26061,N,00920.55674,E,1,12,0.52,247.5,M,47.6,M,,*42
$GPGSV,4,1,13,04,08,319,,05,21,079,47,09,02,346,,11,00,034,,1*62
$GPGSV,4,2,13,12,00,117,13,16,18,298,,18,48,173,48,20,16,043,33,1*65
$GPGSV,4,3,13,25,34,123,48,26,47,298,35,28,45,222,42,29,65,058,41,1*60
$GPGSV,4,4,13,31,51,259,,1*5E
$GLGSV,2,1,08,69,07,323,32,70,08,023,31,76,19,141,46,77,66,145,40,1*7F
$GLGSV,2,2,08,78,48,318,37,86,26,038,46,87,76,047,41,88,39,215,45,1*7B
$GAGSV,3,1,11,02,33,298,34,03,03,245,,07,05,340,,08,12,292,,7*73
$GAGSV,3,2,11,10,59,085,45,11,58,145,41,12,41,055,39,16,65,113,47,7*73
$GAGSV,3,3,11,24,37,115,41,25,87,338,33,36,20,190,39,7*44
$GBGSV,3,1,09,02,01,102,,05,16,123,44,08,31,068,42,13,31,078,43,1*75
$GNRMC,140007.00,A,4843.26062,N,00920.55673,E,0.012,,080225,,,A,V*1A
$GNGGA,140007.00,4843.26062,N,00920.55673,E,1,12,0.52,247.4,M,47.6,M,,*46
$GPGSV,4,1,13,04,08,319,,05,21,079,47,09,02,346,,11,00,034,,1*62
$GPGSV,4,2,13,12,00,117,12,16,18,298,,18,48,173,47,20,16,043,34,1*6C
$GPGSV,4,3,13,25,34,123,48,26,47,298,35,28,45,222,42,29,65,058,41,1*60
$GPGSV,4,4,13,31,51,259,,1*5E
$GLGSV,2,1,08,69,07,323,32,70,08,023,31,76,19,141,45,77,66,145,40,1*7C
$GLGSV,2,2,08,78,48,318,38,86,26,038,46,87,76,047,42,88,39,215,45,1*77
$GAGSV,3,1,11,02,33,298,34,03,03,245,,07,05,340,,08,12,292,,7*73
$GAGSV,3,2,11,10,59,085,45,11,58,145,41,12,41,055,39,16,65,113,48,7*7C
$GAGSV,3,3,11,24,37,115,43,25,87,338,33,36,20,190,39,7*46
$GBGSV,3,1,09,02,01,102,,05,16,123,44,08,31,068,42,13,31,078,43,1*75
$GBGSV,3,2,09,17,11,142,,26,41,303,37,29,83,110,45,30,28,056,44,1*71
$GNRMC,140008.00,A,4843.26063,N,00920.55671,E,0.028,,080225,,,A,V*1F
$GNGGA,140008.00,4843.26063,N,00920.55671,E,1,12,0.52,247.3,M,47.6,M,,*4D
$GPGSV,4,1,13,04,08,319,,05,21,079,48,09,02,346,,11,00,034,,1*6D
$GPGSV,4,2,13,12,00,117,12,16,18,298,,18,48,173,47,20,16,043,35,1*6D
$GPGSV,4,3,13,25,34,123,48,26,47,298,35,28,45,222,42,29,65,058,41,1*60
$GPGSV,4,4,13,31,51,259,,1*5E
$GLGSV,2,1,08,69,07,323,32,70,08,023,31,76,19,141,45,77,66,145,42,1*7E
$GLGSV,2,2,08,78,48,318,39,86,26,038,46,87,76,047,40,88,39,215,45,1*74
$GAGSV,3,1,11,02,33,298,33,03,03,245,,07,05,340,,08,12,292,,7*74
$GAGSV,3,2,11,10,59,085,45,11,58,145,43,12,41,055,39,16,65,113,48,7*7E
$GAGSV,3,3,11,24,37,115,43,25,87,338,34,36,20,190,39,7*41
$GBGSV,3,1,09,02,01,102,,05,16,123,44,08,31,068,42,13,31,078,43,1*75
$GBGSV,3,2,09,17,11,142,,26,41,303,37,29,83,110,45,30,28,056,44,1*71
$GNRMC,140009.00,A,4843.26065,N,00920.55666,E,0.062,,080225,,,A,V*10
$GNGGA,140009.00,4843.26065,N,00920.55666,E,1,12,0.52,247.1,M,47.6,M,,*4E
$GPGSV,4,1,13,04,08,319,,05,21,079,48,09,02,346,,11,00,034,,1*6D
$GPGSV,4,2,13,12,00,117,10,16,18,298,,18,48,173,47,20,16,043,35,1*6F
$GPGSV,,3,13,25,34,12348,26,47,298,36,28,45,222,42,29,65,058,41,1*63
$GPGSV,4,4,13,31,51,259,,1*5E
$GLGSV,2,1,08,69,07,323,31,70,08,023,31,76,19,141,46,77,66,145,41,1*7D
$GLGSV,2,2,08,78,48,318,39,86,26,038,46,87,76,047,40,88,39,215,44,1*75
$GAGSV,3,1,11,02,33,298,33,03,03,245,,07,05,340,,08,12,292,,7*74
$GAGSV,3,2,11,10,59,085,45,11,58,145,43,12,41,055,39,16,65,113,48,7*7E
$GAGSV,3,3,11,24,37,115,43,25,87,338,33,36,20,190,39,7*46
$GBGSV,3,1,09,02,01,102,,05,16,123,44,08,31,068,42,13,31,078,43,1*75
$GBGSV,3,2,09,17,11,142,,26,41,303,37,29,83,110,45,30,28,056,44,1*71
$GNRMC,140010.00,A,4843.26067,N,00920.55663,E,0.049,,080225,,,A,V*16
$GNGGA,140010.00,4843.26067,N,00920.55663,E,1,12,0.52,246.9,M,47.6,M,,*48
$GPGSV,4,1,13,04,08,319,,05,21,079,48,09,02,346,,11,00,034,,1*6D
$GPGSV,4,2,13,12,00,117,10,1618,298,,18,48,13,47,20,16,043,36,1*6C
$GPGSV,4,3,13,25,34,123,49,26,47,298,35,28,45,222,42,29,65,058,41,1*61
$GPGSV,4,4,13,31,51,259,,1*5E
$GLGSV,2,1,08,69,07,323,31,70,08,022,30,76,18,141,46,77,66,146,40,1*7E
$GLGSV,2,2,08,78,48,318,38,86,26,039,46,87,75,046,40,88,40,215,44,1*79
$GAGSV,3,1,11,02,33,298,34,03,03,245,,07,05,340,,08,12,292,,7*73
$GAGSV,3,2,11,10,59,085,44,11,58,145,43,12,41,055,39,16,65,113,46,7*71
$GAGSV,3,3,11,24,37,115,41,25,87,338,33,36,20,190,39,7*44
$GBGSV,3,1,09,02,01,102,,05,16,123,44,08,31,068,42,13,31,078,43,1*75
$GNRMC,140011.00,A,4843.26069,N,00920.55660,E,0.006,,080225,,,A,V*11
$GNGGA,140011.00,4843.26069,N,00920.55660,E,1,12,0.52,246.7,M,47.6,M,,*4A
$GPGSV,4,1,13,04,08,319,,05,21,079,48,09,02,346,,11,00,034,,1*6D
$GPGSV,4,2,13,12,00,117,11,16,18,298,,18,48,173,47,20,16,043,37,1*6C
$GPGSV,4,3,13,25,34,123,49,26,47,298,35,28,45,222,42,29,65,058,40,1*60
$GPGSV,4,4,13,31,51,259,,1*5E
$GLGSV,2,1,08,69,07,323,31,70,08,022,29,76,18,141,45,77,66,146,40,1*75
$GLGSV,2,2,08,78,48,318,38,86,26,039,46,87,75,046,40,88,40,215,44,1*79
$GAGSV,3,1,11,02,33,298,34,03,03,245,,07,05,340,,08,12,292,,7*73
$GAGSV,3,2,11,10,59,085,44,11,58,145,41,12,41,055,39,16,65,113,47,7*72
$GAGSV,3,3,11,24,37,115,41,25,87,338,34,36,20,190,39,7*43
$GBGSV,3,1,09,02,01,102,,05,16,123,44,08,31,068,42,13,31,078,43,1*75
$GNRMC,140012.00,A,4843.26071,N,00920.55657,E,0.031,,080225,,,A,V*1B
$GNGGA,140012.00,4843.26071,N,00920.55657,E,1,12,0.52,246.6,M,47.6,M,,*45
$GPGSV,4,1,13,04,08,319,,05,21,079,48,09,02,346,,11,00,034,,1*6D
$GPGSV,4,2,13,12,00,117,10,16,18,298,,18,48,173,46,20,16,043,37,1*6C
$GPGSV,4,3,13,25,34,123,48,26,47,298,35,28,45,222,43,29,65,058,41,1*61
$GPGSV,4,4,13,31,51,259,,1*5E
$GLGSV,2,1,08,69,07,323,32,70,08,022,29,76,18,141,45,77,66,146,40,1*76
$GLGSV,2,2,08,78,48,318,37,86,26,039,46,87,75,046,40,88,40,215,43,1*71
$GAGSV,3,1,11,02,33,298,34,03,03,245,,07,05,340,,08,12,292,,7*73
$GAGSV,3,2,11,10,59,085,44,11,58,145,43,12,41,055,39,16,65,113,47,7*70
$GAGSV,3,3,11,24,37,115,42,25,87,338,34,36,20,190,39,7*40
$GBGSV,3,1,09,02,01,102,,05,16,123,44,08,31,068,42,13,31,078,43,1*75
$GBGSV,3,2,09,17,11,142,,26,41,303,37,29,83,110,44,30,28,056,44,1*70
$GNRMC,140013.00,A,4843.26072,N,00920.55655,E,0.028,,080225,,,A,V*13
$GNGGA,140013.00,4843.26072,N,00920.55655,E,1,12,0.52,246.5,M,47.6,M,,*46
$GPGSV,4,1,13,04,08,319,,05,21,079,48,09,02,346,,11,00,034,,1*6D
$GPGSV,4,2,13,12,00,117,12,16,18,298,,18,48,173,45,20,16,043,37,1*6D
$GPGSV,4,3,13,25,34,123,48,26,47,298,35,28,45,222,43,29,65,058,41,1*61
$GPGSV,4,4,13,31,51,259,,1*5E
$GLGSV,2,1,08,69,07,323,31,70,08,022,29,76,18,141,44,77,66,146,40,1*74
$GLGSV,2,2,08,78,48,318,37,86,26,039,46,87,75,046,40,88,40,215,44,1*76
$GAGSV,3,1,11,02,33,298,34,03,03,245,,07,05,340,,08,12,292,,7*73
$GAGSV,3,2,11,10,59,085,45,11,58,145,43,12,41,055,39,16,65,113,48,7*7E
$GAGSV,3,3,11,24,37,115,42,25,87,338,35,36,20,190,40,7*4F
$GBGSV,3,1,09,02,01,102,,05,16,123,44,08,31,068,42,13,31,078,43,1*75
$GBGSV,3,2,09,17,11,142,,26,41,303,37,29,83,110,45,30,28,056,44,1*71
$GNRMC,140014.00,A,4843.26074,N,00920.55652,E,0.019,,080225,,,A,V*17
$GNGGA,140014.00,4843.26074,N,00920.55652,E,1,12,0.52,246.3,M,47.6,M,,*46
$GPGSV,4,1,13,04,08,319,,05,21,079,48,09,02,346,,11,00,034,,1*6D
$GPGSV,4,2,13,12,00,117,12,16,18,298,,18,48,173,45,20,16,043,37,1*6D
$GPGSV,4,3,13,25,34,123,49,26,47,298,34,28,45,222,43,29,65,058,41,1*61
$GPGSV,4,4,13,31,51,259,,1*5E
$GLGSV,2,1,08,69,07,323,32,70,08,022,29,76,18,141,44,77,66,146,40,1*77
$GLGSV,2,2,08,78,48,318,36,86,26,039,46,87,75,046,40,88,40,215,43,1*70
$GAGSV,3,1,11,02,33,298,34,03,03,245,,07,05,340,,08,12,292,,7*73
$GAGSV,3,2,11,10,59,085,45,11,58,145,43,12,41,055,39,16,65,113,47,7*71
$GAGSV,3,3,11,24,37,115,42,25,87,338,34,36,20,190,40,7*4E
$GBGSV,3,1,09,02,01,102,,05,16,123,44,08,31,068,42,13,31,078,43,1*75
$GNRMC,140015.00,A,4843.26075,N,00920.55649,E,0.023,,080225,,,A,V*14
$GNGGA,140015.00,4843.26075,N,00920.55649,E,1,12,0.52,246.1,M,47.6,M,,*4E
$GPGSV,4,1,13,04,08,319,,05,21,079,48,09,02,346,,11,00,034,,1*6D
$GPGSV,4,2,13,12,00,117,14,16,18,298,,18,48,173,44,20,16,043,38,1*65
$GPGSV,4,3,13,25,34,123,48,26,47,298,34,28,45,222,43,29,65,058,40,1*61
$GPGSV,4,4,13,31,51,259,,1*5E
$GLGSV,2,1,08,69,07,323,33,70,08,022,29,76,18,141,43,77,66,146,41,1*70
$GLGSV,2,2,08,78,48,318,36,86,26,039,45,87,75,046,40,88,40,215,43,1*73
$GAGSV,3,1,11,02,33,298,34,03,03,245,,07,05,340,,08,12,292,,7*73
$GAGSV,3,2,11,10,59,085,45,11,58,145,42,12,41,055,39,16,65,113,47,7*70
$GAGSV,3,3,11,24,37,115,42,25,87,338,34,36,20,190,40,7*4E
$GBGSV,3,1,09,02,01,102,,05,16,123,44,08,31,068,42,13,31,078,43,1*75
$GBGSV,3,2,09,17,11,142,,26,41,303,38,29,83,110,44,30,28,056,44,1*7F
$GNRMC,140016.00,A,4843.26076,N,00920.55648,E,0.009,,080225,,,A,V*1D
$GNGGA,140016.00,4843.26076,N,00920.55648,E,1,12,0.52,246.0,M,47.6,M,,*4E
$GPGSV,4,1,13,04,08,319,,05,21,079,48,09,02,346,,11,00,034,,1*6D
$GPGSV,4,2,13,12,00,117,13,16,18,298,,18,48,173,44,20,16,043,38,1*62
$GPGSV,4,3,13,25,34,123,48,26,47,298,33,28,45,222,43,29,65,058,41,1*67
$GPGSV,4,4,13,31,51,259,,1*5E
$GLGSV,2,1,08,69,07,323,33,70,08,022,30,76,18,141,44,77,66,146,41,1*7F
$GLGSV,2,2,08,78,48,318,36,86,26,039,45,87,75,046,40,88,40,215,44,1*74
$GAGSV,3,1,11,02,33,298,34,03,03,245,,07,05,340,,08,12,292,,7*73
$GAGSV,3,2,11,10,59,085,45,11,58,145,43,12,41,055,39,16,65,113,48,7*7E
$GAGSV,3,3,11,24,37,115,42,25,87,338,35,36,20,190,40,7*4F
$GBGSV,3,1,09,02,01,102,,05,16,123,44,08,31,068,42,13,31,077,43,1*7A
$GBGSV,3,2,09,17,11,142,,26,41,303,38,29,83,105,44,30,28,056,44,1*7B
$GNRMC,140017.00,A,4843.26077,N,00920.55644,E,0.008,,080225,,,A,V*10
$GNGGA,140017.00,4843.26077,N,00920.55644,E,1,12,0.52,245.8,M,47.6,M,,*49
$GPGSV,4,1,13,04,08,319,,05,21,079,48,09,02,346,,11,00,034,,1*6D
$GPGSV,4,2,13,12,00,117,13,16,18,298,,18,48,173,44,20,16,043,38,1*62
$GPGSV,4,3,13,25,34,123,48,26,47,298,33,28,45,222,43,29,65,058,42,1*64
$GPGSV,4,4,13,31,51,259,,1*5E
$GLGSV,2,1,08,69,07,323,34,70,08,022,29,76,18,141,45,77,66,146,41,1*71
$GLGSV,2,2,08,78,48,318,37,86,26,039,45,87,75,046,40,88,40,215,44,1*75
$GAGSV,3,1,11,02,33,298,34,03,03,245,,07,05,340,,08,12,292,,7*73
$GAGSV,3,2,11,10,59,085,45,11,58,145,44,12,41,055,39,16,65,113,48,7*79
$GAGSV,3,3,11,24,37,115,42,25,87,338,37,36,20,190,40,7*4D
$GBGSV,3,1,09,02,01,102,,05,16,123,45,08,31,068,42,13,31,077,43,1*7B
$GNRMC,140018.00,A,4843.26078,N,00920.55642,E,0.022,,080225,,,A,V*1E
$GNGGA,140018.00,4843.26078,N,00920.55642,E,1,12,0.52,245.7,M,47.6,M,,*40
$GPGSV,4,1,13,04,08,319,,05,21,079,48,09,02,346,,11,00,034,,1*6D
$GPGSV,4,2,13,12,00,117,14,16,18,298,,18,48,173,43,20,16,043,38,1*62
$GPGSV,4,3,13,25,34,123,48,26,47,298,33,28,45,222,42,29,65,058,41,1*66
$GPGSV,4,4,13,31,51,259,,1*5E
$GLGSV,2,1,08,69,07,323,35,70,08,022,29,76,18,141,45,77,66,146,41,1*70
$GLGSV,2,2,08,78,48,318,37,86,26,039,45,87,75,046,39,88,40,215,43,1*7C
$GAGSV,3,1,11,02,33,298,34,03,03,245,,07,05,340,,08,12,292,,7*73
$GAGSV,3,2,11,10,59,085,45,11,58,145,43,12,41,055,39,16,65,113,47,7*71
$GAGSV,3,3,11,24,37,115,42,25,87,338,35,36,20,190,40,7*4F
$GBGSV,3,1,09,02,01,102,,05,16,123,44,08,31,068,42,13,31,077,43,1*7A
$GBGSV,3,2,09,17,11,142,,26,41,303,39,29,83,105,45,30,28,056,44,1*7B
$GNRMC,140019.00,A,4843.26078,N,00920.55640,E,0.013,,080225,,,A,V*1F
$GNGGA,140019.00,4843.26078,N,00920.55640,E,1,12,0.52,245.6,M,47.6,M,,*42
$GPGSV,4,1,13,04,08,319,,05,21,079,48,09,02,346,,11,00,034,,1*6D
$GPGSV,4,2,13,12,00,117,12,16,18,298,,18,48,173,44,20,16,043,39,1*62
$GPGSV,4,3,13,25,34,123,49,26,47,298,32,28,45,222,42,29,65,058,42,1*65
$GPGSV,4,4,13,31,51,259,,1*5E
$GLGSV,2,1,08,69,07,323,35,70,08,022,29,76,18,141,45,77,66,146,41,1*70
$GLGSV,2,2,08,78,48,318,36,86,26,039,45,87,75,046,39,88,40,215,43,1*7D
$GAGSV,3,1,11,02,33,298,34,03,03,245,,07,05,340,,08,12,292,,7*73
$GAGSV,3,2,11,10,59,085,45,11,58,145,43,12,41,055,39,16,65,113,47,7*71
$GAGSV,3,3,11,24,37,115,42,25,87,338,35,36,20,190,40,7*4F
$GBGSV,3,1,09,02,01,102,,05,16,123,44,08,31,068,42,13,31,077,43,1*7A
$GBGSV,3,2,09,17,11,142,,26,41,303,39,29,83,105,44,30,28,056,44,1*7A
$GNRMC,140020.00,A,4843.26079,N,00920.55637,E,0.023,,080225,,,A,V*17
$GNGGA,140020.00,4843.26079,N,00920.55637,E,1,12,0.52,245.5,M,47.6,M,,*4A
$GPGSV,4,1,13,04,08,319,,05,21,079,48,09,02,346,,11,00,034,,1*6D
$GPGSV,4,2,13,12,00,117,13,16,18,298,,18,48,173,44,20,16,043,39,1*63
$GPGSV,4,3,13,25,34,123,49,26,47,298,32,28,45,222,42,29,65,058,41,1*66
$GPGSV,4,4,13,31,51,259,,1*5E
$GLGSV,2,1,08,69,07,323,36,70,08,22,29,76,18,141,45,77,66,146,42,1*70
$GLGSV,2,2,08,78,48,318,35,86,26,039,45,87,75,046,39,88,40,215,43,1*7E
$GAGSV,3,1,11,02,33,298,34,03,03,245,,07,05,340,,08,12,292,,7*73
$GAGSV,3,2,11,10,59,085,45,11,58,145,44,12,41,055,39,16,65,113,48,7*79
$GAGSV,3,3,11,24,37,115,43,25,87,338,35,36,20,190,40,7*4E
$GBGSV,3,1,09,02,01,102,,05,16,123,44,08,31,068,42,13,31,077,43,1*7A
$GNRMC,140021.00,A,4843.26079,N,00920.55634,E,0.011,,080225,,,A,V*14
$GNGGA,140021.00,4843.26079,N,00920.55634,E,1,12,0.52,245.3,M,47.6,M,,*4E
$GPGSV,4,1,13,04,08,319,,05,21,079,49,09,02,346,,11,00,034,,1*6C
$GPGSV,4,2,13,12,00,117,13,16,18,298,,18,48,173,43,20,16,043,39,1*64
$GPGSV,4,3,13,25,34,123,49,26,47,298,32,28,45,222,42,29,65,058,42,1*65
$GPGSV,4,4,13,31,51,259,,1*5E
$GLGSV,2,1,08,69,07,323,36,70,08,022,30,76,18,141,46,77,66,146,43,1*7A
$GLGSV,2,2,08,78,48,318,35,86,26,039,45,87,75,046,41,88,40,215,42,1*70
$GAGSV,3,1,11,02,33,298,34,03,03,245,,07,05,340,,08,12,292,,7*73
$GAGSV,3,2,11,10,59,085,45,11,58,145,42,12,41,055,39,16,65,113,48,7*7F
$GAGSV,3,3,11,24,37,115,42,25,87,338,35,36,20,190,40,7*4F
$GBGSV,3,1,09,02,01,102,,05,16,123,44,08,31,068,42,13,31,077,43,1*7A
$GBGSV,3,2,09,17,11,142,,26,41,303,39,29,83,105,44,30,28,056,44,1*7A
$GNRMC,140022.00,A,4843.26079,N,00920.55632,E,0.036,,080225,,,A,V*14
$GNGGA,140022.00,4843.26079,N,00920.55632,E,1,12,0.52,245.2,M,47.6,M,,*4A
$GPGSV,4,1,13,04,08,319,35,05,21,079,49,09,02,346,,11,00,034,,1*6A
$GPGSV,4,2,13,12,00,117,,16,18,298,,18,48,173,43,20,16,043,39,1*66
$GPGSV,4,3,13,25,34,123,49,26,47,298,31,28,45,222,41,29,65,058,42,1*65
$GPGSV,4,4,13,31,51,259,,1*5E
$GLGSV,2,1,08,69,07,323,37,70,08,022,31,76,18,141,46,77,66,146,41,1*78
$GLGSV,2,2,08,78,48,318,34,86,26,039,44,87,75,046,40,88,40,215,43,1*70
$GAGSV,3,1,11,02,33,298,34,03,03,245,,07,05,340,,08,12,292,,7*73
$GAGSV,3,2,11,10,59,085,45,11,58,145,42,12,41,055,39,16,65,113,47,7*70
$GAGSV,3,3,11,24,37,115,43,25,87,338,35,36,20,190,40,7*4E
$GBGSV,3,1,09,02,01,102,,05,16,123,44,08,31,068,42,13,31,077,43,1*7A
$GBGSV,3,2,09,17,11,142,,26,41,303,39,29,83,105,43,30,28,056,44,1*7D
$GNRMC,140023.00,A,4843.26079,N,00920.55629,E,0.021,,080225,,,A,V*19
$GNGGA,140023.00,4843.26079,N,00920.55629,E,1,12,0.50,245.2,M,47.6,M,,*43
$GPGSV,4,1,13,04,08,319,35,05,21,079,49,09,02,346,,11,00,034,,1*6A
$GPGSV,4,2,13,12,00,117,,16,18,298,,18,48,173,43,20,16,043,40,1*68
$GPGSV,4,3,13,25,34,123,49,26,47,298,30,28,45,222,41,29,65,058,42,1*64
$GPGSV,4,4,13,31,51,259,,1*5E
$GLGSV,2,1,08,69,07,323,37,70,08,022,31,76,18,141,46,77,66,146,41,1*78
$GLGSV,2,2,08,78,48,318,34,86,26,039,44,87,75,046,38,88,40,215,43,1*7F
$GAGSV,3,1,11,02,33,298,34,03,03,245,,07,05,340,,08,12,292,,7*73
$GNRMC,140024.00,A,4843.26078,N,00920.55627,E,0.009,,080225,,,A,V*1B
$GNGGA,140024.00,4843.26078,N,00920.55627,E,1,12,0.50,245.1,M,47.6,M,,*48
$GPGSV,4,1,13,04,08,319,35,05,21,079,49,09,02,346,,11,00,034,,1*6A
$GPGSV,4,2,13,12,00,117,,16,18,298,,18,48,173,43,20,16,043,40,1*68
$GPGSV,4,3,13,25,34,123,49,26,47,298,30,28,45,222,41,29,65,058,42,1*64
$GPGSV,4,4,13,31,51,259,,1*5E
$GLGSV,2,1,08,69,07,323,38,70,08,022,31,76,18,141,47,77,66,146,40,1*77
$GLGSV,2,2,08,78,48,318,33,86,26,039,44,87,75,046,37,88,40,215,43,1*77
$GAGSV,3,1,11,02,33,298,34,03,03,245,07,05,340,,08,12,292,,7*73
$GAGSV,3,2,11,10,59,085,45,11,58,145,42,12,41,055,39,16,65,113,47,7*70
$GAGSV,3,3,11,24,37,115,43,25,87,338,35,36,20,190,41,7*4F
$GBGSV,3,1,09,02,01,102,,05,16,123,44,08,31,068,42,13,31,077,44,1*7D
$GNRMC,140025.00,A,4843.26078,N,00920.55623,E,0.014,,080225,,,A,V*12
$GNGGA,140025.00,4843.26078,N,00920.55623,E,1,12,0.50,245.0,M,47.6,M,,*4C
$GPGSV,4,1,13,04,08,319,35,05,21,079,49,09,02,346,,11,00,034,,1*6A
$GPGSV,4,2,13,12,00,117,,16,18,298,,18,48,173,43,20,16,043,40,1*68
$GPGSV,4,3,13,25,34,123,49,26,47,298,30,28,45,222,40,29,65,058,42,1*65
$GPGSV,4,4,13,31,51,259,,1*5E
$GLGSV,2,1,08,69,07,323,38,70,08,022,31,76,18,141,48,77,66,146,40,1*78
$GLGSV,2,2,08,78,48,318,33,86,26,039,44,87,75,046,37,88,40,215,44,1*70
$GAGSV,3,1,11,02,33,298,34,03,03,245,,07,05,340,,08,12,292,,7*73
$GAGSV,3,2,11,10,59,085,45,11,58,145,42,12,41,055,39,16,65,113,47,7*70
$GAGSV,3,3,11,24,37,115,43,25,87,338,35,36,20,190,40,7*4E
$GBGSV,3,1,09,02,01,102,,05,16,123,44,08,31,068,42,13,31,077,44,1*7D
$GBGSV,3,2,09,17,11,142,,26,41,303,39,29,83,105,43,30,28,056,44,1*7D
$GNRMC,140026.00,A,4843.26077,N,00920.55620,E,0.021,,080225,,,A,V*1B
$GNGGA,140026.00,4843.26077,N,00920.55620,E,1,12,0.50,244.9,M,47.6,M,,*4B
$GPGSV,4,1,13,04,08,319,35,05,21,079,49,09,02,346,,11,00,034,,1*6A
$GPGSV,4,2,13,12,00,117,,16,18,298,,18,48,173,43,20,16,043,40,1*68
$GPGSV,4,3,13,25,34,123,49,26,47,298,30,28,45,222,41,29,65,058,42,1*64
$GPGSV,4,4,13,31,51,259,,1*5E
$GLGSV,2,1,08,69,07,323,38,70,08,022,31,76,18,141,49,77,66,146,40,1*79
$GLGSV,2,2,08,78,48,318,33,86,26,039,44,87,75,046,37,88,40,215,45,1*71
$GAGSV,3,1,11,02,33,298,34,03,03,245,,07,05,340,,08,12,292,,7*73
$GAGSV,3,2,11,10,59,085,45,11,58,145,42,12,41,055,39,16,65,113,47,7*70
$GAGSV,3,3,11,24,37,115,44,25,87,338,35,36,20,190,40,7*49
$GBGSV,3,1,09,02,01,102,,05,16,123,44,08,31,068,42,13,31,077,44,1*7D
$GBGSV,3,2,09,17,11,142,,26,41,303,39,29,83,105,43,30,28,056,44,1*7D
$GNRMC,140027.00,A,4843.26076,N,00920.55616,E,0.014,,080225,,,A,V*18
$GNGGA,140027.00,4843.26076,N,00920.55616,E,1,12,0.50,244.8,M,47.6,M,,*4F
$GPGSV,4,1,13,04,08,319,35,05,21,079,49,09,02,346,,11,00,034,,1*6A
$GPGSV,4,2,13,12,00,117,,16,18,298,,18,48,173,43,20,16,043,40,1*68
$GPGSV,4,3,13,25,34,123,49,26,47,298,30,28,45,222,40,29,65,058,42,1*65
$GPGSV,4,4,13,31,51,259,,1*5E
$GLGSV,2,1,08,69,07,323,38,70,08,022,31,76,18,141,49,77,66,146,40,1*79
$GLGSV,2,2,08,78,48,318,33,86,26,039,44,87,75,046,37,88,40,215,45,1*71
$GAGSV,3,1,11,02,33,298,34,03,03,245,,07,05,340,,08,12,292,,7*73
$GAGSV,3,2,11,10,59,085,45,11,58,145,41,12,41,055,39,16,65,113,47,7*73
$GAGSV,3,3,11,24,37,115,43,25,87,338,35,36,20,190,40,7*4E
$GBGSV,3,1,09,02,01,102,,05,16,123,44,08,31,068,42,13,31,077,44,1*7D
$GBGSV,3,2,09,17,11,142,,26,41,303,39,29,83,105,43,30,28,056,44,1*7D
$GNRMC,140028.00,A,4843.26076,N,00920.55612,E,0.021,,080225,,,A,V*15
$GNGGA,140028.00,4843.26076,N,00920.55612,E,1,12,0.50,244.8,M,47.6,M,,*44
$GPGSV,4,1,13,04,08,319,35,05,21,079,49,09,02,346,,11,00,034,,1*6A
$GPGSV,4,2,13,12,00,117,,16,18,298,,18,48,173,43,20,16,043,40,1*68
$GPGSV,4,3,13,25,34,123,49,26,47,298,30,28,45,222,40,29,65,058,42,1*65
$GPGSV,4,4,13,31,51,259,,1*5E
$GLGSV,2,1,08,69,07,323,39,70,08,022,32,76,18,141,49,77,66,146,39,1*75
$GLGSV,2,2,08,78,48,318,33,86,26,039,44,87,75,046,33,88,40,215,45,1*75
$GAGSV,3,1,11,02,33,298,34,03,03,245,,07,05,340,,08,12,292,,7*73
$GAGSV,3,2,11,10,59,085,45,11,58,145,41,12,41,055,39,16,65,113,47,7*73
$GAGSV,3,3,11,24,37,115,43,25,87,338,35,36,20,190,40,7*4E
$GBGSV,3,1,09,02,01,102,,05,16,123,44,08,31,068,42,13,31,077,44,1*7D
$GNRMC,140029.00,A,4843.26075,N,00920.55609,E,0.006,,080225,,,A,V*18
$GNGGA,140029.00,4843.26075,N,00920.55609,E,1,12,0.50,244.7,M,47.6,M,,*43
$GPGSV,4,1,13,04,08,319,35,05,21,079,49,09,02,346,,11,00,034,,1*6A
$GPGSV,4,2,13,12,00,117,,16,18,298,,18,48,173,44,20,16,043,40,1*6F
$GPGSV,4,3,13,25,34,123,49,26,47,298,30,28,45,222,41,29,65,058,42,1*64
$GPGSV,4,4,13,31,51,259,,1*5E
$GLGSV,2,1,08,69,07,323,39,70,08,022,32,76,18,141,49,77,66,146,39,1*75
$GLGSV,2,2,08,78,48,318,33,86,26,039,44,87,75,046,36,88,40,215,46,1*73
$GAGSV,3,1,11,02,33,298,34,03,03,245,,07,05,340,,08,12,292,,7*73
$GAGSV,3,2,11,10,59,085,45,11,58,145,41,12,41,055,39,16,65,113,47,7*73
$GAGSV,3,3,11,24,37,115,44,25,87,338,35,36,20,190,40,7*49
$GBGSV,3,1,09,02,01,102,,05,16,123,44,08,31,068,42,13,31,077,44,1*7D
$GBGSV,3,2,09,17,11,143,,26,41,303,39,29,83,105,42,30,28,056,44,1*7D
$GNRMC,140030.00,A,4843.26075,N,00920.55605,E,0.013,,080225,,,A,V*18
$GNGGA,140030.00,4843.26075,N,00920.55605,E,1,12,0.50,244.7,M,47.6,M,,*47
$GPGSV,4,1,13,04,08,319,35,05,21,079,49,09,02,346,,11,00,034,,1*6A
$GPGSV,4,2,13,12,00,117,,16,18,298,,18,48,173,44,20,16,043,40,1*6F
$GPGSV,4,3,13,25,34,123,49,26,47,298,30,28,45,222,41,29,65,058,42,1*64
$GPGSV,4,4,13,31,51,259,,1*5E
$GLGSV,2,1,08,69,07,323,39,70,08,022,32,76,18,141,50,77,66,146,39,1*7D
$GLGSV,2,2,08,78,48,318,34,86,26,039,44,87,75,046,39,88,40,215,47,1*7A
$GAGSV,3,1,11,02,33,298,33,03,03,245,,07,05,340,,08,12,292,,7*74
$GAGSV,3,2,11,10,59,085,45,11,58,145,41,12,41,055,40,16,65,113,47,7*7D
$GAGSV,3,3,11,24,37,115,44,25,87,338,35,36,20,190,40,7*49
$GBGSV,3,1,09,02,01,102,,05,16,123,44,08,31,068,42,13,31,077,44,1*7D
$GNRMC,140031.00,A,4843.26074,N,00920.55602,E,0.009,,080225,,,A,V*14
$GNGGA,140031.00,4843.26074,N,00920.55602,E,1,12,0.50,244.6,M,47.6,M,,*41
$GPGSV,4,1,13,04,08,319,35,05,21,079,49,09,02,346,,11,00,034,,1*6A
$GPGSV,4,2,13,12,00,117,,16,18,298,,18,48,173,44,20,16,043,39,1*61
$GPGSV,4,3,13,25,34,123,49,26,47,298,30,28,45,222,41,29,65,058,42,1*64
$GPGSV,4,4,13,31,51,259,,1*5E
$GLGSV,2,1,08,69,07,323,39,70,08,022,33,76,18,141,50,77,66,146,38,1*7D
$GLGSV,2,2,08,78,48,318,33,86,26,039,44,87,75,046,36,88,40,215,46,1*73
$GAGSV,3,1,11,02,33,298,34,03,03,245,,07,05,340,,08,12,292,,7*73
$GAGSV,3,2,11,10,59,085,45,11,58,145,41,12,41,055,40,16,65,113,48,7*72
$GAGSV,3,3,11,24,37,115,44,25,87,338,35,36,20,190,40,7*49
$GBGSV,3,1,09,02,01,102,,05,16,123,44,08,31,068,42,13,31,077,44,1*7D
$GBGSV,3,2,09,17,11,143,,26,41,303,39,29,83,105,42,30,28,056,43,1*7A
$GNRMC,140032.00,A,4843.26074,N,00920.55599,E,0.009,,080225,,,A,V*16
$GNGGA,140032.00,4843.26074,N,00920.55599,E,1,12,0.50,244.6,M,47.6,M,,*43
$GPGSV,4,1,13,04,08,319,34,05,21,07948,09,02,346,,11,00,034,,1*6A
$GPGSV,4,2,13,12,00,117,,16,18,298,,18,48,173,43,20,16,043,39,1*66
$GPGSV,4,3,13,25,34,123,49,26,47,298,30,28,45,222,41,29,65,058,41,1*67
$GPGSV,4,4,13,31,51,259,,1*5E
$GLGSV,2,1,08,69,07,323,38,70,08,022,32,76,18,141,50,77,66,146,38,1*7D
$GLGSV,2,2,08,78,48,318,33,86,26,039,44,87,75,046,39,88,40,215,45,1*7F
$GAGSV,3,1,11,02,33,298,35,03,03,245,,07,05,340,,08,12,292,,7*72
$GAGSV,3,2,11,10,59,085,45,11,58,145,41,12,41,055,39,16,65,113,48,7*7C
$GAGSV,3,3,11,24,37,115,45,25,87,338,35,36,20,190,40,7*48
$GBGSV,3,1,09,02,01,102,,05,16,123,44,08,31,068,42,13,31,077,44,1*7D
$GNRMC,140033.00,A,4843.26074,N,00920.55596,E,0.006,,080225,,,A,V*17
$GNGGA,140033.00,4843.26074,N,00920.55596,E,1,12,0.50,244.5,M,47.6,M,,*4E
$GPGSV,4,1,13,04,08,319,34,05,21,079,48,09,02,346,,11,00,034,,1*6A
$GPGSV,4,2,13,12,00,117,,16,18,298,,18,48,173,42,20,16,043,39,1*67
$GPGSV,4,3,13,25,34,123,49,26,47,298,31,28,45,222,41,29,65,058,41,1*66
$GPGSV,4,4,13,31,51,259,,1*5E
$GLGSV,2,1,08,69,07,323,38,70,08,022,33,76,18,141,51,77,66,146,38,1*7D
$GLGSV,2,2,08,78,48,318,33,86,26,039,43,87,75,046,36,88,40,215,46,1*74
$GAGSV,3,1,11,02,33,298,35,03,03,245,,07,05,340,,08,12,292,,7*72
$GNRMC,140034.00,A,4843.26074,N,00920.55594,E,0.011,,080225,,,A,V*14
$GNGGA,140034.00,4843.26074,N,00920.55594,E,1,12,0.50,244.5,M,47.6,M,,*4B
$GPGSV,4,1,13,04,08,319,34,05,21,079,48,09,02,346,,11,00,034,,1*6A
$GPGSV,4,2,13,12,00,117,,16,18,298,,18,48,173,42,20,16,043,39,1*67
$GPGSV,4,3,13,25,34,123,49,26,47,298,31,28,45,222,41,29,65,058,39,1*69
$GPGSV,4,4,13,31,51,259,,1*5E
$GLGSV,2,1,08,69,07,323,37,70,08,022,33,76,18,141,51,77,66,146,40,1*7D
$GLGSV,2,2,08,78,48,318,34,86,26,039,43,87,75,046,37,88,40,215,46,1*72
$GAGSV,3,1,11,02,33,298,35,03,03,245,,07,05,340,,08,12,292,,7*72
$GAGSV,3,2,11,10,59,085,45,11,58,145,41,12,41,055,39,16,65,113,48,7*7C
$GAGSV,3,3,11,24,37,115,45,25,87,338,34,36,20,190,40,7*49
$GBGSV,3,1,09,02,01,102,,05,16,123,44,08,31,068,43,13,31,077,44,1*7C
$GNRMC,140035.00,A,4843.26073,N,00920.55592,E,0.013,,080225,,,A,V*16
$GNGGA,140035.00,4843.26073,N,00920.55592,E,1,12,0.50,244.5,M,47.6,M,,*4B
$GPGSV,4,1,13,04,08,319,34,05,21,079,48,09,02,346,,11,00,034,,1*6A
$GPGSV,4,2,13,12,00,117,,16,18,298,,18,48,173,42,20,16,043,40,1*69
$GPGSV,4,3,13,25,34,123,49,26,47,298,31,28,45,222,41,29,65,058,41,*66
$GPGSV,4,4,13,31,51,259,,1*5E
$GLGSV,2,1,08,69,07,323,36,70,08,022,33,76,18,141,51,77,66,146,40,1*7C
$GLGSV,2,2,08,78,48,318,34,86,26,039,44,87,75,046,37,88,40,215,46,1*75
$GAGSV,3,1,11,02,33,298,35,03,03,245,,07,05,340,,08,12,292,,7*72
$GAGSV,3,2,11,10,59,085,45,11,58,145,41,12,41,055,40,16,65,113,48,7*72
$GAGSV,3,3,11,24,37,115,45,25,87,338,33,36,20,190,40,7*4E
$GBGSV,3,1,09,02,01,102,,05,16,123,44,08,31,068,43,13,31,077,44,1*7C
$GNRMC,140036.00,A,4843.26073,N,00920.55590,E,0.013,,080225,,,A,V*17
$GNGGA,140036.00,4843.26073,N,00920.55590,E,1,12,0.50,244.4,M,47.6,M,,*4B
$GPGSV,4,1,13,04,08,319,35,05,21,079,47,09,02,346,,11,00,034,,1*64
$GPGSV,4,2,13,12,00,117,,16,18,298,,18,48,173,42,20,16,043,40,1*69
$GPGSV,4,3,13,25,34,123,49,26,47,298,32,28,45,222,42,29,65,058,38,1*68
$GPGSV,4,4,13,31,51,259,,1*5E
$GLGSV,2,1,08,69,07,323,37,70,08,022,33,76,18,141,51,77,66,146,40,1*7D
$GLGSV,2,2,08,78,48,318,34,86,26,039,44,87,75,046,37,88,40,215,45,1*76
$GAGSV,3,1,11,02,33,298,35,03,03,245,,07,05,340,,08,12,292,,7*72
$GAGSV,3,2,11,10,59,085,45,11,58,145,40,12,41,055,40,16,65,113,48,7*73
$GAGSV,3,3,11,24,37,115,45,25,87,338,34,36,20,190,39,7*47
$GBGSV,3,1,09,02,01,102,,05,16,123,44,08,31,068,43,13,31,077,44,1*7C
$GNRMC,140037.00,A,4843.26072,N,00920.55589,E,0.004,,080225,,,A,V*19
$GNGGA,140037.00,4843.26072,N,00920.55589,E,1,12,0.50,244.4,M,47.6,M,,*43
$GPGSV,4,1,13,04,08,319,35,05,21,079,47,09,02,346,,11,00,034,,1*64
$GPGSV,4,2,13,12,00,117,,16,18,298,,18,48,173,42,20,16,043,40,1*69
$GPGSV,4,3,13,25,34,123,49,26,47,298,32,28,45,222,42,29,65,058,40,1*67
$GPGSV,4,4,13,31,51,259,,1*5E
$GLGSV,2,1,08,69,07,323,37,70,08,022,32,76,18,141,50,77,66,146,40,1*7D
$GLGSV,2,2,08,78,48,318,35,86,26,039,44,87,75,046,37,88,40,215,47,1*75
$GAGSV,3,1,11,02,33,298,34,03,03,245,,07,05,340,,08,12,292,,7*73
$GAGSV,3,2,11,10,59,085,45,11,58,145,42,12,41,055,40,16,65,113,48,7*71
$GAGSV,3,3,11,24,37,115,45,25,87,338,34,36,20,190,40,7*49
$GBGSV,3,1,09,02,01,102,,05,16,123,44,08,31,068,43,13,31,077,44,1*7C
$GBGSV,3,2,09,17,11,143,,26,41,303,38,29,83,105,42,30,28,056,44,1*7C
$GNRMC,140038.00,A,4843.26072,N,00920.55588,E,0.008,,080225,,,A,V*1B
$GNGGA,140038.00,4843.26072,N,00920.55588,E,1,12,0.50,244.5,M,47.6,M,,*4C
$GPGSV,4,1,13,04,08,319,35,05,21,079,47,09,02,346,,11,00,034,,1*64
$GPGSV,4,2,13,12,00,117,,16,18,298,,18,48,173,42,20,16,043,40,1*69
$GPGSV,4,3,13,25,34,123,50,26,47,298,32,28,45,222,42,29,65,058,40,1*6F
$GPGSV,4,4,13,31,51,259,,1*5E
$GLGSV,2,1,08,69,07,323,37,70,08,022,32,76,18,141,52,77,66,146,40,1*7F
$GLGSV,2,2,08,78,48,318,35,86,26,039,44,87,75,046,37,88,40,215,46,1*74
$GAGSV,3,1,11,02,33,298,34,03,03,245,,07,05,340,,08,12,292,,7*73
$GAGSV,3,2,11,10,59,085,45,11,58,145,41,12,41,55,40,16,65,113,48,7*72
$GAGSV,3,3,11,24,37,115,45,25,87,338,33,36,20,190,40,7*4E
$GBGSV,3,1,09,02,01,102,,05,16,123,44,08,31,068,43,13,31,077,44,1*7C
$GBGSV,3,2,09,17,11,143,,26,41,303,38,29,83,105,42,30,28,056,44,1*7C
$GNRMC,140039.00,A,4843.26072,N,00920.55587,E,0.003,,080225,,,A,V*1E
$GNGGA,140039.00,4843.26072,N,00920.55587,E,1,12,0.50,244.5,M,47.6,M,,*42
$GPGSV,4,1,13,04,08,319,35,05,21,079,47,09,02,346,,11,00,034,,1*64
$GPGSV,4,2,13,12,00,117,,16,18,298,,18,48,173,41,20,16,043,41,1*6B
$GPGSV,4,3,13,25,34,123,50,26,47,298,32,28,45,222,42,29,65,058,40,1*6F
$GPGSV,4,4,13,31,51,259,,1*5E
$GLGSV,2,1,08,69,07,323,38,70,08,022,32,76,18,141,52,77,66,146,42,1*72
$GLGSV,2,2,08,78,48,318,35,86,26,039,44,87,75,046,37,88,40,215,45,1*77
$GAGSV,3,1,11,02,33,298,34,03,03,245,,07,05,340,,08,12,292,,7*73
$GAGSV,3,2,11,10,59,085,44,11,58,145,41,12,41,055,40,16,65,113,48,7*73
$GAGSV,3,3,11,24,37,115,45,25,87,338,33,36,20,190,40,7*4E
$GBGSV,3,1,09,02,01,102,,05,16,123,44,08,31,068,43,13,31,077,44,1*7C
$GPGSV,4,1,13,04,08,319,35,05,21,079,47,09,02,346,,11,00,034,,1*64
$GPGSV,4,2,13,12,0,117,,16,18,298,,18,48,173,41,20,16,043,41,1*6B
$GPGSV,4,3,13,25,34,123,50,26,47,298,31,28,45,222,42,29,65,058,40,1*6C
$GPGSV,4,4,13,31,51,259,,1*5E
$GLGSV,2,1,08,69,07,323,38,70,08,022,33,76,18,141,52,77,66,146,40,1*71
$GLGSV,2,2,08,78,48,318,35,86,26,039,44,87,75,046,37,88,40,215,45,1*77
$GAGSV,3,1,11,02,33,298,34,03,03,245,,07,05,340,,08,12,292,,7*73
$GAGSV,3,2,11,10,59,085,44,11,58,145,40,12,41,055,40,16,65,113,48,7*72
$GAGSV,3,3,11,24,37,115,45,25,87,338,33,36,20,190,39,7*40
$GBGSV,3,1,09,02,01,102,,05,16,123,44,08,31,068,43,13,31,077,44,1*7C
$GBGSV,3,2,09,17,11,143,,26,41,303,38,29,83,104,42,30,28,056,44,1*7D
$GNRMC,140041.00,A,4843.26071,N,00920.55583,E,0.008,,080225,,,A,V*1D
$GNGGA,140041.00,4843.26071,N,00920.55583,E,1,12,0.50,244.5,M,47.6,M,,*4A
$GPGSV,4,1,13,04,08,319,35,05,21,079,47,09,02,346,,11,00,034,,1*64
$GPGSV,4,2,13,12,00,117,,16,18,298,,18,48,173,41,20,16,043,41,1*6B
$GPGSV,4,3,13,25,34,123,50,26,47,298,31,28,45,222,42,29,65,058,40,1*6C
$GPGSV,4,4,13,31,51,259,,1*5E
$GLGSV,2,1,08,69,07,323,37,70,08,022,33,76,18,141,52,77,66,146,40,1*7E
$GLGSV,2,2,08,78,48,318,34,86,26,039,44,87,75,046,38,88,40,215,45,1*79
$GAGSV,3,1,11,02,33,298,34,03,03,245,,07,05,340,,08,12,292,,7*73
$GAGSV,3,2,11,10,59,085,44,11,58,145,42,12,41,055,40,16,65,113,48,7*70
$GAGSV,3,3,11,24,37,115,45,25,87,338,33,36,20,190,38,7*41
$GBGSV,3,1,09,02,01,102,,05,16,123,44,08,31,068,43,13,31,077,44,1*7C
$GBGSV,3,2,09,17,11,143,,26,41,303,39,2,83,104,42,30,28,056,44,1*7C
$GNRMC,140042.00,A,4843.26070,N,00920.55582,E,0.012,,080225,,,A,V*15
$GNGGA,140042.00,4843.26070,N,00920.55582,E,1,12,0.50,244.5,M,47.6,M,,*49
$GPGSV,4,1,13,04,08,319,34,05,21,079,47,09,02,346,,11,00,034,,1*65
$GPGSV,4,2,13,12,00,117,,16,18,298,,18,48,173,42,20,16,043,41,1*68
$GPGSV,4,3,13,25,34,123,50,26,47,298,31,28,45,222,42,29,65,058,40,1*6C
$GPGSV,4,4,13,31,51,259,,1*5E
$GLGSV,2,1,08,69,07,323,37,70,08,022,32,76,18,141,52,77,66,146,40,1*7F
$GLGSV,2,2,08,78,48,318,34,86,26,039,44,87,75,046,38,88,40,215,44,1*78
$GAGSV,3,1,11,02,33,298,34,03,03,245,,07,05,340,,08,12,292,,7*73
$GAGSV,3,2,11,10,59,085,44,11,58,145,40,12,41,055,40,16,65,113,48,7*72
$GAGSV,3,3,11,24,37,115,45,25,87,338,33,36,20,190,38,7*41
$GNRMC,140043.00,A,4843.26070,N,00920.55581,E,0.013,,080225,,,A,V*16
$GNGGA,140043.00,4843.26070,N,00920.55581,E,1,12,0.50,244.5,M,47.6,M,,*4B
$GPGSV,4,1,13,04,08,319,34,05,21,079,48,09,02,346,,11,00,034,,1*6A
$GPGSV,4,2,13,12,00,117,,16,18,298,,18,48,173,42,20,16,043,41,1*68
$GPGSV,4,3,13,25,34,123,50,26,47,298,31,28,45,222,42,29,65,058,40,1*6C
$GPGSV,4,4,13,31,51,259,,1*5E
$GLGSV,2,1,08,69,07,323,37,70,08,022,32,76,18,141,52,77,66,146,40,1*7F
$GLGSV,2,2,08,78,48,318,34,86,26,039,44,87,75,046,36,88,40,215,46,1*74
$GAGSV,3,1,11,02,33,298,34,03,03,245,,07,05,340,,08,12,292,,7*73
$GAGSV,3,2,11,10,59,085,44,11,58,145,40,12,41,055,40,16,65,113,48,7*72
$GAGSV,3,3,11,24,37,115,45,25,87,338,33,36,20,190,38,7*41
$GBGSV,3,1,09,02,01,102,,05,16,123,44,08,31,068,43,13,31,077,45,1*7D
$GBGSV,3,2,09,17,11,143,,26,41,303,39,29,83,104,42,30,28,056,44,1*7C
$GNRMC,140044.00,A,4843.26070,N,00920.55579,E,0.004,,080225,,,A,V*10
$GNGGA,140044.00,4843.26070,N,00920.55579,E,1,12,0.50,244.6,M,47.6,M,,*48
$GPGSV,4,1,13,04,08,319,34,05,21,079,48,09,02,346,,11,00,034,,1*6A
$GPGSV,4,2,13,12,00,117,,16,18,298,,1,48,173,42,20,16,043,41,1*68
$GPGSV,4,3,13,25,34,123,50,26,47,298,32,28,45,222,42,29,65,058,39,*61
$GPGSV,4,4,13,31,51,259,,1*5E
$GLGSV,2,1,08,69,07,323,37,70,08,022,32,76,18,141,52,77,66,146,40,1*7F
$GLGSV,2,2,08,78,48,318,35,86,26,039,44,87,75,046,37,88,40,215,44,1*76
$GAGSV,3,1,11,02,33,298,34,03,03,245,,07,05,340,,08,12,292,,7*73
$GAGSV,3,2,11,10,59,085,44,11,58,145,41,12,41,055,40,16,65,113,48,7*73
$GAGSV,3,3,11,24,37,115,45,25,87,338,34,36,20,190,38,7*46
$GBGSV,3,1,09,02,01,102,,05,16,123,44,08,31,068,43,13,31,077,45,1*7D
$GNRMC,140045.00,A,4843.26069,N,00920.55579,E,0.015,,080225,,,A,V*19
$GNGGA,140045.00,4843.26069,N,00920.55579,E,1,12,0.50,244.6,M,47.6,M,,*41
$GPGSV,4,1,13,04,08,319,34,05,21,079,48,09,02,346,,11,00,034,,1*6A
$GPGSV,4,2,13,12,00,117,,16,18,298,,18,48,173,42,20,16,043,41,1*68
$GPGSV,4,3,13,25,34,123,50,26,47,298,32,28,45,222,42,29,65,058,41,1*6E
$GPGSV,4,4,13,31,51,259,,1*5E
$GLGSV,2,1,08,69,07,323,36,70,08,022,32,76,18,141,52,77,66,146,39,1*70
$GLGSV,2,2,08,78,48,318,34,86,26,039,44,87,75,046,37,88,40,215,44,1*77
$GAGSV,3,1,11,02,33,298,34,03,03,245,,07,05,340,,08,12,292,,7*73
$GAGSV,3,2,11,10,59,085,44,11,58,145,41,12,41,055,40,16,65,113,48,7*73
$GAGSV,3,3,11,24,37,115,45,25,87,338,33,36,20,190,38,7*41
$GBGSV,3,1,09,02,01,102,,05,16,123,44,08,31,068,43,13,31,077,45,1*7D
$GBGSV,3,2,09,17,11,143,,26,41,303,38,29,83,104,41,30,28,056,44,1*7E
$GNRMC,140046.00,A,4843.26069,N,00920.55578,E,0.009,,080225,,,A,V*16
$GNGGA,140046.00,4843.26069,N,00920.55578,E,1,12,0.50,244.,M,47.6,M,,*42
$GPGSV,4,1,13,04,08,319,33,05,21,079,48,09,02,346,,11,00,034,,1*6D
$GPGSV,4,2,13,12,00,117,,16,18,298,,18,48,173,42,20,16,043,41,1*68
$GPGSV,4,3,13,25,34,123,50,26,47,298,33,28,45,222,42,29,65,058,41,1*6F
$GPGSV,4,4,13,31,51,259,,1*5E
$GLGSV,2,1,08,69,07,323,36,70,08,022,33,76,18,141,52,77,66,146,39,1*71
$GLGSV,2,2,08,78,48,318,34,86,26,039,44,87,75,046,37,88,40,215,45,1*76
$GAGSV,3,1,11,02,33,298,34,03,03,245,,07,05,340,,08,12,292,,7*73
$GAGSV,3,2,11,10,59,085,44,11,58,145,41,12,41,055,40,16,65,113,48,7*73
$GAGSV,3,3,11,24,37,115,45,25,87,338,33,36,20,190,38,7*41
$GBGSV,3,1,09,02,01,102,,05,16,123,44,08,31,068,43,13,31,077,45,1*7D
$GBGSV,3,2,09,17,11,143,,26,41,303,38,29,83,104,42,30,28,056,44,1*7D
$GNRMC,140047.00,A,4843.26069,N,00920.55577,E,0.013,,080225,,,A,V*13
$GNGGA,140047.00,4843.26069,N,00920.55577,E,1,12,0.50,244.7,M,47.6,M,,*4C
$GPGSV,4,1,13,04,08,319,33,05,21,079,48,09,02,346,,11,00,034,,1*6D
$GPGSV,4,2,13,12,00,117,,16,18,298,,18,48,173,42,20,16,043,41,1*68
$GPGSV,4,3,13,25,34,123,50,26,47,298,34,28,45,222,42,29,65,058,41,1*68
$GPGSV,4,4,13,31,51,259,,1*5E
$GLGSV,2,1,08,69,06,323,36,70,08,022,33,76,18,141,52,77,66,146,39,1*70
$GLGSV,2,2,08,78,48,318,34,86,26,039,44,87,75,046,37,88,40,215,45,1*76
$GAGSV,3,1,11,02,33,298,33,03,03,245,,07,05,340,,08,12,292,,7*74
$GAGSV,3,2,11,10,59,085,44,11,58,145,40,12,41,055,40,16,65,113,48,7*72
$GAGSV,3,3,11,24,37,115,45,25,87,338,34,36,20,190,38,7*46
$GBGSV,3,1,09,02,01,102,,05,16,123,44,08,31,068,43,13,31,077,45,1*7D
$GBGSV,3,2,09,17,11,143,,26,41,303,3729,83,104,42,30,28,056,44,1*72
$GNRMC,140048.00,A,4843.26068,N,00920.55576,E,0.018,,080225,,,A,V*17
$GNGGA,140048.00,4843.26068,N,00920.55576,E,1,12,0.50,244.8,M,47.6,M,,*4C
$GPGSV,4,1,13,04,08,319,33,05,21,079,48,09,02,346,,11,00,034,,1*6D
$GPGSV,4,2,13,12,00,117,,16,18,298,,18,48,173,43,20,16,043,41,1*69
$GPGSV,4,3,13,25,34,123,50,26,47,298,35,28,45,222,42,29,65,058,41,1*69
$GPGSV,4,4,13,31,51,259,,1*5E
$GLGSV,2,1,08,69,06,323,35,70,08,022,33,76,18,141,52,77,66,146,38,1*72
$GLGSV,2,2,08,78,48,318,33,86,26,039,44,87,75,046,38,88,40,215,45,1*7E
$GAGSV,3,1,11,02,33,298,34,03,03,245,,07,05,340,,08,12,292,,7*73
$GAGSV,3,2,11,10,59,085,44,11,58,145,41,12,41,055,40,16,65,113,48,7*73
$GAGSV,3,3,11,24,37,115,45,25,87,338,34,36,20,190,37,7*49
$GBGSV,3,1,09,02,01,102,,05,16,123,44,08,31,068,43,13,31,077,45,1*7D
$GNRMC,140049.00,A,4843.26068,N,00920.55576,E,0.018,,080225,,,A,V*16
$GNGGA,140049.00,4843.26068,N,00920.55576,E,1,12,0.50,244.8,M,47.6,M,,*4D
$GPGSV,4,1,13,04,08,319,33,05,21,079,48,09,02,346,,11,00,034,,1*6D
$GPGSV,4,2,13,12,00,117,,16,18,298,,18,48,173,43,20,16,043,41,1*69
$GPGSV,4,3,13,25,34,123,50,26,47,298,35,28,45,222,42,29,65,058,41,1*69
$GPGSV,4,4,13,31,51,259,,1*5E
$GLGSV,2,1,08,69,06,323,36,70,08,022,34,76,18,141,52,77,66,146,39,1*77
$GLGSV,2,2,08,78,48,318,32,86,26,039,44,87,75,046,34,88,40,215,46,1*70
$GAGSV,3,1,11,02,33,298,34,03,03,245,,07,05,340,,08,12,292,,7*73
$GAGSV,3,2,11,10,59,085,45,11,58,145,42,12,41,055,40,16,65,113,48,7*71
$GAGSV,3,3,11,24,37,115,45,25,87,338,34,36,20,190,37,7*49
$GBGSV,3,1,09,02,01,102,,05,16,123,44,08,31,068,43,13,31,077,45,1*7D
$GBGSV,3,2,09,17,11,143,,26,41,303,38,29,83,104,43,30,28,056,44,1*7C
$GBGSV,3,3,09,36,23,152,45,1*4C
$GNRMC,140050.00,A,4843.26068,N,00920.55576,E,0.013,,080225,,,A,V*15
$GNGGA,140050.00,4843.26068,N,00920.55576,E,1,12,0.50,244.9,M,47.6,M,,*44
$GPGSV,4,1,13,04,08,319,32,05,21,079,48,09,02,346,,11,00,034,,1*6C
$GPGSV,4,2,13,12,00,117,,16,18,298,,18,48,173,44,20,16,043,41,1*6E
$GPGSV,4,3,13,25,34,123,50,26,47,298,36,28,45,222,42,29,65,058,41,1*6A
$GPGSV,4,4,13,31,51,259,,1*5E
$GLGSV,2,1,08,69,06,323,35,70,08,022,34,76,18,141,52,77,66,146,39,1*74
$GLGSV,2,2,08,78,48,318,32,86,26,039,44,87,75,046,35,88,40,215,45,1*72
$GAGSV,3,1,11,02,33,298,34,03,03,245,,07,05,340,,08,12,292,,7*73
$GAGSV,3,2,11,10,59,085,44,11,58,145,41,12,41,055,40,16,65,113,48,7*73
$GAGSV,3,3,11,24,37,115,45,25,87,338,33,36,20,190,37,7*4E
$GBGSV,3,1,09,02,01,102,,05,16,123,44,08,31,068,43,13,31,077,45,1*7D
$GBGSV,3,2,09,17,11,143,,26,41,303,38,29,83,104,43,30,28,056,44,1*7C
$GNRMC,140051.00,A,4843.26068,N,00920.55577,E,0.015,,080225,,,A,V*13
$GNGGA,140051.00,4843.26068,N,00920.55577,E,1,12,0.50,245.0,M,47.6,M,,*4C
$GPGSV,4,1,13,04,08,319,32,05,21,079,48,09,02,346,,11,00,034,,1*6C
$GPGSV,4,2,13,12,00,117,,16,18,298,,18,48,173,44,20,16,043,41,1*6E
$GPGSV,4,3,13,25,34,123,50,26,47,298,36,28,45,222,42,29,65,058,41,1*6A
$GPGSV,4,4,13,31,51,259,,1*5E
$GLGSV,2,1,08,69,06,323,35,70,08,022,34,76,18,141,52,77,66,146,38,1*75
$GLGSV,2,2,08,78,48,318,32,86,26,039,44,87,75,046,37,88,40,215,45,1*70
$GAGSV,3,1,11,02,33,298,34,03,03,245,,07,05,340,,08,12,292,,7*73
$GAGSV,3,2,11,10,59,085,44,11,58,145,41,12,41,055,40,16,65,113,48,7*73
$GAGSV,3,3,11,24,37,115,45,25,87,338,34,36,20,190,37,7*49
$GBGSV,3,1,09,02,01,102,,05,16,123,45,08,31,068,43,13,31,077,45,1*7C
$GNRMC,140052.00,A,4843.26068,N,00920.55579,E,0.018,,080225,,,A,V*13
$GNGGA,140052.00,4843.26068,N,00920.55579,E,1,12,0.50,245.0,M,47.6,M,,*41
$GPGSV,4,1,13,04,08,319,32,05,21,079,48,09,02,346,,11,00,034,,1*6C
$GPGSV,4,2,13,12,00,117,,16,18,298,,18,48,173,44,20,16,043,41,1*6E
$GPGSV,4,3,13,25,34,123,49,26,47,298,36,28,45,222,42,29,65,058,41,1*62
$GPGSV,4,4,13,31,51,259,,1*5E
$GLGSV,2,1,08,69,06,323,35,70,08,022,35,76,18,141,52,77,66,146,38,1*74
$GLGSV,2,2,08,78,48,318,32,86,26,039,44,87,75,046,37,88,40,215,46,1*73
$GAGSV,3,1,11,02,33,298,34,03,03,245,,07,05,340,,08,12,292,,7*73
$GAGSV,3,2,11,10,59,085,44,11,58,145,41,12,41,055,40,16,65,113,48,7*73
$GAGSV,3,3,11,24,37,115,44,25,87,338,33,36,20,190,37,7*4F
$GBGSV,,1,09,02,01,102,,05,16,123,44,08,31,068,43,13,31,077,45,1*7D
$GBGSV,3,2,09,17,11,143,,26,41,303,37,29,83,104,43,30,28,056,44,1*73
$GNRMC,140053.00,A,4843.26068,N,00920.55580,E,0.007,,080225,,,A,V*1A
$GNGGA,140053.00,4843.26068,N,00920.55580,E,1,12,0.50,245.1,M,47.6,M,,*47
$GPGSV,4,1,13,04,08,319,32,05,21,079,47,09,02,346,,11,00,034,,1*63
$GPGSV,4,2,13,12,00,117,,16,18,298,,18,48,173,44,20,16,043,41,1*6E
$GPGSV,4,4,13,31,51,259,,1*5E
$GLGSV,2,1,08,69,06,323,34,70,08,022,34,76,18,141,52,77,66,146,39,1*75
$GLGSV,2,2,08,78,48,318,32,86,26,039,44,87,75,046,38,88,40,215,45,1*7F
$GAGSV,3,1,11,02,33,298,35,03,03,245,,07,05,340,,08,12,292,,7*72
$GAGSV,3,2,11,10,59,085,44,11,58,145,41,12,41,055,40,16,65,113,49,7*72
$GAGSV,3,3,11,24,37,115,44,25,87,33,33,36,20,190,36,7*4E
$GBGSV,3,1,09,02,01,102,,05,16,123,44,08,31,068,43,13,31,077,45,1*7D
$GNRMC,140054.00,A,4843.26068,N,00920.55582,E,0.006,,080225,,,A,V*1E
$GNGGA,140054.00,4843.26068,N,00920.55582,E,1,12,0.50,245.1,M,47.6,M,,*42
$GPGSV,4,1,13,04,08,319,32,05,21,079,47,09,02,346,,11,00,034,,1*63
$GPGSV,4,2,13,12,00,117,,16,18,298,,18,48,173,44,20,16,043,41,1*6E
$GPGSV,4,3,13,25,34,123,49,26,47,298,37,28,45,222,42,29,65,058,41,1*63
$GPGSV,4,4,13,31,51,259,,1*5E
$GLGSV,2,1,08,69,06,323,34,70,08,022,34,76,18,142,52,77,66,146,40,1*78
$GLGSV,2,2,08,78,48,318,33,86,26,039,44,87,75,046,37,88,40,215,46,1*72
$GAGSV,3,1,11,02,33,298,35,03,03,245,,07,05,340,,08,12,292,,7*72
$GAGSV,3,2,11,10,59,085,44,11,58,145,41,12,41,055,40,16,65,113,48,7*73
$GAGSV,3,3,11,24,37,115,44,25,87,338,33,36,20,190,36,7*4E
$GBGSV,3,1,09,02,01,102,,05,16,123,44,08,31,068,43,13,31,077,45,1*7D
$GBGSV,3,2,09,17,11,143,,26,41,303,37,29,83,104,43,30,28,056,44,1*73
$GNRMC,140055.00,A,4843.26069,N,00920.55584,E,0.016,,080225,,,A,V*19
$GNGGA,140055.00,4843.26069,N,00920.55584,E,1,12,0.50,245.1,M,47.6,M,,*44
$GPGSV,4,1,13,04,08,319,32,05,21,079,47,09,02,346,,11,00,034,,1*63
$GPGSV,4,2,13,12,00,117,,16,18,298,,18,48,173,45,20,16,043,42,1*6C
$GPGSV,4,3,13,25,34,123,49,26,47,298,37,28,45,222,42,29,65,058,41,1*63
$GPGSV,4,4,13,31,51,259,,*5E
$GLGSV,2,1,08,69,06,323,33,70,08,022,35,76,18,142,52,77,65,146,40,1*7D
$GLGSV,2,2,08,78,48,318,33,86,26,039,44,87,75,046,38,88,40,215,45,1*7E
$GAGSV,3,1,11,02,33,298,34,03,03,245,,07,05,340,,08,12,292,,7*73
$GAGSV,3,2,11,10,59,085,44,11,58,145,41,12,41,055,40,16,65,113,48,7*73
$GAGSV,3,3,11,24,37,115,44,25,87,338,33,36,20,190,36,7*4E
$GBGSV,3,1,09,02,01,102,,05,16,123,44,08,31,068,43,13,31,077,45,1*7D
$GNRMC,140056.00,A,4843.26069,N,00920.55585,E,0.004,,080225,,,A,V*18
$GNGGA,140056.00,4843.26069,N,00920.55585,E,1,12,0.50,245.2,M,47.6,M,,*45
$GPGSV,4,1,13,04,08,319,33,05,21,079,47,09,02,346,,11,00,034,,1*62
$GPGSV,4,2,13,12,00,117,,16,18,298,,18,48,173,45,20,16,043,42,1*6C
$GPGSV,4,3,13,25,34,123,49,26,47,298,36,28,45,222,42,29,65,058,41,1*62
$GPGSV,4,4,13,31,51,259,,1*5E
$GLGSV,2,1,08,69,06,323,25,70,08,022,34,76,18,142,52,77,65,146,40,1*7B
$GLGSV,2,2,08,78,49,318,34,86,26,039,44,87,75,046,37,88,40,215,46,1*74
$GAGSV,3,1,11,02,33,298,34,03,03,245,,07,05,340,,08,12,292,,7*73
$GAGSV,3,2,11,10,59,085,43,11,58,145,40,12,41,055,40,16,65,113,48,7*75
$GAGSV,3,3,11,24,37,115,44,25,87,338,33,36,20,190,36,7*4E
$GBGSV,3,1,09,02,01,102,,05,16,123,44,08,31,068,43,13,31,077,45,1*7D
$GBGSV,3,2,09,17,11,143,,26,41,303,37,29,83,104,43,30,28,056,44,1*73
$GNRMC,140057.00,A,4843.26069,N,00920.55586,E,0.012,,080225,,,A,V*1D
$GNGGA,140057.00,4843.26069,N,00920.55586,E,1,12,0.50,245.2,M,47.6,M,,*47
$GPGSV,4,1,13,04,08,319,34,05,21,079,46,09,02,346,,11,00,034,,1*64
$GPGSV,4,2,13,12,00,117,,16,18,298,,18,48,173,45,20,16,043,42,1*6C
$GPGSV,4,3,13,25,34,123,49,26,47,298,36,28,45,222,42,29,65,058,41,1*62
$GPGSV,4,4,13,31,51,259,,1*5E
$GLGSV,3,1,09,69,06,323,33,70,08,022,34,76,18,142,53,77,65,146,40,1*7D
$GLGSV,3,2,09,78,49,318,35,79,00,320,,86,26,039,44,87,75,046,34,1*79
$GLGSV,3,3,09,88,40,215,45,1*42
$GAGSV,3,1,11,02,33,298,34,03,03,245,,07,05,340,,08,12,292,,7*73
$GAGSV,3,2,11,10,59,085,44,11,58,145,41,12,41,055,40,16,65,113,48,7*73
$GAGSV,3,3,11,24,37,115,44,25,87,338,33,36,20,190,36,7*4E
$GBGSV,3,1,09,02,01,102,,05,16,123,44,08,31,068,43,13,31,077,45,1*7D
$GNGGA,140058.00,4843.26069,N,00920.55588,E,1,12,0.50,245.2,M,47.6,M,,*46
$GPGSV,4,1,13,04,08,319,33,05,21,079,46,09,02,346,,11,00,034,,1*63
$GPGSV,4,2,13,12,00,117,,16,18,298,,18,48,173,45,20,16,043,41,1*6F
$GPGSV,4,3,13,25,34,123,49,26,47,298,35,28,45,222,43,29,65,058,41,1*60
$GPGSV,4,4,13,31,51,259,,1*5E
$GLGSV,3,1,09,69,06,323,23,70,08,022,35,76,18,142,53,77,65,146,40,1*7D
$GLGSV,3,2,09,78,49,318,36,79,00,320,,86,26,039,44,87,75,046,37,1*79
$GLGSV,3,3,09,88,40,215,45,1*42
$GAGSV,3,1,11,02,33,298,34,03,03,245,,07,05,340,,08,12,292,,7*73
$GAGSV,3,2,11,10,59,085,44,11,58,145,41,12,41,055,40,16,65,113,49,7*72
$GAGSV,3,3,11,24,37,115,44,25,87,338,33,36,20,190,37,7*4F
$GNRMC,140059.00,A,4843.26069,N,00920.55589,E,0.020,,080225,,,A,V*1D
$GNGGA,1400500,4843.26069,N,00920.55589,E,1,12,0.50,245.2,M,47.6,M,,*46
$GPGSV,4,1,13,04,08,319,34,05,21,079,46,09,02,346,,11,00,034,,1*64
$GPGSV,4,2,13,12,00,117,,16,18,98,,18,48,173,46,20,16,043,41,1*6C
$GPGSV,4,3,13,25,34,123,48,26,47,298,35,28,45,222,42,29,65,058,41,1*60
$GPGSV,4,4,13,31,51,259,,1*5E
$GLGSV,3,1,09,69,06,323,32,70,08,022,35,76,18,142,53,77,65,146,40,1*7D
$GLGSV,3,2,09,78,49,318,37,79,00,320,,86,26,039,44,87,75,046,38,1*77
$GLGSV,3,3,09,88,40,215,45,1*42
$GAGSV,3,1,11,02,33,298,34,03,03,245,,07,05,340,,08,12,292,,7*73
$GAGSV,3,3,11,24,37,115,44,25,87,338,33,36,20,190,36,7*4E
$GBGSV,3,1,09,02,01,102,,05,16,123,44,08,31,068,43,13,31,077,46,1*7E
$GBGSV,3,2,09,17,11,143,,26,41,303,37,29,83,104,43,30,28,056,44,1*73
$GNRMC,140100.00,A,4843.26069,N,00920.55591,E,0.006,,080225,,,A,V*1D
$GNGGA,140100.00,4843.26069,N,00920.55591,E,1,12,0.50,245.2,M,47.6,M,,*42
$GPGSV,4,1,13,04,08,319,34,05,21,079,46,09,02,346,,11,00,034,,1*64
$GPGSV,4,2,13,12,00,117,,16,18,298,,18,48,173,45,20,16,043,41,1*6F
$GPGSV,4,3,13,25,34,123,48,26,47,298,35,28,45,222,43,29,65,058,41,1*61
$GPGSV,4,4,13,31,51,259,,1*5E
$GLGSV,3,1,09,69,06,323,31,70,08,022,35,76,18,142,52,77,65,146,40,1*7F
$GLGSV,3,2,09,78,49,318,37,79,00,320,,86,26,039,44,87,75,046,38,1*77
$GLGSV,3,3,09,88,40,215,46,1*41
$GNRMC,140101.00,A,4843.26069,N,00920.55591,E,0.028,,080225,,,A,V*10
$GNGGA,140101.00,4843.26069,N,00920.55591,E,1,12,0.50,245.2,M,47.6,M,,*43
$GPGSV,4,1,13,04,08,319,35,05,21,079,46,09,02,346,,11,00,034,,1*65
$GPGSV,4,2,13,12,00,117,,16,18,298,,18,48,173,46,20,16,043,41,1*6C
$GPGSV,4,3,13,25,34,123,48,26,47,298,34,28,45,222,42,29,65,058,41,1*61
$GPGSV,4,4,13,31,51,259,,1*5E
$GLGSV,3,1,09,69,06,323,31,70,08,022,35,76,18,142,52,77,65,146,36,1*7E
$GLGSV,3,2,09,78,49,318,37,79,00,320,,86,26,039,44,87,75,046,38,1*77
$GLGSV,3,3,09,88,40,215,44,1*43
$GAGSV,3,1,11,02,33,298,35,03,03,245,,07,05,340,,08,12,292,,7*72
$GAGSV,3,2,11,10,59,085,44,11,58,145,40,12,41,055,40,16,65,113,50,7*7B
$GAGSV,3,3,11,24,37,115,46,25,87,338,34,36,20,190,35,7*48
$GNRMC,140102.00,A,4843.26070,N,00920.55591,E,0.010,,080225,,,A,V*10
$GNGGA,140102.00,4843.26070,N,00920.55591,E,1,12,0.50,245.2,M,47.6,M,,*48
$GPGSV,4,1,13,04,08,319,34,05,21,079,46,09,02,346,,11,00,034,,1*64
$GPGSV,4,2,13,12,00,117,,16,18,298,,18,48,173,46,20,16,043,40,1*6D
$GPGSV,4,3,13,25,34,123,48,26,47,298,35,28,45,222,42,29,65,058,41,1*60
$GPGSV,4,4,13,31,51,259,,1*5E
$GLGSV,3,1,09,69,06,323,33,70,08,022,36,76,18,142,53,77,65,146,39,1*71
$GLGSV,3,2,09,78,49,318,37,79,00,320,,86,26,039,44,87,75,046,39,1*76
$GLGSV,3,3,09,88,40,215,44,1*43
$GAGSV,3,1,11,02,33,298,35,03,03,245,,07,05,340,,0,12,292,,7*72
$GAGSV,3,2,11,10,59,085,45,11,58,145,41,12,41,055,40,16,65,113,49,7*73
$GAGSV,3,3,11,24,37,115,45,25,87,338,34,36,20,190,35,7*4B
$GBGSV,3,1,09,02,01,102,,05,16,123,45,08,31,068,43,13,31,077,45,1*7C
$GNRMC,140103.00,A,4843.26069,N,00920.55592,E,0.023,,080225,,,A,V*1A
$GNGGA,140103.00,4843.26069,N,00920.55592,E,1,12,0.50,245.2,M,47.6,M,,*42
$GPGSV,4,1,13,04,08,319,35,05,21,079,47,09,02,346,,11,00,034,,1*64
$GPGSV,4,2,13,12,00,117,,16,18,298,,18,48,173,46,20,16,043,40,1*6D
$GPGSV,4,3,13,25,34,123,48,26,47,298,35,28,45,222,42,29,6,058,41,1*60
$GPGSV,4,4,13,31,51,259,,1*5E
$GLGSV,3,1,09,69,06,323,33,70,08,022,36,76,18,142,53,77,65,146,36,1*7E
$GLGSV,3,2,09,78,49,318,37,79,00,320,,86,26,039,44,87,75,046,39,1*76
$GLGSV,3,3,09,88,40,215,43,1*44
$GAGSV,3,1,11,02,33,298,35,03,03,245,,07,05,340,,08,12,292,,7*72
$GAGSV,3,2,11,10,59,085,45,11,58,145,41,12,41,055,40,16,65,113,49,7*73
$GAGSV,3,3,11,24,37,115,44,25,87,338,34,36,20,190,35,7*4A
$GNRMC,140104.00,A,4843.26069,N,00920.55594,E,0.016,,080225,,,A,V*1D
$GNGGA,140104.00,4843.26069,N,00920.55594,E,1,12,0.50,245.2,M,47.6,M,,*43
$GPGSV,4,1,13,04,08,319,34,05,21,079,47,09,02,346,,11,00,034,,1*65
$GPGSV,4,2,13,12,00,117,,16,18,298,,18,48,173,46,20,16,043,41,1*6C
$GPGSV,4,3,13,25,34,123,48,26,47,298,35,28,45,222,42,29,65,058,41,1*60
$GPGSV,4,4,13,31,51,259,,1*5E
$GLGSV,3,1,09,69,06,323,35,70,08,022,35,76,18,142,52,77,65,146,39,1*75
$GLGSV,3,2,09,78,49,318,36,79,00,320,,86,25,039,45,87,75,046,39,1*75
$GLGSV,3,3,09,88,40,215,43,1*44
$GAGSV,3,1,11,02,33,298,34,03,03,245,,07,05,340,,08,12,292,,7*73
$GAGSV,3,2,11,10,59,085,45,11,58,145,40,12,41,055,40,16,65,113,50,7*7A
$GAGSV,3,3,11,24,37,115,46,25,87,338,34,36,20,190,35,7*48
$GBGSV,3,1,09,02,01,102,,05,16,123,45,08,31,068,43,13,31,077,46,1*7F
$GNGGA,140105.00,4843.26069,N,00920.55594,E,1,12,0.50,245.2,M,47.6,M,,*42
$GPGSV,4,1,13,04,08,319,35,05,21,079,47,09,02,346,,11,00,034,,1*64
$GPGSV,4,2,13,12,00,117,,16,18,298,,18,48,173,45,20,16,043,41,1*6F
$GPGSV,4,3,13,25,34,123,48,26,47,298,35,28,45,222,42,29,65,058,42,1*63
$GPGSV,4,4,13,31,51,259,,1*5E
$GLGSV,3,1,09,69,06,323,35,70,08,022,35,76,18,142,52,77,65,146,36,1*7A
$GLGSV,3,2,09,78,49,318,37,79,00,320,,86,25,039,45,87,75,045,39,1*77
$GLGSV,3,3,09,88,40,215,43,1*44
$GAGSV,3,1,11,02,33,298,34,03,03,245,,07,05,340,,08,12,292,,7*73
$GAGSV,3,2,11,10,59,085,44,11,58,145,40,12,41,055,40,16,65,113,49,7*73
$GAGSV,3,3,11,24,37,115,46,25,87,338,34,36,20,190,35,7*48
$GBGSV,3,1,09,02,01,102,,05,16,123,45,08,31,068,43,13,31,077,45,1*7C
$GNRMC,140106.00,A,4843.26069,N,00920.55595,E,0.025,,080225,,,A,V*1E
$GNGGA,140106.00,4843.26069,N,00920.55595,E,1,12,0.50,245.2,M,47.6,M,,*40
$GPGSV,4,1,13,04,08,319,34,05,21,079,48,09,02,346,,11,00,034,,1*6A
$GPGSV,4,2,13,12,00,117,,16,18,298,,18,48,173,45,20,16,043,41,1*6F
$GPGSV,4,3,13,25,34,123,47,26,47,298,34,28,45,222,42,29,65,058,42,1*6D
$GLGSV,3,1,09,69,06,323,34,70,08,022,35,76,18,142,52,77,65,146,39,1*74
$GLGSV,3,2,09,78,49,318,36,79,00,320,,86,25,039,45,87,75,045,39,1*76
$GLGSV,3,3,09,88,40,215,44,1*43
$GAGSV,3,1,11,02,33,298,34,03,03,245,,07,05,340,,08,12,292,,7*73
$GAGSV,3,2,11,10,59,085,45,11,58,145,40,12,41,055,40,16,65,113,49,7*72
$GAGSV,3,3,11,24,37,115,46,25,87,338,34,36,20,190,35,7*48
$GNRMC,140107.00,A,4843.26069,N,00920.55595,E,0.008,,080225,,,A,V*10
$GNGGA,140107.00,4843.26069,N,00920.55595,E,1,12,0.50,245.2,M,47.6,M,,*41
$GPGSV,4,1,13,04,08,319,35,05,21,079,48,09,02,346,,11,00,034,,1*6B
$GPGSV,4,2,13,12,00,117,,16,18,298,,18,48,173,46,20,16,043,41,1*6C
$GPGSV,4,3,13,25,34,123,48,26,47,298,35,28,45,222,42,29,65,058,42,1*63
$GPGSV,4,4,13,31,51,259,,1*5E
$GLGSV,3,1,09,69,06,323,34,70,08,022,35,76,18,142,52,77,65,146,36,1*7B
$GLGSV,3,2,09,78,49,318,36,79,00,320,,86,25,039,44,87,75,045,39,1*77
$GLGSV,3,3,09,88,40,215,44,1*43
$GAGSV,3,1,11,02,33,298,34,03,03,245,,07,05,340,,08,12,292,,7*73
$GAGSV,3,2,11,10,59,085,45,11,8,145,40,12,41,055,40,16,65,113,49,7*72
$GAGSV,3,3,11,24,37,115,46,25,87,338,34,36,20,190,34,7*49
$GBGSV,3,1,09,02,01,102,,05,16,123,45,08,31,068,43,13,31,077,46,1*7F
$GNRMC,140108.00,A,4843.26068,N,00920.55596,E,0.014,,080225,,,A,V*10
$GNGGA,140108.00,4843.26068,N,00920.55596,E,1,12,0.50,245.2,M,47.6,M,,*4C
$GPGSV,4,1,13,04,08,319,35,05,21,079,48,09,02,346,,11,00,034,,1*6B
$GPGSV,4,2,13,12,00,117,,16,18,298,,18,48,173,45,20,16,043,41,1*6F
$GPGSV,4,3,13,25,34,123,48,26,47,298,35,28,45,222,42,29,65,058,42,1*63
$GPGSV,4,4,13,31,51,259,,1*5E
$GLGSV,3,1,09,69,06,323,35,70,08,022,35,76,18,142,52,77,65,146,39,1*75
$GLGSV,3,2,09,78,49,318,36,79,00,320,,86,25,039,44,87,75,045,39,1*77
$GLGSV,3,3,09,88,40,215,44,1*43
$GAGSV,3,1,11,02,33,298,34,03,03,245,,07,05,340,,08,12,292,,7*73
$GAGSV,3,2,11,10,59,085,44,11,58,145,39,12,41,055,40,16,65,113,49,7*7D
$GAGSV,3,3,11,24,37,115,46,25,87,338,34,36,20,190,33,7*4E
$GBGSV,3,1,09,02,01,102,,05,16,123,45,08,31,068,43,13,31,077,45,1*7C
$GNRMC,140109.00,A,4843.26067,N,00920.55595,E,0.040,,080225,,,A,V*1C
$GNGGA,140109.00,4843.26067,N,00920.55595,E,1,12,0.50,245.2,M,47.6,M,,*41
$GPGSV,4,1,13,04,08,319,36,05,21,079,49,09,02,346,,11,00,034,,1*69
$GPGSV,4,2,13,12,00,117,,16,18,298,,18,48,173,45,20,16,043,41,1*6F
$GPGSV,4,3,13,25,34,123,48,26,47,298,35,28,45,222,42,29,65,058,42,1*63
$GPGSV,4,4,13,31,51,259,,1*5E
$GLGSV,3,1,09,69,06,323,35,70,08,022,36,76,18,142,51,77,65,146,38,1*74
$GLGSV,3,2,09,78,49,318,36,79,00,320,,86,25,039,44,87,75,045,41,1*78
$GLGSV,3,3,09,88,40,215,45,1*42
$GAGSV,3,1,11,02,33,298,34,03,03,245,,07,05,340,,08,12,292,,7*73
$GAGSV,3,2,11,10,59,085,44,11,58,145,39,12,41,055,40,16,65,113,48,7*7C
$GAGSV,3,3,11,24,37,115,46,25,87,338,34,36,20,190,33,7*4E
$GBGSV,3,1,09,02,01,102,,05,16,123,45,08,31,068,43,13,31,077,45,1*7C
$GNRMC,140110.00,A,4843.26066,N,00920.55595,E,0.005,,080225,,,A,V*14
$GNGGA,140110.00,4843.26066,N,00920.55595,E,1,12,0.50,245.2,M,47.6,M,,*48
$GPGSV,4,1,13,04,08,319,36,05,21,079,49,09,02,346,,11,00,034,,1*69
$GPGSV,4,2,13,12,00,117,,16,18,298,,18,48,173,46,20,16,043,41,1*6C
$GPGSV,4,3,13,25,34,123,48,26,47,298,35,28,45,222,43,29,65,058,43,1*63
$GPGSV,4,4,13,31,51,259,,1*5E
$GLGSV,3,1,09,69,06,323,35,70,08,022,36,76,18,142,52,77,65,146,39,1*76
