$GNRMC,170000.00,A,4843.26015,N,00920.55646,E,0.013,,080225,,,A,V*19
$GNGGA,170000.00,4843.26015,N,00920.55646,E,1,12,0.48,251.4,M,47.6,M,,*48
$GPGSV,3,1,11,07,13,314,34,08,28,293,38,10,40,157,48,13,03,025,,1*6F
$GPGSV,3,2,11,15,12,056,,16,62,208,42,18,36,059,46,23,53,093,40,1*65
$GPGSV,3,3,11,26,35,183,46,27,65,300,40,30,01,344,,1*5E
$GLGSV,3,1,09,65,29,089,43,66,07,134,,72,19,028,38,78,19,193,36,1*79
$GLGSV,3,2,09,79,52,247,41,80,32,322,34,81,63,302,44,82,21,264,38,1*7F
$GLGSV,3,3,09,88,46,052,48,1*48
$GAGSV,3,1,11,02,65,215,40,04,06,068,33,06,02,092,,10,08,056,29,7*70
$GAGSV,3,2,11,11,35,056,43,16,02,153,,19,04,016,,25,24,161,44,7*7E
$GAGSV,3,3,11,30,39,306,40,34,37,236,36,36,88,043,39,7*42
$GNRMC,170001.00,A,4843.26016,N,00920.55648,E,0.007,,080225,,,A,V*10
$GNGGA,170001.00,4843.26016,N,00920.55648,E,1,12,0.48,251.5,M,47.6,M,,*45
$GPGSV,3,1,11,07,13,314,34,08,28,293,38,10,40,157,48,13,03,025,,1*6F
$GPGSV,3,2,11,15,12,056,,16,62,208,42,18,36,059,46,23,53,093,40,1*65
$GPGSV,3,3,11,26,35,183,46,27,65,300,39,30,01,344,,1*50
$GLGSV,3,1,09,65,29,089,42,66,07,134,,72,19,028,39,78,19,193,34,1*7B
$GLGSV,3,2,09,79,52,247,41,80,32,322,38,81,63,302,44,82,21,264,37,1*7C
$GLGSV,3,3,09,88,45,053,48,1*4A
$GAGSV,3,1,11,02,65,215,40,04,06,068,33,06,02,092,,10,08,056,29,7*70
$GAGSV,3,2,11,11,35,056,43,16,02,153,,19,04,016,,25,24,161,43,7*79
$GAGSV,3,3,11,30,39,306,40,34,37,236,36,36,88,043,39,7*42
$GBGSV,3,1,12,02,03,100,38,05,18,122,43,08,30,036,36,12,25,269,,1*74
$GNRMC,170002.00,A,4843.26018,N,00920.55651,E,0.008,,080225,,,A,*1A
$GNGGA,170002.00,4843.26018,N,00920.55651,E,1,12,0.48,251.6,M,47.6,M,,*43
$GPGSV,3,1,11,07,13,314,34,08,29,293,38,10,40,1549,13,03,025,,1*6F
$GPGSV,3,2,11,15,12,056,,16,62,208,42,18,36,059,46,23,53,093,40,1*65
$GPGSV,3,3,11,26,35,183,46,27,65,300,39,30,01,344,,1*50
$GLGSV,3,1,09,65,29,089,43,66,07,134,,72,19,08,39,78,19,193,33,1*7D
$GLGSV,3,2,09,79,52,247,39,80,32,322,34,81,63,302,44,82,21,264,37,1*7F
$GLGSV,3,3,09,88,45,053,48,1*4A
$GAGSV,3,1,11,02,65,215,40,04,06,068,34,06,02,092,,10,08,056,29,7*77
$GAGSV,3,2,11,11,35,056,43,16,02,153,,19,04,016,,25,24,161,43,7*79
$GAGSV,3,3,11,30,39,306,40,34,37,236,36,36,88,043,39,7*42
$GBGSV,3,1,12,02,03,100,38,05,18,122,43,08,30,036,36,12,25,269,,1*74
$GNRMC,170003.00,A,4843.26020,N,00920.55650,E,0.013,,080225,,,A,V*1B
$GNGGA,170003.00,4843.26020,N,00920.55650,E,1,12,0.53,251.6,M,47.6,M,,*42
$GPGSV,3,1,11,07,13,314,34,08,29,293,38,10,40,157,49,13,03,025,,1*6F
$GPGSV,3,2,11,15,12,056,,16,62,208,42,18,36,059,46,23,53,093,40,1*65
$GPGSV,3,3,11,26,35,183,46,27,65,300,39,30,01,344,,1*50
$GLGSV,3,1,09,65,29,089,43,66,07,134,,72,19,028,39,78,19,193,30,1*7E
$GLGSV,3,2,09,79,52,247,40,80,32,322,38,81,63,302,44,82,21,264,36,1*7C
$GLGSV,3,3,09,88,45,053,48,1*4A
$GAGSV,3,1,11,02,65,215,40,04,06,068,34,06,02,092,,10,08,056,29,7*77
$GAGSV,3,2,11,11,35,056,43,16,02,153,,19,04,016,,25,24,161,43,7*79
$GAGSV,3,3,11,30,39,306,40,34,37,236,36,36,88,043,39,7*42
$GBGSV,3,1,12,02,03,100,38,05,18,122,43,08,30,036,36,12,25,269,,1*74
$GNRMC,170004.00,A,4843.26021,N,00920.55651,E,0.002,,080225,,,A,V*1C
$GNGGA,170004.00,4843.26021,N,00920.55651,E,1,12,0.48,251.7,M,47.6,M,,*4E
$GPGSV,3,1,11,07,13,314,33,08,29,293,37,10,40,157,50,13,03,025,,1*6F
$GPGSV,3,2,11,15,12,056,,16,62,208,42,18,36,059,46,23,53,093,38,1*6A
$GPGSV,3,3,11,26,35,183,46,27,65,300,39,30,01,344,,1*50
$GLGSV,3,1,09,65,29,089,43,66,07,134,,7219,028,38,78,19,193,28,1*76
$GLGSV,3,2,09,79,52,247,39,80,32,322,38,81,63,302,44,82,21,264,37,1*73
$GLGSV,3,3,09,88,45,053,48,1*4A
$GAGSV,3,1,11,02,65,215,40,04,06,068,34,06,02,092,,10,08,056,29,7*77
$GAGSV,3,2,11,11,35,056,43,16,02,153,,19,04,016,,25,24,161,43,7*79
$GAGSV,3,3,11,30,39,306,40,34,37,236,36,36,88,043,38,7*43
$GBGSV,3,1,12,02,03,100,38,05,18,122,43,08,30,036,36,12,25,269,,1*74
$GNRMC,170005.00,A,4843.26023,N,00920.55651,E,0.015,,080225,,,A,V*19
$GNGGA,170005.00,4843.26023,N,00920.55651,E,1,12,0.48,251.7,M,47.6,M,,*4D
$GPGSV,3,1,11,07,13,314,32,08,29,293,37,10,40,157,49,13,03,025,,1*66
$GPGSV,3,2,11,15,12,056,,16,62,208,42,18,36,059,46,23,53,093,40,1*65
$GPGSV,3,3,11,26,35,183,46,27,65,300,39,30,01,344,,1*50
$GLGSV,3,1,09,65,29,089,43,66,07,134,,72,19,028,39,78,19,193,27,1*78
$GLGSV,3,2,09,79,52,247,39,80,32,322,34,81,63,302,44,82,21,264,36,1*7E
$GLGSV,3,3,09,88,4,053,47,1*45
$GAGSV,3,1,11,02,65,215,40,04,06,068,33,06,02,092,,10,08,056,29,7*70
$GAGSV,3,2,11,11,35,056,43,16,02,153,,19,04,016,,25,24,161,43,7*79
$GAGSV,3,3,11,30,39,306,40,34,37,236,37,36,88,043,38,7*42
$GNRMC,170006.00,A,4843.26024,N,00920.55651,E,0.016,,080225,,,A,V*1E
$GNGGA,170006.00,4843.26024,N,00920.55651,E,1,12,0.48,251.8,M,47.6,M,,*46
$GPGSV,3,1,11,07,13,314,31,08,29,293,37,10,40,157,50,13,03,025,,1*6D
$GPGSV,3,2,11,15,12,056,,16,62,208,42,18,36,059,46,23,53,093,40,1*65
$GPGSV,3,3,11,26,35,183,46,27,65,300,39,30,01,344,,1*50
$GLGSV,3,1,09,65,29,089,42,66,07,134,,72,19,028,38,78,19,193,23,1*7C
$GLGSV,3,2,09,79,52,247,39,80,32,322,37,81,63,302,44,82,21,264,36,1*7D
$GLGSV,3,3,09,88,45,053,48,1*4A
$GAGSV,3,1,11,02,65,215,40,04,06,068,33,06,02,092,,10,08,056,29,7*70
$GAGSV,3,2,11,11,35,056,43,16,02,153,,19,04,016,,25,24,161,43,7*79
$GAGSV,3,3,11,30,39,306,40,34,37,236,37,36,88,043,38,7*42
$GNRMC,170007.00,A,4843.26026,N,00920.55651,E,0.008,,080225,,,A,V*12
$GNGGA,170007.00,4843.26026,N,00920.55651,E,1,12,0.48,251.9,M,47.6,M,,*44
$GPGSV,3,1,11,07,13,314,30,08,29,293,37,10,40,157,50,13,03,025,,1*6C
$GPGSV,3,2,11,15,12,056,,16,62,208,42,18,36,059,46,23,53,093,40,1*65
$GPGSV,3,3,11,26,35,183,46,27,65,300,39,30,01,344,,1*50
$GLGSV,3,1,09,65,29,089,41,66,07,134,,72,19,028,39,78,19,193,20,1*7D
$GLGSV,3,2,09,79,52,247,39,80,32,322,37,81,63,302,44,82,21,264,36,1*7D
$GLGSV,3,3,09,88,45,053,48,1*4A
$GAGSV,3,1,11,02,65,215,40,04,06,068,33,06,02,092,,10,08,056,29,7*70
$GAGSV,3,2,11,11,35,056,43,16,02,153,,19,04,016,,25,24,161,43,7*79
$GAGSV,3,3,11,30,39,306,40,34,37,236,37,36,88,043,38,7*42
$GBGSV,3,1,12,02,03,100,37,05,18,122,43,08,30,036,36,12,25,269,,1*7B
$GNRMC,170008.00,A,4843.26027,N,00920.55651,E,0.006,,080225,,,A,V*12
$GNGGA,170008.00,4843.26027,N,00920.55651,E,1,12,0.48,251.9,M,47.6,M,,*4A
$GPGSV,3,1,11,07,13,314,29,08,29,293,37,10,40,157,50,13,03,025,,1*64
$GPGSV,3,2,11,15,12,056,,16,62,208,42,18,36,059,46,23,53,093,39,1*6B
$GPGSV,3,3,11,26,35,183,46,27,65,300,39,30,01,344,,1*50
$GLGSV,3,1,09,65,29,089,41,66,07,134,,72,19,028,39,78,19,193,20,1*7D
$GLGSV,3,2,09,79,52,247,39,80,32,322,37,81,63,302,45,8221,264,36,1*7C
$GLGSV,3,3,09,88,45,053,48,1*4A
$GAGSV,3,1,11,02,65,215,39,04,06,068,33,06,02,092,,10,08,056,29,7*7E
$GAGSV,3,2,11,11,35,056,43,16,02,153,,19,04,016,,25,24,161,43,7*79
$GAGSV,3,3,11,30,39,306,40,34,37,236,37,36,88,043,38,7*42
$GBGSV,3,1,12,02,03,100,37,05,18,122,43,08,30,036,36,12,25,269,,1*7B
$GNRMC,170009.00,A,4843.26028,N,00920.55652,E,0.052,,080225,,,A,V*1E
$GNGGA,170009.00,4843.26028,N,00920.55652,E,1,12,0.48,252.1,M,47.6,M,,*4C
$GPGSV,3,1,11,07,13,314,29,08,29,93,37,10,40,157,50,13,03,025,,1*64
$GPGSV,3,2,11,15,12,056,,16,62,208,41,18,36,059,46,23,53,093,39,1*68
$GPGSV,3,3,11,26,35,183,45,27,65,300,39,30,01,344,,1*53
$GLGSV,3,1,09,65,29,089,41,66,07,134,,72,19,028,39,78,19,193,22,1*7F
$GLGSV,3,2,09,79,52,247,39,80,32,322,38,81,63,302,45,82,21,264,36,1*73
$GLGSV,3,3,09,88,45,053,48,1*4A
$GAGSV,3,1,11,02,65,215,39,04,06,068,33,06,02,092,,10,08,056,29,7*7E
$GNRMC,170010.00,A,4843.26030,N,00920.55652,E,0.014,,080225,,,A,V*1D
$GNGGA,170010.00,4843.26030,N,00920.55652,E,1,12,0.48,252.2,M,47.6,M,,*4E
$GPGSV,3,1,11,07,13,314,28,08,29,293,37,10,40,157,50,13,03,025,,1*65
$GPGSV,3,2,11,15,12,056,,16,62,208,41,18,36,059,46,23,53,093,39,1*68
$GPGSV,3,3,11,26,35,183,46,27,65,300,39,30,01,344,,1*50
$GLGSV,3,1,09,65,29,089,40,66,07,134,,72,19,028,39,78,19,193,27,1*7B
$GLGSV,3,2,09,79,52,247,39,80,32,322,38,81,63,302,45,82,21,264,36,1*73
$GLGSV,3,3,09,88,45,053,47,1*45
$GAGSV,3,1,11,02,65,215,39,04,06,068,33,06,02,092,,10,08,056,30,7*76
$GAGSV,3,2,11,11,35,056,43,16,02,153,,19,04,016,,25,24,161,43,7*79
$GAGSV,3,3,11,30,39,306,40,34,37,236,37,36,88,043,38,7*42
$GBGSV,3,1,12,02,03,100,38,05,18,122,43,08,30,036,36,12,25,269,,1*74
$GNRMC,170011.00,A,4843.26031,N,00920.55651,E,0.032,,080225,,,A,V*1A
$GNGGA,170011.00,4843.26031,N,00920.55651,E,1,12,0.50,252.2,M,47.6,M,,*44
$GPGSV,3,1,11,07,13,314,28,08,29,293,35,10,40,157,50,13,03,025,,1*67
$GPGSV,3,2,11,15,12,056,,16,62,208,41,18,36,059,46,23,53,093,39,1*68
$GPGSV,3,3,11,26,35,183,46,27,65,300,39,30,01,344,,1*50
$GLGSV,3,1,09,65,29,089,40,66,07,134,,72,19,028,39,78,19,193,28,1*74
$GLGSV,3,2,09,79,52,247,39,80,32,322,38,81,63,302,45,82,21,264,36,1*73
$GLGSV,3,3,09,88,45,053,46,1*44
$GAGSV,3,1,11,02,65,215,40,04,06,068,32,06,02,092,,10,08,056,30,7*79
$GAGSV,3,2,11,11,35,056,43,16,02,153,,19,04,016,,25,24,161,43,7*79
$GAGSV,3,3,11,30,39,306,40,34,37,236,38,36,88,043,38,7*4D
$GBGSV,3,1,12,02,03,100,38,05,18,122,43,08,30,036,36,12,25,269,,1*74
$GNRMC,170012.00,A,4843.26032,N,00920.55650,E,0.024,,080225,,,A,V*1C
$GNGGA,170012.00,4843.26032,N,00920.55650,E,1,12,0.50,252.2,M,47.6,M,,*45
$GPGSV,3,1,11,07,13,314,29,08,29,293,36,10,41,156,50,13,03,025,,1*65
$GPGSV,3,2,11,15,12,056,,16,62,208,40,18,36,059,46,23,53,093,39,1*69
$GPGSV,3,3,11,26,35,183,46,27,65,300,39,30,01,344,,1*50
$GLGSV,3,1,09,65,29,089,40,66,07,134,,72,19,028,38,78,19,193,29,1*74
$GLGSV,3,2,09,79,52,247,39,80,32,322,38,81,63,302,45,82,21,264,37,1*72
$GLGSV,3,3,09,88,45,053,46,1*44
$GAGSV,3,1,11,02,65,215,39,04,06,068,32,06,02,092,,10,08,056,31,7*76
$GAGSV,3,2,11,11,35,056,43,16,02,153,,19,04,016,,25,24,161,43,7*79
$GAGSV,3,3,11,30,39,306,40,34,37,236,38,36,88,043,38,7*4D
$GNRMC,170013.00,A,4843.26033,N,00920.55650,E,0.010,,080225,,,A,V*1B
$GNGGA,170013.00,4843.26033,N,00920.55650,E,1,12,0.50,252.3,M,47.6,M,,*44
$GPGSV,3,1,11,07,13,314,29,08,29,293,37,10,41,156,50,13,03,025,,1*64
$GPGSV,3,2,11,15,12,056,,16,62,208,40,18,36,059,47,23,53,093,39,1*68
$GPGSV,3,3,11,26,35,183,46,27,65,300,39,30,01,344,,1*50
$GLGSV,3,1,09,65,29,089,40,66,07,134,,72,19,028,38,78,19,193,30,1*7C
$GLGSV,3,2,09,79,52,247,38,80,32,322,39,81,63,302,45,82,21,264,37,*72
$GLGSV,3,3,09,88,45,053,46,1*44
$GAGSV,3,1,11,02,65,215,39,04,06,068,31,06,02,092,,10,08,056,30,7*74
$GAGSV,3,2,11,11,35,056,43,16,02,153,,19,04,016,,25,24,161,43,7*79
$GAGSV,3,3,11,30,39,306,40,34,37,236,38,36,88,043,38,7*4D
$GBGSV,3,1,12,02,03,100,38,05,18,122,43,08,30,036,36,12,25,269,,1*74
$GNRMC,170014.00,A,4843.26034,N,00920.55650,E,0.051,,080225,,,A,V*1E
$GNGGA,170014.00,4843.26034,N,00920.55650,E,1,12,0.50,252.3,M,47.6,M,,*44
$GPGSV,3,1,11,07,13,314,30,08,29,293,36,10,41,156,50,13,03,025,,1*6D
$GPGSV,3,3,11,26,35,183,46,27,65,300,39,30,01,344,,1*50
$GLGSV,3,1,09,65,29,089,38,66,07,134,,72,19,028,39,78,19,193,31,1*73
$GLGSV,3,2,09,79,52,247,37,80,32,322,39,81,63,302,45,82,21,264,37,1*7D
$GLGSV,3,3,09,88,45,053,45,1*47
$GAGSV,3,1,11,02,65,215,39,04,06,068,30,06,02,092,,10,08,056,30,7*75
$GAGSV,3,2,11,11,35,056,43,16,02,153,,19,04,016,,25,24,161,43,7*79
$GAGSV,3,3,11,30,39,306,40,34,37,236,38,36,88,043,38,7*4D
$GBGSV,3,1,12,02,03,100,38,05,18,122,43,08,30,036,36,12,25,269,,1*74
$GNRMC,170015.00,A,4843.26036,N,00920.55650,E,0.032,,080225,,,A,V*18
$GNGGA,170015.00,4843.26036,N,00920.55650,E,1,12,0.50,252.3,M,47.6,M,,*47
$GPGSV,3,1,11,07,13,314,30,08,29,293,37,10,41,156,50,13,04,024,,1*6A
$GPGSV,3,2,11,15,12,056,,16,62,208,38,18,36,059,47,23,53,093,38,1*66
$GPGSV,3,3,11,26,35,183,46,27,65,300,40,30,01,344,,1*5E
$GLGSV,3,1,09,65,29,089,37,66,07,134,,72,19,028,39,78,19,193,31,1*7C
$GLGSV,3,2,09,79,52,247,37,80,32,322,38,81,63,302,45,82,21,264,38,1*73
$GLGSV,3,3,09,88,45,053,45,1*47
$GAGSV,3,1,11,02,65,215,39,04,06,068,30,06,02,092,,10,08,056,30,7*75
$GAGSV,3,2,11,11,35,056,43,16,02,153,,19,04,016,,25,24,161,43,7*79
$GAGSV,3,3,11,30,39,306,40,34,37,236,37,36,88,043,38,7*42
$GNRMC,170016.00,A,4843.26037,N,00920.55652,E,0.004,,080225,,,A,V*1D
$GNGGA,170016.00,4843.26037,N,00920.55652,E,1,12,0.48,252.4,M,47.6,M,,*49
$GPGSV,3,1,11,07,13,314,30,08,29,293,37,10,41,156,50,13,04,024,,1*6A
$GPGSV,3,2,11,15,12,056,,16,62,208,38,18,36,059,47,23,53,093,39,1*67
$GPGSV,3,3,11,26,35,183,46,27,65,300,40,30,01,344,,1*5E
$GLGSV,3,1,09,65,29,089,38,66,07,134,,72,19,028,39,78,19,193,31,1*73
$GLGSV,3,2,09,79,52,247,37,80,32,322,38,81,63,302,45,82,21,264,39,1*72
$GLGSV,3,3,09,88,45,053,44,1*46
$GAGSV,3,1,11,02,65,215,40,04,06,068,29,06,02,092,,10,08,056,30,7*73
$GAGSV,3,2,11,11,35,056,43,16,02,153,,19,04,016,,25,24,161,43,7*79
$GAGSV,3,3,11,30,39,306,40,34,37,236,37,36,88,043,38,7*42
$GNRMC,170017.00,A,4843.2603,N,00920.55653,E,0.020,,080225,,,A,V*14
$GNGGA,170017.00,4843.26038,N,00920.55653,E,1,12,0.50,252.5,M,47.6,M,,*4E
$GPGSV,3,1,11,07,13,314,30,08,29,293,37,10,41,156,50,13,04,024,,1*6A
$GPGSV,3,2,11,15,12,055,,16,62,208,38,18,36,059,47,23,53,093,39,1*64
$GPGSV,3,3,11,26,35,183,46,27,65,300,40,30,01,344,,1*5E
$GLGSV,3,1,09,65,29,089,38,66,07,134,,72,19,028,39,78,19,193,32,1*70
$GLGSV,3,2,09,79,52,247,37,80,32,322,38,81,63,302,45,82,21,264,39,1*72
$GLGSV,3,3,09,88,45,053,44,1*46
$GAGSV,3,1,11,02,65,215,40,04,06,068,29,06,02,092,,10,08,056,30,7*73
$GAGSV,3,2,11,11,35,056,43,16,02,153,,19,04,016,,25,24,161,43,7*79
$GAGSV,3,3,11,30,39,306,40,34,37,236,37,36,88,043,38,7*42
$GBGSV,3,1,12,02,03,100,37,05,18,122,43,08,30,036,36,12,25,269,,1*7B
$GNRMC,170018.00,A,4843.26039,N,00920.55655,E,0.033,,080225,,,A,V*1E
$GNGGA,170018.00,4843.26039,N,00920.55655,E,1,12,0.48,252.6,M,47.6,M,,*4C
$GPGSV,3,1,11,07,13,314,30,08,29,293,37,10,41,156,50,13,04,024,,1*6A
$GPGSV,3,2,11,15,12,055,,16,61,206,38,18,36,059,47,23,53,093,40,1*67
$GPGSV,3,3,11,26,35,183,46,27,65,300,41,30,01,344,,1*5F
$GLGSV,3,1,09,65,29,089,40,66,07,134,,72,19,028,39,78,19,193,33,1*7E
$GLGSV,3,2,09,79,52,247,37,80,32,322,38,81,63,302,45,82,21,264,39,1*72
$GLGSV,3,3,09,88,45,053,44,1*46
$GAGSV,3,1,11,02,65,215,40,04,06,068,29,06,02,092,,10,08,056,31,7*72
$GAGSV,3,2,11,11,35,056,43,16,02,153,,19,04,016,,25,24,161,43,7*79
$GAGSV,3,3,11,30,39,306,40,34,37,236,37,36,88,043,38,7*42
$GBGSV,3,1,12,02,03,100,37,05,18,122,43,08,30,036,36,12,25,269,,1*7B
$GNRMC,170019.00,A,4843.26040,N,00920.55658,E,0.016,,080225,,,A,V*1B
$GNGGA,170019.00,4843.26040,N,00920.55658,E,1,12,0.50,252.7,M,47.6,M,,*46
$GPGSV,3,1,11,07,13,314,29,08,29,293,35,10,41,156,50,13,04,024,,1*60
$GPGSV,3,2,11,15,12,055,,16,61,206,38,18,36,059,47,23,53,093,40,1*67
$GPGSV,3,3,11,26,35,183,46,27,65,300,41,30,01,344,,1*5F
$GLGSV,3,1,09,65,29,089,41,66,07,134,,72,19,028,39,78,19,193,34,1*78
$GLGSV,3,2,09,79,52,247,37,80,32,322,38,81,63,302,44,82,21,264,39,1*73
$GLGSV,3,3,09,88,45,053,44,1*46
$GNRMC,170020.00,A,4843.26040,N,00920.55659,E,0.025,,080225,,,A,V*10
$GNGGA,170020.00,4843.26040,N,00920.55659,E,1,12,0.48,252.8,M,47.6,M,,*4B
$GPGSV,3,2,11,15,12,055,,16,61,206,39,18,35,059,47,23,53,093,40,1*65
$GPGSV,3,3,11,26,35,183,46,27,65,300,41,30,01,344,,1*5F
$GLGSV,3,1,09,65,29,089,40,66,07,134,,72,19,028,39,78,19,193,36,1*7B
$GLGSV,3,2,09,79,52,247,37,80,32,322,37,81,63,302,44,82,21,264,39,1*7C
$GLGSV,3,3,09,88,45,053,45,1*47
$GAGSV,3,1,11,02,65,215,40,04,06,068,29,06,02,092,,10,08,056,30,7*73
$GAGSV,3,2,11,11,35,056,43,16,02,153,,19,04,016,,25,24,161,43,7*79
$GAGSV,3,3,11,30,39,306,40,34,37,236,37,36,88,043,37,7*4D
$GNRMC,170021.00,A,4843.26041,N,00920.55658,E,0.042,,080225,,,A,V*10
$GNGGA,170021.00,4843.26041,N,00920.55658,E,1,12,0.51,252.7,M,47.6,M,,*4D
$GPGSV,3,1,11,07,13,314,29,08,29,293,33,10,41,156,50,13,04,024,,1*66
$GPGSV,3,2,11,15,12,055,,16,61,206,39,18,35,059,47,23,53,093,40,1*65
$GPGSV,3,3,11,26,35,183,46,27,65,300,41,30,01,344,,1*5F
$GLGSV,3,1,09,65,29,089,42,66,07,134,,72,19,028,38,78,19,193,37,1*79
$GLGSV,3,2,09,79,52,247,40,80,32,322,37,81,63,302,44,82,21,264,34,1*71
$GLGSV,3,3,09,88,45,053,45,1*47
$GAGSV,3,1,11,02,65,215,40,04,06,068,29,06,02,092,,10,08,056,30,7*73
$GAGSV,3,2,11,11,35,056,43,16,02,153,,19,04,016,,25,24,161,43,7*79
$GAGSV,3,3,11,30,39,306,40,34,37,236,36,36,88,043,37,7*4C
$GBGSV,3,1,12,02,03,100,38,05,18,122,43,08,30,036,37,12,25,269,,1*75
$GNRMC,170022.00,A,4843.26043,N,00920.55658,E,0.017,,080225,,,A,V*11
$GNGGA,170022.00,4843.26043,N,00920.55658,E,1,12,0.50,252.8,M,47.6,M,,*42
$GPGSV,3,1,11,07,13,314,29,08,29,293,37,10,41,156,50,13,04,024,,1*62
$GPGSV,3,2,11,15,12,055,,16,61,206,39,18,35,059,46,23,53,093,41,1*65
$GPGSV,3,3,11,26,35,183,46,27,65,300,41,30,01,344,,1*5F
$GLGSV,3,1,09,65,29,089,41,66,07,134,,72,19,028,38,78,19,193,37,1*7A
$GLGSV,3,2,09,79,52,247,38,80,32,322,35,81,63,302,44,82,21,264,41,1*7E
$GLGSV,3,3,09,88,45,053,45,1*47
$GAGSV,3,1,11,02,65,215,0,04,06,068,29,06,02,092,,10,08,056,30,7*73
$GAGSV,3,2,11,11,35,056,43,16,02,153,,19,04,016,,25,24,161,43,7*79
$GAGSV,3,3,11,30,39,306,40,34,37,236,37,36,88,043,37,7*4D
$GBGSV,3,1,12,02,03,00,37,05,18,122,43,08,30,036,36,12,25,269,,1*7B
$GNRMC,170023.00,A,4843.26045,N,00920.55657,E,0.027,,080225,,,A,V*1A
$GNGGA,170023.00,4843.26045,N,00920.55657,E,1,12,0.50,252.7,M,47.6,M,,*45
$GPGSV,3,1,11,07,13,314,29,08,29,293,37,10,41,156,50,13,04,024,,1*62
$GPGSV,3,2,11,15,12,055,,16,61,206,39,18,35,059,46,23,53,093,41,1*65
$GPGSV,3,3,11,26,35,183,46,27,65,300,41,30,01,344,,1*5F
$GLGSV,3,1,09,65,29,089,41,66,07,134,,72,19,028,37,78,19,193,37,1*75
$GLGSV,3,2,09,79,52,247,37,80,32,322,36,81,63,302,44,82,21,264,41,1*72
$GLGSV,3,3,09,88,45,053,45,1*47
$GAGSV,3,1,11,02,65,215,40,04,06,068,28,06,02,092,,10,08,056,30,7*72
$GAGSV,3,2,11,11,35,056,43,16,02,153,,19,04,016,,25,24,161,43,7*79
$GAGSV,3,3,11,30,39,306,40,34,37,236,37,36,88,043,37,7*4D
$GBGSV,3,1,12,02,03,100,37,05,18,122,43,08,30,036,36,12,25,269,,1*7B
$GNRMC,170024.00,A,4843.26048,N,00920.55656,E,0.012,,080225,,,A,V*17
$GNGGA,170024.00,4843.26048,N,00920.55656,E,1,12,0.50,252.7,M,47.6,M,,*4E
$GPGSV,3,1,11,07,13,314,28,08,29,293,37,10,41,156,50,13,04,024,,1*63
$GPGSV,3,2,11,15,12,055,,16,61,206,39,18,35,059,46,23,53,092,41,1*64
$GPGSV,3,3,11,26,35,183,46,27,65,300,41,30,01,344,,1*5F
$GLGSV,3,1,09,65,29,089,41,66,07,134,,72,19,028,38,78,19,193,38,1*75
$GLGSV,3,2,09,79,52,247,37,80,32,322,36,81,63,302,44,82,21,264,42,1*71
$GLGSV,3,3,09,88,45,053,45,1*47
$GAGSV,3,1,11,02,65,215,40,04,06,068,28,06,02,092,,10,08,056,30,7*72
$GAGSV,3,2,11,11,35,056,43,16,02,153,,19,04,016,,25,24,161,43,7*79
$GAGSV,3,3,11,30,39,306,40,34,37,236,37,36,88,043,37,7*4D
$GBGSV,3,1,12,02,03,100,37,05,18,122,43,08,30,036,36,12,25,269,,1*7B
$GNRMC,170025.00,A,4843.26050,N,00920.55654,E,0.007,,080225,,,A,V*19
$GNGGA,170025.00,4843.26050,N,00920.55654,E,1,12,0.50,252.6,M,47.6,M,,*45
$GPGSV,3,1,1107,13,314,28,08,29,293,38,10,41,156,50,13,04,024,,1*6C
$GPGSV,3,2,11,15,12,055,,16,61,206,39,18,35,059,46,23,53,092,41,1*64
$GPGSV,3,3,11,26,35,183,46,27,65,300,41,30,01,344,,1*5F
$GLGSV,3,1,09,65,29,089,41,66,07,134,,72,19,028,38,78,19,193,38,1*75
$GLGSV,3,2,09,79,52,247,37,80,32,322,36,81,63,302,44,82,21,264,42,1*71
$GLGSV,3,3,09,88,45,053,45,1*47
$GAGSV,3,1,11,02,65,215,40,04,06,068,27,06,02,092,,10,08,056,30,7*7D
$GAGSV,3,2,11,11,35,056,43,16,02,153,,19,04,016,,25,24,161,43,7*79
$GAGSV,3,3,11,30,39,306,40,34,37,236,37,36,88,043,37,7*4D
$GNRMC,170026.00,A,4843.26052,N,00920.55651,E,0.012,,080225,,,A,V*19
$GNGGA,170026.00,4843.26052,N,00920.55651,E,1,12,0.51,252.6,M,47.6,M,,*40
$GPGSV,3,1,11,07,13,314,28,08,29,293,38,10,41,156,50,13,04,024,,1*6C
$GPGSV,3,2,11,15,12,055,,16,61,206,39,18,35,059,46,23,53,092,41,1*64
$GPGSV,3,3,11,26,35,183,46,27,65,300,41,30,01,344,,1*5F
$GLGSV,3,1,09,65,29,089,41,66,07,134,,72,19,028,37,78,19,193,39,1*7B
$GLGSV,3,2,09,79,52,247,37,80,32,322,35,81,63,302,44,82,21,264,41,1*71
$GLGSV,3,3,09,88,45,053,45,1*47
$GAGSV,3,1,11,02,65,215,40,04,06,068,27,06,02,092,,10,08,056,29,7*75
$GAGSV,3,2,11,11,35,056,43,16,02,153,,19,04,016,,25,24,161,43,7*79
$GAGSV,3,3,11,30,39,306,40,34,37,236,37,36,88,043,37,7*4D
$GNRMC,170027.00,A,4843.26054,N,00920.55649,E,0.013,,080225,,,A,V*16
$GNGGA,170027.00,4843.26054,N,00920.55649,E,1,12,0.51,252.5,M,47.6,M,,*4D
$GPGSV,3,1,11,07,13,314,27,08,29,293,38,10,41,156,50,13,04,024,,1*63
$GPGSV,3,2,11,15,12,055,,16,61,206,39,18,35,059,46,23,53,092,42,1*67
$GPGSV,3,3,11,26,34,183,46,27,65,300,40,30,01,344,,1*5F
$GLGSV,3,1,09,65,29,089,41,66,07,134,,72,19,028,37,78,19,193,39,1*7B
$GLGSV,3,2,09,79,52,247,38,80,32,322,35,81,63,302,44,82,21,264,42,1*7D
$GLGSV,3,3,09,88,45,053,45,1*47
$GAGSV,3,1,11,02,65,215,40,04,06,068,26,06,02,092,,10,08,056,30,7*7C
$GAGSV,3,2,11,11,35,056,43,16,02,153,,19,04,016,,25,24,161,43,7*79
$GAGSV,3,3,11,30,39,306,40,34,37,236,37,36,88,043,37,7*4D
$GBGSV,3,1,12,02,03,100,37,05,18,122,43,08,30,036,36,12,25,269,,1*7B
$GNRMC,170028.00,A,4843.26057,N,00920.55648,E,0.006,,080225,,,A,V*1F
$GNGGA,170028.00,4843.26057,N,00920.55648,E,1,12,0.51,252.4,M,47.6,M,,*41
$GPGSV,3,1,11,07,13,314,25,08,29,293,38,10,41,156,50,13,04,024,,1*61
$GPGSV,3,2,11,15,12,055,,16,61,206,39,18,35,059,46,23,53,092,42,1*67
$GPGSV,3,3,11,26,34,183,46,27,66,300,40,30,01,344,,1*5C
$GLGSV,3,1,09,65,29,089,41,66,07,134,,72,19,028,37,78,19,193,39,1*7B
$GLGSV,3,2,09,79,52,247,38,80,32,322,35,81,63,302,44,82,21,264,42,1*7D
$GLGSV,3,3,09,88,45,053,45,1*47
$GAGSV,3,1,11,02,65,215,40,04,06,068,27,06,02,092,,10,08,056,30,7*7D
$GAGSV,3,2,11,11,35,056,43,16,02,153,,19,04,016,,25,24,161,43,7*79
$GAGSV,3,3,11,30,39,306,40,34,37,236,37,36,88,043,38,7*42
$GBGSV,3,1,12,02,03,100,37,05,18,122,43,08,30,036,36,12,25,269,,1*7B
$GNRMC,170029.00,A,4843.26059,N,00920.55645,E,0.006,,080225,,,A,V*1D
$GNGGA,170029.00,4843.26059,N,00920.55645,E,1,12,0.51,252.4,M,47.6,M,,*43
$GPGSV,3,1,11,07,13,314,23,08,29,293,39,10,41,156,50,13,04,024,,1*66
$GPGSV,3,2,11,15,12,055,,16,61,206,39,18,35,059,46,23,53,092,42,1*67
$GPGSV,3,3,11,26,34,183,46,27,66,300,40,30,01,344,,1*5C
$GLGSV,3,1,09,65,29,089,40,66,07,134,,72,19,028,37,78,19,193,39,1*7A
$GLGSV,3,2,09,79,52,247,39,80,32,322,35,81,63,302,43,82,21,264,42,1*7B
$GLGSV,3,3,09,88,45,053,46,1*44
$GAGSV,3,1,11,02,65,215,40,04,06,068,28,06,02,092,,10,08,056,30,7*72
$GAGSV,3,2,11,11,35,056,43,16,02,153,,19,04,016,,25,24,161,43,7*79
$GAGSV,3,3,11,30,39,306,40,34,37,236,37,36,88,043,37,7*4D
$GBGSV,3,1,12,02,03,100,37,05,18,122,43,08,30,036,36,12,25,269,,1*7B
$GNRMC,170030.00,A,4843.26062,N,00920.55643,E,0.012,,080225,,,A,V*1E
$GNGGA,170030.00,4843.26062,N,00920.55643,E,1,12,0.51,252.3,M,47.6,M,,*42
$GPGSV,3,1,11,07,13,314,19,08,29,293,39,10,41,156,50,13,04,024,,1*6F
$GPGSV,3,2,11,15,12,055,,16,61,206,39,18,35,059,46,23,53,092,42,1*67
$GPGSV,3,3,11,26,34,183,46,27,66,300,39,30,01,344,,1*52
$GLGSV,3,1,09,65,29,089,40,66,07,134,,72,19,028,38,78,19,193,40,1*7B
$GLGSV,3,2,09,79,52,247,39,80,32,322,34,81,63,302,43,82,21,264,41,1*79
$GLGSV,3,3,09,88,45,053,46,1*44
$GAGSV,3,1,11,02,65,215,40,04,06,068,29,06,02,092,,10,08,056,30,7*73
$GAGSV,3,2,11,11,35,056,43,16,02,153,,19,04,016,,25,24,161,43,7*79
$GAGSV,3,3,11,30,39,306,39,34,37,236,37,36,88,043,38,7*4C
$GNRMC,170031.00,A,4843.26064,N,00920.55641,E,0.006,,080225,,,A,V*1E
$GNGGA,170031.00,4843.26064,N,00920.55641,E,1,12,0.50,252.2,M,47.6,M,,*47
$GPGSV,3,1,11,07,13,314,17,08,29,293,39,10,41,156,50,13,04,024,,1*61
$GPGSV,3,2,11,15,12,055,,16,61,206,39,18,35,059,46,23,53,092,42,1*67
$GPGSV,3,3,11,26,34,183,46,27,66,300,39,30,01,343,,1*55
$GLGSV,3,1,09,65,29,089,40,66,07,134,,72,19,028,39,78,19,193,40,1*7A
$GLGSV,3,2,09,79,52,247,39,80,32,322,34,81,63,302,43,82,21,264,41,1*79
$GLGSV,3,3,09,88,45,053,46,1*44
$GAGSV,3,1,11,02,65,215,39,04,06,068,30,06,02,092,,10,08,056,30,7*75
$GAGSV,3,2,11,11,35,056,43,16,02,153,,19,04,016,,25,24,161,43,7*79
$GAGSV,3,3,11,30,39,306,39,34,37,236,37,36,88,043,38,7*4C
$GBGSV,3,1,12,02,03,100,37,05,18,122,43,08,30,036,36,12,25,269,,1*7B
$GNRMC,170032.00,A,4843.26067,N,00920.55638,E,0.013,,080225,,,A,V*14
$GNGGA,170032.00,4843.26067,N,00920.55638,E,1,12,0.50,252.2,M,47.6,M,,*49
$GPGSV,3,1,11,07,13,314,14,08,29,293,39,10,41,156,50,13,04,024,,1*62
$GPGSV,3,2,11,15,12,055,,16,61,206,39,18,35,059,46,23,53,092,42,1*67
$GPGSV,3,3,11,26,34,183,46,27,66,300,39,30,01,343,,1*55
$GLGSV,3,1,09,65,29,089,40,66,07,134,,72,19,028,39,78,19,193,41,1*7B
$GLGSV,3,2,09,79,52,247,38,80,32,322,33,81,63,302,42,82,21,264,41,1*7E
$GLGSV,3,3,09,88,45,053,46,1*44
$GAGSV,3,1,11,02,65,215,39,04,06,068,3006,02,092,,10,08,056,30,7*75
$GAGSV,3,2,11,11,35,056,43,16,02,153,,19,04,016,,25,24,161,43,7*79
$GAGSV,3,3,11,30,39,306,39,34,37,236,37,36,88,043,38,7*4C
$GBGSV,3,1,12,02,03,100,37,05,18,122,43,08,30,036,36,12,25,269,,1*7B
$GNRMC,170033.00,A,4843.26069,N,00920.55636,E,0.005,,080225,,,A,V*12
$GNGGA,170033.00,4843.26069,N,00920.55636,E,1,12,0.50,252.1,M,47.6,M,,*4B
$GPGSV,3,1,11,07,13,314,17,08,29,293,39,10,41,156,50,13,04,024,,1*61
$GPGSV,3,2,11,15,12,055,,16,61,206,39,18,35,059,45,23,53,092,42,1*64
$GPGSV,3,3,11,26,34,183,46,27,66,300,39,30,01,343,,1*55
$GLGSV,3,1,09,65,29,089,40,66,07,134,,72,19,028,39,78,19,193,40,1*7A
$GLGSV,3,2,09,79,52,247,38,80,32,322,32,81,63,302,42,82,21,264,40,1*7E
$GLGSV,3,3,09,88,45,053,46,1*44
$GAGSV,3,1,11,02,65,215,39,04,06,068,31,06,02,092,,10,08,056,29,7*7C
$GAGSV,3,2,11,11,35,056,43,16,02,153,,19,04,016,,25,24,161,43,7*79
$GAGSV,3,3,11,30,39,306,39,34,37,236,36,36,88,043,37,7*42
$GBGSV,3,1,12,02,03,100,37,05,18,122,43,08,30,036,36,12,25,269,,1*7B
$GNRMC,170034.00,A,4843.26071,N,00920.55633,E,0.004,,080225,,,A,V*18
$GNGGA,170034.00,4843.26071,N,00920.55633,E,1,12,0.50,252.0,M,47.6,M,,*41
$GPGSV,3,1,11,07,13,314,16,08,29,293,39,10,41,156,50,13,04,024,,1*60
$GPGSV,3,2,11,15,12,055,,16,61,206,39,18,35,059,45,23,53,092,42,1*64
$GPGSV,3,3,11,26,34,183,46,27,66,300,38,30,01,343,,1*54
$GLGSV,3,1,09,65,29,089,40,66,07,134,,72,19,028,39,78,19,193,40,1*7A
$GLGSV,3,2,09,79,52,247,38,80,32,321,31,81,63,302,42,82,21,264,39,1*70
$GLGSV,3,3,09,88,45,053,46,1*44
$GAGSV,3,1,11,02,65,215,39,04,06,068,32,06,02,092,,10,08,056,29,7*7F
$GAGSV,3,2,11,11,35,056,43,16,02,153,,19,04,016,,25,24,161,43,7*79
$GAGSV,3,3,11,30,39,306,39,34,37,236,36,36,88,043,38,7*4D
$GNRMC,170035.00,A,4843.26074,N,00920.55631,E,0.015,,080225,,,A,V*1E
$GNGGA,170035.00,4843.26074,N,00920.55631,E,1,12,0.50,252.0,M,47.6,M,,*47
$GPGSV,3,1,11,07,13,314,19,08,29,293,39,10,41,156,50,13,04,024,,1*6F
$GPGSV,3,2,11,15,12,055,,16,61,206,38,18,35,059,45,23,53,092,41,1*66
$GPGSV,3,3,11,26,34,183,46,27,66,300,38,30,01,343,,1*54
$GLGSV,3,1,09,65,29,089,40,66,07,134,,72,19,028,40,78,19,193,40,1*74
$GLGSV,3,2,09,79,52,247,37,80,32,321,31,81,63,302,41,82,21,264,39,1*7C
$GLGSV,3,3,09,88,45,053,46,1*44
$GAGSV,3,1,11,02,65,215,39,04,06,068,32,06,02,092,,10,08,056,29,7*7F
$GAGSV,3,2,11,11,35,056,43,16,02,153,,19,04,016,,25,24,161,43,7*79
$GAGSV,3,3,11,30,39,306,39,34,37,236,36,36,88,043,387*4D
$GNRMC,170036.00,A,4843.26076,N,00920.55628,E,0.007,,080225,,,A,V*14
$GNGGA,170036.00,4843.26076,N,00920.55628,E,1,12,0.50,251.9,M,47.6,M,,*44
$GPGSV,3,1,11,07,13,314,22,08,29,293,39,10,41,156,50,13,04,024,,1*67
$GPGSV,3,2,11,15,12,055,,16,61,206,38,18,35,059,45,23,53,092,41,1*66
$GPGSV,3,3,11,26,34,183,46,27,66,300,38,30,01,343,,1*54
$GLGSV,3,1,09,65,29,089,41,66,07,134,,72,19,028,40,78,19,193,41,1*74
$GLGSV,3,2,09,79,52,247,38,80,32,321,30,81,63,302,42,82,21,264,38,1*70
$GLGSV,3,3,09,88,45,053,46,1*44
$GAGSV,3,1,11,02,64,214,39,04,06,068,33,06,02,092,,10,08,056,30,7*76
$GAGSV,3,2,11,11,35,056,43,16,02,153,,19,04,016,,25,24,161,43,7*79
$GAGSV,3,3,11,30,39,306,39,34,37,236,36,36,88,043,38,7*4D
$GBGSV,3,1,12,02,03,100,38,05,18,122,43,08,30,036,36,12,25,269,,1*74
$GNRMC,170037.00,A,4843.26078,N,00920.55625,E,0.040,,080225,,,A,V*15
$GNGGA,170037.00,4843.26078,N,00920.55625,E,1,12,0.50,251.9,M,47.6,M,,*46
$GPGSV,3,1,11,07,13,314,23,08,29,293,39,10,41,156,49,13,04,024,,1*6E
$GPGSV,3,2,11,15,12,055,,16,61,206,38,18,35,059,45,23,53,092,41,1*66
$GPGSV,3,3,11,26,34,183,46,27,66,300,38,30,01,343,,1*54
$GLGSV,3,1,09,65,29,089,41,66,07,134,,72,19,028,41,78,19,193,41,1*75
$GLGSV,3,2,09,79,52,247,38,80,32,321,30,81,63,302,42,82,21,264,38,1*70
$GLGSV,3,3,09,88,45,053,47,1*45
$GAGSV,3,1,11,02,64,214,38,04,06,068,33,06,02,092,,10,08,056,30,7*77
$GAGSV,3,2,11,11,35,056,43,16,02,153,,19,04,016,,25,24,161,43,7*79
$GAGSV,3,3,11,30,39,306,39,34,37,236,36,36,88,043,37,7*42
$GBGSV,3,1,12,02,03,100,38,05,18,122,43,08,30,036,36,12,25,269,,1*74
$GNRMC,170038.00,A,4843.26080,N,00920.55622,E,0.010,,080225,,,A,V*1F
$GNGGA,170038.00,4843.26080,N,00920.55622,E,1,12,0.50,251.8,M,47.6,M,,*48
$GPGSV,3,1,11,07,13,314,23,08,29,293,39,10,41,156,49,13,04,024,,1*6E
$GPGSV,3,2,11,15,12,055,,16,61,206,39,18,35,059,45,23,53,092,40,1*66
$GPGSV,3,3,11,26,34,183,46,27,66,300,38,30,01,343,,1*54
$GLGSV,3,1,09,65,29,089,41,66,07,134,,72,19,028,42,78,19,193,41,1*76
$GLGSV,3,2,09,79,52,247,37,80,32,321,31,81,63,302,42,82,21,265,37,1*70
$GLGSV,3,3,09,88,45,053,4,1*45
$GAGSV,3,1,11,02,64,214,38,04,07,068,33,06,02,092,,10,08,056,30,7*76
$GAGSV,3,2,11,11,35,056,43,16,02,153,,19,04,016,,25,24,161,43,7*79
$GAGSV,3,3,11,30,39,306,39,34,37,236,35,36,88,043,37,7*41
$GBGSV,3,1,12,02,03,100,38,05,18,122,43,08,30,036,36,12,25,269,,1*74
$GNRMC,170039.00,A,4843.26081,N,00920.55619,E,0.020,,080225,,,A,V*14
$GNGGA,170039.00,4843.26081,N,00920.55619,E,1,12,0.50,251.8,M,47.6,M,,*40
$GPGSV,3,1,11,07,13,314,23,08,29,293,39,10,41,156,49,13,04,024,,1*6E
$GPGSV,3,2,11,15,12,055,,16,61,206,39,18,35,059,45,23,53,092,40,1*66
$GPGSV,3,3,11,26,34,183,46,27,66,300,38,30,01,343,,1*54
$GLGSV,3,1,09,65,29,089,42,66,07,134,,72,19,028,42,78,19,193,41,1*75
$GLGSV,3,2,09,79,52,247,37,80,32,321,31,81,63,302,42,82,21,265,36,1*71
$GLGSV,3,3,09,88,45,053,47,1*45
$GAGSV,3,1,11,02,64,214,38,04,07,068,33,06,02,092,,10,08,056,30,7*76
$GAGSV,3,2,11,11,35,056,43,16,02,153,,19,04,016,,25,24,161,43,7*79
$GAGSV,3,3,11,30,39,306,39,34,37,236,35,36,88,043,38,7*4E
$GBGSV,3,1,12,02,03,100,37,05,18,122,43,08,30,036,36,12,25,269,,1*7B
$GBGSV,3,2,12,13,36,044,43,19,30,107,45,20,24,053,46,22,07,156,,1*7D
$GNRMC,170040.00,A,4843.26083,N,00920.55617,E,0.009,,080225,,,A,V*1D
$GNGGA,170040.00,4843.26083,N,00920.55617,E,1,12,0.50,251.8,M,47.6,M,,*42
$GPGSV,3,1,11,07,13,314,24,08,29,293,39,10,41,156,49,13,04,024,,1*69
$GPGSV,3,2,11,15,12,055,,16,61,206,39,18,35,059,45,23,53,092,40,1*66
$GPGSV,3,3,11,26,34,183,46,27,66,300,38,30,01,343,,1*54
$GLGSV,3,1,09,65,29,089,4266,07,134,,72,19,028,42,78,19,193,40,1*74
$GLGSV,3,2,09,79,52,247,37,80,32,321,32,81,63,302,42,82,21,265,36,1*72
$GLGSV,3,3,09,88,45,053,47,1*45
$GAGSV,3,1,11,02,64,214,38,04,07,068,32,06,03,091,,10,08,056,30,7*75
$GAGSV,3,2,11,11,35,056,43,16,02,153,,19,04,016,,25,24,161,43,7*79
$GAGSV,3,3,11,30,39,306,39,34,37,236,35,36,88,043,37,7*41
$GNRMC,170041.00,A,4843.26085,N,00920.55614,E,0.006,,080225,,,A,V*16
$GNGGA,170041.00,4843.26085,N,00920.55614,E,1,12,0.50,251.8,M,47.6,M,,*46
$GPGSV,3,1,11,07,13,314,26,08,29,293,39,10,41,156,49,13,04,024,,1*6B
$GPGSV,3,2,11,15,12,055,,16,61,206,39,18,35,059,45,23,53,092,40,1*66
$GPGSV,3,3,11,26,34,183,46,27,66,300,38,30,01,343,,1*54
$GLGSV,3,1,09,65,29,089,42,66,07,134,,72,19,028,42,78,19,193,40,1*74
$GLGSV,3,2,09,79,52,247,36,80,32,321,32,81,63,302,42,82,21,265,35,1*70
$GNRMC,170042.00,A,4843.26086,N,00920.55612,E,0.013,,080225,,,A,V*14
$GNGGA,170042.00,4843.26086,N,00920.55612,E,1,12,0.50,251.7,M,47.6,M,,*4F
$GPGSV,3,1,11,07,13,314,28,08,29,293,39,10,41,156,49,13,04,024,,1*65
$GPGSV,3,2,11,15,12,055,,16,61,206,39,18,35,059,45,23,53,092,41,1*67
$GPGSV,3,3,11,26,34,183,46,27,66,300,38,30,01,343,,1*54
$GLGSV,3,1,09,65,29,089,43,66,07,134,,72,19,028,42,78,19,193,40,1*75
$GLGSV,3,2,09,79,52,247,37,80,32,321,31,81,63,302,42,82,21,265,35,1*72
$GLGSV,3,3,09,88,45,053,47,1*45
$GAGSV,3,1,11,02,64,214,38,04,07,068,32,06,03,091,,10,08,056,30,7*75
$GAGSV,3,2,11,11,35,056,43,16,02,153,,19,04,016,,25,24,161,43,7*79
$GAGSV,3,3,11,30,39,306,39,34,37,236,34,36,88,043,37,7*40
$GBGSV,3,1,12,02,03,100,37,05,18,122,43,08,30,036,36,12,25,269,,1*7B
$GNRMC,170043.00,A,4843.26087,N,00920.55611,E,0.002,,080225,,,A,V*17
$GNGGA,170043.00,4843.26087,N,00920.55611,E,1,12,0.48,251.8,M,47.6,M,,*4A
$GPGSV,3,1,11,07,13,314,29,08,29,293,38,10,41,156,49,13,04,024,,1*65
$GPGSV,3,2,11,15,12,055,,16,61,206,40,18,35,059,45,23,53,092,41,1*69
$GPGSV,3,3,11,26,34,183,46,27,66,300,38,30,01,343,,1*54
$GLGSV,3,1,09,65,29,089,43,66,07,134,,72,19,028,42,78,19,193,40,1*75
$GLGSV,3,2,09,79,52,247,37,80,32,321,31,81,63,302,42,82,21,265,35,1*72
$GLGSV,3,3,09,88,45,053,47,1*45
$GAGSV,3,1,11,02,64,214,38,04,07,068,31,06,03,091,,10,08,056,30,7*76
$GAGSV,3,2,11,11,35,056,43,16,02,153,,19,04,016,,25,24,161,43,7*79
$GAGSV,3,3,11,30,39,306,39,34,37,236,34,36,88,043,37,7*40
$GBGSV,3,1,12,02,03,100,37,05,18,122,43,08,30,036,36,12,25,269,,1*7B
$GNRMC,170044.00,A,4843.26087,N,00920.55610,E,0.005,,080225,,,A,V*16
$GNGGA,170044.00,4843.26087,N,00920.55610,E,1,12,0.48,251.9,M,47.6,M,,*4D
$GPGSV,3,1,11,07,13,314,30,08,29,293,38,10,41,156,49,13,04,024,,1*6D
$GPGSV,3,2,11,15,12,055,,16,61,206,40,18,35,059,45,23,53,092,41,1*69
$GPGSV,3,3,11,26,34,183,46,27,66,300,39,30,01,343,,1*55
$GLGSV,3,1,09,65,29,089,43,66,07,134,,72,19,028,41,78,19,193,40,1*76
$GLGSV,3,2,09,79,52,247,38,80,32,321,30,81,63,302,42,82,21,265,34,1*7D
$GLGSV,3,3,09,88,45,053,47,1*45
$GAGSV,3,1,11,02,64,214,39,04,07,068,31,06,03,091,,10,08,056,30,7*77
$GAGSV,3,2,11,11,35,056,43,16,02,153,,19,04,016,,25,24,161,43,7*79
$GAGSV,3,3,11,30,39,306,39,34,37,236,34,36,88,043,37,7*40
$GNRMC,170045.00,A,4843.26088,N,00920.55607,E,0.009,,080225,,,A,V*12
$GNGGA,170045.00,483.26088,N,00920.55607,E,1,12,0.50,251.9,M,47.6,M,,*4C
$GPGSV,3,1,11,07,13,314,31,08,29,293,38,10,41,156,49,13,04,024,,1*6C
$GPGSV,3,2,11,15,12,055,,16,61,206,40,18,35,059,45,23,53,092,42,1*6A
$GPGSV,3,3,11,26,34,183,46,27,66,300,39,30,01,343,,1*55
$GLGSV,3,2,09,79,52,247,38,80,32,321,30,81,63,302,42,82,21,265,34,1*7D
$GLGSV,3,3,09,88,45,053,47,1*45
$GAGSV,3,1,11,02,64,214,38,04,07,068,31,06,03,091,,10,08,056,30,7*76
$GAGSV,3,2,11,11,34,056,43,16,02,153,,19,04,016,,25,24,161,43,7*78
$GAGSV,3,3,11,30,39,306,39,34,37,236,34,36,88,043,38,7*4F
$GNRMC,170046.00,A,4843.26089,N,00920.55604,E,0.007,,080225,,,A,V*1D
$GNGGA,170046.00,4843.26089,N,00920.55604,E,1,12,0.48,251.9,M,47.6,M,,*44
$GPGSV,3,1,11,07,13,314,32,08,29,293,38,10,41,156,49,13,04,024,,1*6F
$GPGSV,3,2,11,15,12,055,,16,61,206,39,18,35,059,45,23,53,092,42,1*64
$GPGSV,3,3,11,26,34,183,46,27,66,300,39,30,01,343,,1*55
$GLGSV,3,1,09,65,29,089,42,66,07,134,,72,19,028,41,78,19,193,40,1*77
$GLGSV,3,2,09,79,52,247,38,80,32,321,30,81,63,302,42,82,21,265,34,1*7D
$GLGSV,3,3,09,88,45,053,47,1*45
$GAGSV,3,1,11,02,64,214,38,04,07,068,31,06,03,091,,10,08,056,30,7*76
$GAGSV,3,2,11,11,34,056,43,16,02,153,,19,04,016,,25,24,161,43,7*78
$GAGSV,3,3,11,30,39,306,39,34,37,236,33,36,88,043,38,7*48
$GNRMC,170047.00,A,4843.26089,N,00920.55603,E,0.023,,080225,,,A,V*1D
$GNGGA,170047.00,4843.26089,N,00920.55603,E,1,12,0.48,251.9,M,47.6,M,,*42
$GPGSV,3,1,11,07,13,314,32,08,29,293,38,10,41,156,49,13,04,024,,1*6F
$GPGSV,3,2,11,15,12,055,,16,61,206,39,18,35,059,45,23,53,092,42,1*64
$GPGSV,3,3,11,26,34,183,4627,66,300,39,30,01,343,,1*55
$GLGSV,3,1,09,65,29,089,42,66,07,134,,72,19,028,41,78,19,193,40,1*77
$GLGSV,3,2,09,79,52,247,38,80,32,321,30,81,63,302,41,82,21,265,34,1*7E
$GLGSV,3,3,09,88,45,053,48,1*4A
$GAGSV,3,1,11,02,64,214,39,04,07,068,31,06,03,091,,10,08,056,30,7*77
$GAGSV,3,2,11,11,34,056,43,16,02,153,,19,04,016,,25,24,161,43,7*78
$GAGSV,3,3,11,30,39,306,39,34,37,236,33,36,88,043,38,7*48
$GBGSV,3,1,12,02,03,100,37,05,18,122,43,08,30,036,35,12,25,269,,1*78
$GNRMC,170048.00,A,4843.26090,N,00920.55601,E,0.003,,080225,,,A,V*1A
$GNGGA,170048.00,4843.26090,N,00920.55601,E,1,12,0.48,252.0,M,47.6,M,,*4D
$GPGSV,3,1,11,07,13,314,32,08,29,293,38,10,41,156,49,13,04,024,,1*6F
$GPGSV,3,2,11,15,12,055,,16,61,206,40,18,35,059,46,23,53,092,42,1*69
$GPGSV,3,3,11,26,34,183,46,27,66,300,39,30,01,343,,1*55
$GLGSV,3,1,09,65,29,089,42,66,07,134,,72,19,028,41,78,19,193,40,1*77
$GLGSV,3,2,09,79,52,247,39,80,32,321,31,81,63,302,41,82,21,265,35,1*7F
$GLGSV,3,3,09,88,45,053,48,1*4A
$GAGSV,3,1,11,02,64,214,38,04,07,068,31,06,03,091,,10,08,056,30,7*76
$GAGSV,3,2,11,11,34,056,43,16,02,153,,19,04,016,,25,24,161,43,7*78
$GAGSV,3,3,11,30,39,306,39,34,37,236,33,36,88,043,37,7*47
$GBGSV,3,1,12,02,03,100,37,05,18,122,43,08,30,036,35,12,25,269,,1*78
$GNRMC,170049.00,A,4843.26090,N,00920.55599,E,0.013,,080225,,,A,V*18
$GNGGA,170049.00,4843.26090,N,00920.55599,E,1,12,0.48,252.1,M,47.6,M,,*4F
$GPGSV,3,1,11,07,13,314,32,08,29,293,38,10,41,156,49,13,04,024,,1*6F
$GPGSV,3,2,11,15,12,055,,16,61,206,40,18,35,059,46,23,53,092,42,1*69
$GPGSV,3,3,11,26,34,183,46,27,66,300,39,30,01,343,,1*55
$GLGSV,3,1,09,65,29,089,42,66,07,134,,72,19,028,41,78,19,193,40,1*77
$GLGSV,3,2,09,79,52,247,39,80,32,321,32,81,63,302,41,82,21,265,35,1*7C
$GLGSV,3,3,09,88,45,053,49,1*4B
$GAGSV,3,1,11,02,64,214,39,04,07,068,31,06,03,091,,10,08,056,30,7*77
$GAGSV,3,2,11,11,34,056,43,16,02,153,,19,04,016,,25,24,161,43,7*78
$GNRMC,170050.00,A,4843.26091,N,00920.55595,E,0.004,,080225,,,A,V*1B
$GNGGA,170050.00,4843.26091,N,00920.55595,E,1,12,0.50,252.1,M,47.6,M,,*43
$GPGSV,3,1,11,07,13,314,32,08,29,293,37,10,41,156,49,13,04,024,,1*60
$GPGSV,3,2,11,15,12,055,,16,61,206,40,18,35,059,46,23,53,092,42,1*69
$GPGSV,3,3,11,26,34,183,46,27,66,300,39,30,01,343,,1*55
$GLGSV,3,1,09,65,29,089,43,66,07,134,,72,19,028,41,78,19,193,40,1*76
$GLGSV,3,2,09,79,52,247,39,80,32,321,33,81,63,302,41,82,21,265,35,1*7D
$GLGSV,3,3,09,88,45,053,49,1*4B
$GAGSV,3,1,11,02,64,214,39,04,07,068,31,06,03,091,,10,08,056,30,7*77
$GAGSV,3,2,11,11,34,056,43,16,02,153,,19,04,016,,25,24,161,43,7*78
$GAGSV,3,3,11,30,39,306,40,34,37,236,33,36,88,043,37,7*49
$GNRMC,170051.00,A,4843.26092,N,00920.55592,E,0.022,,080225,,,A,V*1A
$GNGGA,170051.00,4843.26092,N,00920.55592,E,1,12,0.48,252.1,M,47.6,M,,*4F
$GPGSV,3,1,11,07,13,314,33,08,29,293,37,10,41,156,49,13,04,024,,1*61
$GPGSV,3,2,11,15,12,055,,16,61,206,40,18,35,059,46,23,53,092,41,1*6A
$GPGSV,3,3,11,26,34,183,46,27,66,300,39,30,01,343,,1*55
$GLGSV,3,1,09,65,29,089,4366,07,134,,72,19,028,41,78,19,193,40,1*76
$GLGSV,3,2,09,79,52,247,38,80,32,321,33,81,63,302,41,82,21,265,35,1*7C
$GLGSV,3,3,09,88,45,053,49,1*4B
$GAGSV,3,1,11,02,64,214,39,04,07,068,31,06,03,091,,10,08,056,30,7*77
$GAGSV,3,2,11,11,34,056,43,16,02,153,,19,04,016,,25,24,161,43,7*78
$GAGSV,3,3,11,30,39,306,40,34,37,236,33,36,88,043,38,7*46
$GNRMC,170052.00,A,4843.26093,N,00920.55588,E,0.012,,080225,,,A,V*10
$GNGGA,170052.00,4843.26093,N,00920.55588,E,1,12,0.48,252.1,M,47.6,M,,*46
$GPGSV,3,1,11,07,13,314,33,08,29,293,37,10,41,156,49,13,04,024,,1*61
$GPGSV,3,2,11,15,12,055,,16,61,206,40,18,35,059,46,23,53,092,41,1*6A
$GPGSV,3,3,11,26,34,183,46,27,66,300,39,30,01,343,,1*55
$GLGSV,3,1,09,65,29,089,44,66,07,134,,72,19,028,41,78,19,193,40,1*71
$GLGSV,3,2,09,79,52,247,38,80,32,321,33,81,63,302,41,82,21,265,36,1*7F
$GLGSV,3,3,09,88,45,053,49,1*4B
$GAGSV,3,1,11,02,64,214,39,04,07,068,32,06,03,091,,10,08,056,30,7*74
$GAGSV,3,2,11,11,34,056,43,16,02,153,,19,04,016,,25,24,161,43,7*78
$GAGSV,3,3,11,30,39,306,40,34,37,236,32,36,88,043,38,7*47
$GBGSV,3,1,12,02,03,100,37,05,18,122,43,08,30,036,35,12,25,269,,1*78
$GNRMC,170053.00,A,4843.26094,N,00920.55585,E,0.010,,080225,,,A,V*19
$GNGGA,170053.00,4843.26094,N,00920.55585,E,1,12,0.48,252.1,M,47.6,M,,*4D
$GPGSV,3,1,11,07,13,314,33,08,29,293,36,10,41,156,49,13,04,024,,1*60
$GPGSV,3,2,11,15,12,055,,16,61,206,40,18,35,059,46,23,53,092,41,1*6A
$GPGSV,3,3,11,26,34,183,46,27,66,300,39,30,01,343,,1*55
$GLGSV,3,1,09,65,29,089,44,66,07,134,,72,19,028,41,78,19,193,40,1*71
$GLGSV,3,2,09,79,52,247,39,80,32,321,34,81,63,302,41,82,21,265,36,1*79
$GLGSV,3,3,09,88,45,053,48,1*4A
$GAGSV,3,1,11,02,64,214,39,04,07,068,31,06,03,091,,10,08,056,30,7*77
$GAGSV,3,2,11,11,34,056,43,16,02,153,,19,04,016,,25,24,161,43,7*78
$GAGSV,3,3,11,30,39,306,40,34,37,236,32,36,88,043,38,7*47
$GBGSV,3,1,12,02,03,100,37,05,18,122,43,08,30,036,35,12,25,269,,1*78
$GNRMC,170054.00,A,4843.26094,N,00920.55581,E,0.004,,080225,,,A,V*1F
$GNGGA,170054.00,4843.26094,N,00920.55581,E,1,12,0.48,252.1,M,47.6,M,,*4E
$GPGSV,3,1,11,07,13,314,34,08,29,293,37,10,41,156,49,13,04,024,,1*66
$GPGSV,3,2,11,15,12,055,,16,61,206,40,18,35,059,46,23,53,092,41,1*6A
$GPGSV,3,3,11,26,34,183,46,27,66,300,39,30,01,343,,1*55
$GLGSV,3,1,09,65,29,089,45,66,07,134,,72,19,028,41,78,19,193,40,1*70
$GLGSV,3,2,09,79,52,247,39,80,32,321,34,81,63,302,41,82,21,265,36,1*79
$GLGSV,3,3,09,88,45,053,48,1*4A
$GAGSV,3,1,11,02,64,214,39,04,07,068,31,06,03,091,,10,08,056,30,7*77
$GAGSV,3,2,11,11,34,056,43,16,02,153,,19,04,016,,25,23,162,43,7*7C
$GAGSV,3,3,11,30,39,306,40,34,37,236,32,36,88,043,38,7*47
$GBGSV,3,1,12,02,03,100,37,05,18,122,43,08,30,036,35,12,25,269,,1*78
$GNRMC,170055.00,A,4843.26094,N,00920.55579,E,0.017,,080225,,,A,V*1B
$GNGGA,170055.00,4843.26094,N,00920.55579,E,1,12,0.48,252.1,M,47.6,M,,*48
$GPGSV,3,1,11,07,13,314,34,08,29,293,36,10,41,156,49,13,04,024,,1*67
$GPGSV,3,2,11,15,12,055,,16,61,206,40,18,35,059,46,23,53,092,41,1*6A
$GPGSV,3,3,11,26,34,183,47,27,66,300,39,30,01,343,,1*54
$GLGSV,3,1,09,65,29,089,45,66,07,134,,72,19,028,41,78,19,193,40,1*70
$GLGSV,3,2,09,79,52,247,39,80,32,321,34,81,63,302,41,82,21,265,37,1*78
$GLGSV,3,3,09,88,45,053,48,1*4A
$GAGSV,3,1,11,02,64,214,39,04,07,068,31,06,03,091,,10,08,056,30,7*77
$GAGSV,3,2,11,11,34,056,43,16,02,153,,19,04,016,,25,23,162,43,7*7C
$GAGSV,3,3,11,30,39,306,40,34,37,236,31,36,88,043,38,7*44
$GNRMC,170056.00,A,4843.26094,N,00920.55578,E,0.006,,080225,,,A,V*19
$GNGGA,170056.00,4843.26094,N,00920.55578,E,1,12,0.48,252.2,M,47.6,M,,*49
$GPGSV,3,1,11,07,13,314,34,08,29,293,37,10,41,156,49,13,04,024,,1*66
$GPGSV,3,2,11,15,12,055,,16,61,206,40,18,35,059,47,23,53,092,41,1*6B
$GPGSV,3,3,11,26,34,183,46,27,66,300,39,30,01,343,,1*55
$GLGSV,3,1,09,65,29,089,45,66,07,134,,72,19,028,41,78,19,193,39,1*7E
$GLGSV,3,2,09,79,52,247,39,80,32,321,35,81,63,302,41,82,21,265,37,1*79
$GLGSV,3,3,09,88,45,053,48,1*4A
$GAGSV,3,1,11,02,64,214,39,04,07,068,32,06,03,091,,10,08,056,31,7*75
$GAGSV,3,2,11,11,34,056,43,16,02,153,,1,04,016,,25,23,162,43,7*7C
$GAGSV,3,3,11,30,39,306,40,34,37,236,31,36,88,043,38,7*44
$GNRMC,170057.00,A,4843.26094,N,00920.55576,E,0.008,,080225,,,A,V*18
$GNGGA,170057.00,4843.26094,N,00920.55576,E,1,12,0.48,252.2,M,47.6,M,,*46
$GPGSV,3,1,11,07,13,314,35,08,29,293,36,10,41,156,49,13,04,024,,1*66
$GPGSV,3,2,11,15,12,055,,16,61,206,40,18,35,059,47,23,53,092,41,1*6B
$GPGSV,3,3,11,26,34,183,47,27,66,300,39,30,01,343,,1*54
$GLGSV,3,1,09,65,29,089,46,66,07,134,,72,19,028,41,78,19,193,39,1*7D
$GLGSV,3,2,09,79,52,247,38,80,32,321,36,81,63,302,41,82,21,265,38,1*74
$GLGSV,3,3,09,88,45,053,48,1*4A
$GAGSV,3,1,11,02,64,214,39,04,07,068,32,06,03,091,,10,08,056,31,7*75
$GAGSV,3,2,11,11,34,056,43,16,02,153,,19,04,016,,25,23,162,43,7*7C
$GAGSV,3,3,11,30,39,306,39,34,37,236,31,36,88,043,38,7*4A
$GNRMC,170058.00,A,4843.26094,N,00920.55576,E,0.008,,080225,,,A,V*17
$GNGGA,170058.00,4843.26094,N,00920.55576,E,1,12,0.48,252.3,M,47.6,M,,*48
$GPGSV,3,1,11,07,13,314,35,08,29,293,36,10,41,156,49,13,04,024,,1*66
$GPGSV,3,2,11,15,12,055,,16,61,206,41,18,35,059,47,23,53,092,41,1*6A
$GPGSV,3,3,11,26,34,183,47,27,66,300,39,30,01,343,,1*54
$GLGSV,3,1,09,65,29,089,46,66,07,134,,72,19,028,41,78,19,193,39,1*7D
$GLGSV,3,2,09,79,52,247,38,80,32,321,37,81,63,302,42,82,21,265,39,1*77
$GLGSV,3,3,09,88,45,053,49,1*4B
$GAGSV,3,1,11,02,64,214,39,04,07,068,32,06,03,091,,10,08,056,30,7*74
$GAGSV,3,2,11,11,34,056,43,16,02,153,,19,04,016,,25,23,162,43,7*7C
$GAGSV,3,3,11,30,39,305,39,34,37,236,31,36,88,043,38,7*49
$GBGSV,3,1,12,02,03,100,37,05,18,122,43,08,30,036,35,12,25,269,,1*78
$GNGGA,170059.00,4843.26094,N,00920.55575,E,1,12,0.48,252.4,M,47.6,M,,*4D
$GPGSV,3,1,11,07,13,314,35,08,29,293,37,10,41,156,49,13,04,024,,1*67
$GPGSV,3,2,11,15,12,055,,16,61,206,41,18,35,59,47,23,53,092,41,1*6A
$GPGSV,3,3,11,26,34,183,47,27,66,300,39,30,01,343,,1*54
$GLGSV,3,1,09,65,29,089,45,66,07,134,,72,19,028,41,78,19,193,39,1*7E
$GLGSV,3,2,09,79,52,247,37,80,32,321,37,81,63,302,42,82,21,265,39,1*78
$GLGSV,3,3,09,88,45,053,49,1*4B
$GAGSV,3,1,11,02,64,214,39,04,07,068,31,06,03,091,,10,08,056,30,7*77
$GAGSV,3,2,11,11,34,056,43,16,02,153,,19,04,016,,25,23,162,43,7*7C
$GAGSV,3,3,11,30,39,305,39,34,37,236,30,36,88,043,38,7*48
$GBGSV,3,1,12,02,03,100,37,05,18,122,43,08,30,036,35,12,25,269,,1*78
$GNRMC,170100.00,A,4843.26094,N,00920.55574,E,0.012,,080225,,,A,V*12
$GNGGA,170100.00,4843.26094,N,00920.55574,E,1,12,0.48,252.4,M,47.6,M,,*41
$GPGSV,3,1,11,07,13,314,35,08,29,293,37,10,41,156,49,13,04,024,,1*67
$GPGSV,3,2,11,15,12,055,,16,61,206,41,18,35,059,47,23,53,092,41,1*6A
$GPGSV,3,3,11,26,34,183,47,27,66,300,38,30,01,343,,1*55
$GLGSV,3,1,09,65,29,089,46,66,07,134,,72,19,028,41,78,19,193,39,1*7D
$GLGSV,3,2,09,79,52,247,37,80,32,321,38,81,63,302,42,82,21,265,39,1*77
$GLGSV,3,3,09,88,45,053,49,1*4B
$GNRMC,170101.00,A,4843.26094,N,00920.55573,E,0.009,,080225,,,A,V*1E
$GNGGA,170101.00,4843.26094,N,00920.55573,E,1,12,0.48,252.5,M,47.6,M,,*46
$GPGSV,3,1,11,07,13,314,35,08,29,293,37,10,41,156,49,13,04,024,,1*67
$GPGSV,3,2,11,15,12,055,,16,61,206,41,18,35,059,47,23,53,092,41,1*6A
$GPGSV,3,3,11,26,34,183,47,27,66,300,38,30,01,343,,1*55
$GLGSV,3,1,09,65,29,089,46,66,07,134,,72,19,028,41,78,19,193,39,1*7D
$GLGSV,3,2,09,79,52,247,37,80,32,321,38,81,63,302,43,82,21,265,39,1*76
$GLGSV,3,3,09,88,45,053,49,1*4B
$GAGSV,3,1,11,02,64,214,40,04,07,068,31,06,03,091,,10,08,056,30,7*79
$GAGSV,3,2,11,11,34,056,43,16,02,153,,19,04,016,,25,23,162,43,7*7C
$GAGSV,3,3,11,30,39,305,39,34,38,237,31,36,88,043,38,7*47
$GNRMC,170102.00,A,4843.26094,N,00920.55572,E,0.012,,080225,,,A,V*16
$GNGGA,170102.00,4843.26094,N,00920.55572,E,1,12,0.48,252.5,M,47.6,M,,*44
$GPGSV,3,1,11,07,13,314,34,08,29,293,37,10,41,156,49,13,04,024,,1*66
$GPGSV,3,2,11,15,12,055,,16,61,206,41,18,35,059,47,23,53,092,41,1*6A
$GPGSV,3,3,11,26,34,183,47,27,66,300,38,30,01,343,,1*55
$GLGSV,3,1,09,65,29,089,46,66,07,134,,72,19,028,41,78,19,193,38,1*7C
$GLGSV,3,2,09,79,52,247,37,80,32,321,38,81,63,302,43,82,21,265,39,1*76
$GLGSV,3,3,09,88,45,053,49,1*4B
$GAGSV,3,1,11,02,64,214,40,04,07,068,31,06,03,091,,10,08,056,30,7*79
$GAGSV,3,2,11,11,34,056,43,16,02,153,,19,04,016,,25,23,162,43,7*7C
$GAGSV,3,3,11,30,39,305,39,34,38,237,30,36,87,042,38,7*48
$GBGSV,3,1,12,02,03,100,37,05,18,122,43,08,30,036,35,12,25,269,,1*78
$GNRMC,170103.00,A,4843.26094,N,00920.55572,E,0.017,,080225,,,A,V*12
$GNGGA,170103.00,4843.26094,N,00920.55572,E,1,12,0.48,252.5,M,47.6,M,,*45
$GPGSV,3,1,11,07,13,314,34,08,29,293,37,10,41,156,49,13,04,024,,1*66
$GPGSV,3,2,11,15,12,055,,16,61,206,41,18,35,059,47,23,53,092,41,1*6A
$GPGSV,3,3,11,26,34,183,47,27,66,300,38,30,01,343,,1*55
$GLGSV,3,1,09,65,29,089,46,66,07,134,,72,19,028,41,78,19,193,38,1*7C
$GLGSV,3,2,09,79,52,247,37,8032,321,38,81,63,302,43,82,21,265,39,1*76
$GLGSV,3,3,09,88,45,053,49,1*4B
$GAGSV,3,1,11,02,64,214,40,04,07,068,31,06,03,091,,10,08,056,30,7*79
$GAGSV,3,2,11,11,34,056,43,16,02,153,,19,04,016,,25,23,162,43,7*7C
$GAGSV,3,3,11,30,39,305,39,34,38,237,31,36,87,042,38,7*49
$GBGSV,3,1,12,02,03,100,37,05,18,122,43,08,30,036,35,12,25,269,,1*78
$GNRMC,170104.00,A,4843.26093,N,00920.55572,E,0.009,,080225,,,A,V*1D
$GNGGA,170104.00,4843.26093,N,00920.55572,E,1,12,0.48,252.5,M,47.6,M,,*45
$GPGSV,3,1,11,07,13,314,35,08,29,293,37,10,41,156,49,13,04,024,,1*67
$GPGSV,3,2,11,15,12,055,,16,61,206,41,18,35,059,47,23,53,092,42,1*69
$GPGSV,3,3,11,26,34,183,47,27,66,300,38,30,01,343,,1*55
$GLGSV,3,1,09,65,29,089,46,66,07,134,,72,19,028,41,78,19,193,39,1*7D
$GLGSV,3,2,09,79,52,247,37,80,32,321,39,81,63,302,43,82,21,265,39,1*77
$GLGSV,3,3,09,88,45,053,49,1*4B
$GAGSV,3,1,11,02,64,214,40,04,07,068,30,06,03,091,,10,08,056,30,7*78
$GAGSV,3,2,11,11,34,056,43,16,02,153,,19,04,016,,25,23,162,43,7*7C
$GAGSV,3,3,11,30,39,305,39,34,38,237,31,36,87,042,38,7*49
$GBGSV,3,1,12,02,03,100,37,05,18,122,43,08,30,036,35,12,25,269,,1*78
$GNRMC,170105.00,A,4843.26093,N,00920.55571,E,0.003,,080225,,,A,V*15
$GNGGA,170105.00,4843.26093,N,00920.55571,E,1,12,0.48,252.5,M,47.6,M,,*47
$GPGSV,3,1,11,07,13,314,34,08,29,293,37,10,41,156,49,13,04,024,,1*66
$GPGSV,3,2,11,15,12,055,,16,61,206,41,18,35,059,47,23,53,092,42,1*69
$GPGSV,3,3,11,26,34,183,47,27,66,300,37,30,01,343,,1*5A
$GLGSV,3,1,09,65,29,089,46,66,07,134,,72,19,028,41,78,19,193,39,1*7D
$GLGSV,3,2,09,79,52,247,36,80,32,321,38,81,63,302,43,82,21,265,39,1*77
$GLGSV,3,3,09,88,45,053,49,1*4B
$GAGSV,3,1,11,02,64,214,40,04,07,068,29,06,03,091,,10,08,056,30,7*70
$GAGSV,3,2,11,11,34,056,43,16,02,153,,19,04,016,,25,23,162,43,7*7C
$GAGSV,3,3,11,30,39,305,39,34,38,237,32,36,87,042,38,7*4A
$GNRMC,170106.00,A,4843.26093,N,00920.55571,E,0.010,,080225,,,A,V*14
$GNGGA,170106.00,4843.26093,N,00920.55571,E,1,12,0.48,252.5,M,47.6,M,,*44
$GPGSV,3,1,11,07,13,314,35,08,29,293,37,10,41,156,49,13,04,024,,1*67
$GPGSV,3,2,11,15,12,055,,16,61,206,41,18,35,059,47,23,53,092,42,1*69
$GPGSV,3,3,11,26,34,183,47,27,66,300,37,30,01,343,,1*5A
$GLGSV,3,1,09,65,29,089,47,66,07,134,,72,19,028,41,78,19,193,38,1*7D
$GLGSV,3,2,09,79,52,247,36,80,32,321,39,81,63,302,43,82,21,265,40,1*78
$GLGSV,3,3,09,88,45,053,50,1*43
$GAGSV,3,1,11,02,64,214,40,04,07,068,29,06,03,091,,10,08,056,30,7*70
$GAGSV,3,2,11,11,34,056,43,16,02,153,,19,04,016,,25,23,162,43,7*7C
$GAGSV,3,3,11,30,39,305,39,34,38,237,32,36,87,042,38,7*4A
$GNRMC,170107.00,A,4843.26093,N,00920.55570,E,0.006,,080225,,,A,V*13
$GNGGA,170107.00,4843.26093,N,00920.55570,E,1,12,0.48,252.5,M,47.6,M,,*44
$GPGSV,3,1,11,07,13,314,34,08,29,293,37,10,41,156,48,13,04,024,,1*67
$GPGSV,3,2,11,15,12,055,,16,61,206,41,18,35,059,47,23,53,092,42,1*69
$GPGSV,3,3,11,26,34,183,47,27,66,300,38,30,01,343,,1*55
$GLGSV,3,1,09,65,29,089,47,66,07,134,,72,19,028,41,78,19,193,38,1*7D
$GLGSV,3,2,09,79,52,247,36,80,32,321,38,81,63,302,43,82,21,265,40,1*79
$GLGSV,3,3,09,88,45,053,50,1*43
$GAGSV,3,1,11,02,64,214,40,04,07,068,29,06,03,091,,10,08,056,30,7*70
$GAGSV,3,2,11,11,34,056,43,16,02,153,,19,04,016,,25,23,162,42,7*7D
$GAGSV,3,3,11,30,39,305,39,34,38,237,31,36,87,042,38,7*49
$GNRMC,170108.00,A,4843.26093,N,00920.55569,E,0.006,,080225,,,A,V*14
$GNGGA,170108.00,4843.26093,N,00920.55569,E,1,12,0.48,252.4,M,47.6,M,,*42
$GPGSV,3,1,11,07,13,314,34,08,29,293,38,10,41,156,48,13,04,024,,1*68
$GPGSV,3,2,11,15,12,055,,16,61,206,41,18,35,059,47,23,53,092,42,1*69
$GPGSV,3,3,11,26,34,183,47,27,66,300,38,30,01,343,,1*55
$GLGSV,3,1,09,65,29,089,47,66,07,134,,72,19,028,41,78,19,193,37,1*72
$GLGSV,3,2,09,79,52,247,36,80,32,321,38,81,63,302,42,82,21,265,40,1*78
$GLGSV,3,3,09,88,45,053,50,1*43
$GAGSV,3,1,11,02,64,214,40,04,07,068,29,06,03,091,,10,08,056,30,7*70
$GAGSV,3,2,11,11,34,056,43,16,02,153,,19,04,016,,25,23,162,42,7*7D
$GAGSV,3,3,11,30,39,305,39,34,38,237,31,36,87,042,38,7*49
$GBGSV,3,1,12,02,03,100,37,05,18,122,43,08,30,036,35,12,25,269,,1*78
$GNRMC,170109.00,A,4843.26093,N,00920.55568,E,0.008,,080225,,,A,V*1A
$GNGGA,170109.00,4843.26093,N,00920.55568,E,1,12,0.48,252.4,M,47.6,M,,*42
$GPGSV,3,1,11,07,13,314,33,08,29,293,38,10,41,156,48,13,04,024,,1*6F
$GPGSV,3,2,11,15,12,055,,16,61,206,41,18,35,059,47,23,53,092,42,1*69
$GPGSV,3,3,11,26,34,183,47,27,66,300,37,30,01,343,,1*5A
$GLGSV,3,1,09,65,29,089,47,66,07,134,,72,19,028,41,78,19,193,37,1*72
$GLGSV,3,2,09,79,52,247,35,80,32,321,37,81,63,302,42,82,21,265,40,1*74
$GLGSV,3,3,09,88,45,053,49,1*4B
$GAGSV,3,1,11,02,64,214,39,04,07,068,29,06,03,091,,10,08,056,30,7*7E
$GAGSV,3,2,11,11,34,056,43,16,02,153,,19,04,016,,25,23,162,42,7*7D
$GAGSV,3,3,11,30,39,305,39,34,38,237,32,36,87,042,38,7*4A
$GBGSV,3,1,12,02,03,100,37,05,18,122,43,08,30,036,35,12,25,269,,1*78
$GNRMC,170110.00,A,4843.26093,N,00920.55567,E,0.011,,080225,,,A,V*15
$GNGGA,170110.00,4843.26093,N,00920.55567,E,1,12,0.48,252.4,M,47.6,M,,*45
$GPGSV,3,1,11,07,13,314,32,08,29,293,38,10,41,156,48,13,04,024,,1*6E
$GPGSV,3,2,11,15,12,055,,16,61,206,41,18,35,059,47,23,53,092,42,1*69
$GPGSV,3,3,11,26,34,183,47,27,66,300,37,30,01,343,,1*5A
$GLGSV,3,1,09,65,29,089,47,66,07,134,,72,19,028,41,78,19,193,37,1*72
$GLGSV,3,2,09,79,52,247,34,80,32,321,36,81,63,302,42,82,21,265,39,1*7A
$GLGSV,3,3,09,88,45,053,49,1*4B
$GAGSV,3,1,11,02,64,214,40,04,07,068,28,06,03,091,,10,08,056,30,7*71
$GAGSV,3,2,11,11,34,056,43,16,02,153,,19,04,016,,25,23,162,42,7*7D
$GAGSV,3,3,11,30,39,305,39,34,38,237,32,36,87,042,38,7*4A
$GBGSV,3,1,12,02,03,100,37,05,18,122,43,08,30,036,35,12,25,269,,1*78
$GNRMC,170111.00,A,4843.26093,N,00920.55566,E,0.018,,080225,,,A,V*1C
$GNGGA,170111.00,4843.26093,N,00920.55566,E,1,12,0.48,252.4,M,47.6,M,,*45
$GPGSV,3,1,11,07,13,314,31,08,29,293,38,10,41,156,48,13,04,024,,1*6D
$GPGSV,3,2,11,15,12,055,,16,61,206,41,18,35,059,47,23,53,092,42,1*69
$GPGSV,3,3,11,26,34,183,47,27,66,300,38,30,01,343,,1*55
$GLGSV,3,1,09,65,29,089,47,66,07,134,,72,19,028,41,78,19,193,37,1*72
$GLGSV,3,2,09,79,52,247,34,80,32,321,36,81,63,302,42,82,21,265,39,1*7A
$GLGSV,3,3,09,88,45,053,49,1*4B
$GAGSV,3,1,11,02,64,213,39,04,07,068,28,06,03,091,,10,08,056,30,7*78
$GAGSV,3,2,11,11,34,056,43,16,02,153,,19,04,016,,25,23,162,42,7*7D
$GAGSV,3,3,11,30,39,305,39,34,38,237,31,36,87,042,38,7*49
$GBGSV,3,1,12,02,03,100,37,05,18,122,43,08,30,036,35,12,25,269,,1*78
$GNRMC,170112.00,A,4843.26092,N,00920.55566,E,0.002,,080225,,,A,V*15
$GNGGA,170112.00,4843.26092,N,00920.55566,E,1,12,0.48,252.4,M,47.6,M,,*47
$GPGSV,3,1,11,07,13,314,31,08,29,293,38,10,41,156,48,13,04,024,,1*6D
$GPGSV,3,2,11,15,12,055,,16,61,206,41,18,35,059,47,23,53,092,42,1*69
$GPGSV,3,3,11,26,34,183,47,27,66,300,38,30,01,343,,1*55
$GLGSV,3,1,09,65,29,089,47,66,07,134,,72,19,028,41,78,19,193,37,1*72
$GLGSV,3,2,09,79,52,247,33,80,32,321,36,81,63,302,42,82,21,265,39,1*7D
$GLGSV,3,3,09,88,45,053,49,1*4B
$GAGSV,3,1,11,02,64,213,39,04,07,068,29,06,03,091,,10,08,056,30,7*79
$GAGSV,3,2,11,11,34,056,44,16,02,153,,19,04,016,,25,23,162,42,7*7A
$GAGSV,3,3,11,30,39,305,38,34,38,237,32,36,87,042,38,*4B
$GNRMC,170113.00,A,4843.26092,N,00920.55564,E,0.018,,080225,,,A,V*1D
$GNGGA,170113.00,4843.26092,N,00920.55564,E,1,12,0.48,252.4,M,47.6,M,,*44
$GPGSV,3,111,07,13,314,29,08,29,293,38,10,41,156,48,13,04,024,,1*64
$GPGSV,3,2,11,15,12,055,,16,61,206,41,18,35,059,47,23,53,092,42,1*69
$GPGSV,3,3,11,26,34,183,47,27,66,300,37,30,01,343,,1*5A
$GLGSV,3,1,09,65,29,089,47,66,07,134,,72,19,028,41,78,19,193,36,1*73
$GLGSV,3,2,09,79,52,247,33,80,32,321,35,81,63,302,42,82,21,265,39,1*7E
$GLGSV,3,3,09,88,45,053,49,1*4B
$GAGSV,3,1,11,02,64,213,39,04,07,068,29,06,03,091,,10,08,056,30,7*79
$GAGSV,3,2,11,11,34,056,43,16,02,153,,19,04,016,,25,23,162,42,7*7D
$GAGSV,3,3,11,30,39,305,38,34,38,237,32,36,87,042,38,7*4B
$GBGSV,3,1,12,02,03,100,37,05,18,122,43,08,30,036,35,12,26,270,,1*73
$GNRMC,170114.00,A,484.26091,N,00920.55563,E,0.037,,080225,,,A,V*13
$GNGGA,170114.00,4843.26091,N,00920.55563,E,1,12,0.48,252.4,M,47.6,M,,*47
$GPGSV,3,1,11,07,13,314,28,08,29,293,39,10,41,156,47,13,04,024,,1*6B
$GPGSV,3,2,11,15,12,055,,16,61,206,40,18,35,059,47,23,53,092,42,1*68
$GPGSV,3,3,11,26,34,183,47,27,66,300,38,30,01,343,,1*55
$GLGSV,3,1,09,65,29,089,47,66,07,134,,72,19,028,41,78,19,193,36,1*73
$GLGSV,3,2,09,79,52,247,33,80,32,321,34,81,63,302,43,82,21,265,39,1*7E
$GLGSV,3,3,09,88,45,053,49,1*4B
$GAGSV,3,1,11,02,64,213,40,04,07,068,29,06,03,091,,10,08,056,30,7*77
$GAGSV,3,2,11,11,34,056,43,1,02,153,,19,04,016,,25,23,162,42,7*7D
$GAGSV,3,3,11,30,39,305,38,34,38,237,32,36,87,042,38,7*4B
$GBGSV,3,1,12,02,03,100,37,05,18,122,43,08,30,036,35,12,26,270,,1*73
$GNRMC,170115.00,A,4843.26091,N,00920.55562,E,0.005,,080225,,,A,V*12
$GNGGA,170115.00,4843.26091,N,00920.55562,E,1,12,0.48,252.4,M,47.6,M,,*47
$GPGSV,3,1,11,07,13,314,28,08,29,293,38,10,41,156,47,13,04,024,,1*6A
$GPGSV,3,2,11,15,12,055,,16,61,20,40,18,35,059,47,23,53,092,41,1*6B
$GPGSV,3,3,11,26,34,183,47,27,66,300,38,30,01,343,,1*55
$GLGSV,3,2,09,79,52,247,33,80,32,321,34,81,63,302,43,82,21,265,39,1*7E
$GLGSV,3,3,09,88,45,053,49,1*4B
$GAGSV,3,1,11,02,64,213,40,04,07,068,30,06,03,091,,10,08,056,30,7*7F
$GAGSV,3,2,11,11,34,056,44,16,02,153,,19,04,016,,25,23,162,42,7*7A
$GAGSV,3,3,11,30,39,305,38,34,38,237,32,36,87,042,38,7*4B
$GBGSV,3,1,12,02,03,100,37,05,18,122,43,08,30,036,35,12,26,270,,1*73
$GNRMC,170116.00,A,4843.26091,N,00920.55561,E,0.027,,080225,,,A,V*12
$GNGGA,170116.00,4843.26091,N,00920.55561,E,1,12,0.48,252.4,M,47.6,M,,*47
$GPGSV,3,1,11,07,13,314,27,08,29,293,38,10,41,156,47,13,04,024,,1*65
$GPGSV,3,2,11,15,12,055,,16,61,206,40,18,35,059,47,23,53,092,41,1*6B
$GPGSV,3,3,11,26,34,183,47,27,66,300,38,30,01,343,,1*55
$GLGSV,3,1,09,65,29,089,48,66,07,134,,72,19,028,41,78,19,193,35,1*7F
$GLGSV,3,2,09,79,52,247,33,80,32,321,34,81,63,302,44,82,21,265,39,1*79
$GLGSV,3,3,09,88,45,053,49,1*4B
$GAGSV,3,1,11,02,64,213,40,04,07,068,30,06,03,091,,10,08,056,30,7*7F
$GAGSV,3,2,11,11,34,056,44,16,02,153,,19,04,016,,25,23,162,42,7*7A
$GAGSV,3,3,11,30,39,305,38,34,38,237,32,36,87,042,39,7*4A
$GBGSV,3,1,12,02,03,100,37,05,18,122,43,08,30,036,35,12,26,270,,1*73
$GNRMC,170117.00,A,4843.26090,N,00920.55559,E,0.007,,080225,,,A,V*1B
$GNGGA,170117.00,4843.26090,N,00920.55559,E,1,12,0.50,252.4,M,47.6,M,,*45
$GPGSV,3,1,11,07,13,314,28,08,29,293,38,10,41,156,46,13,04,024,,1*6B
$GPGSV,3,2,11,15,12,055,,16,61,206,40,18,35,059,47,23,53,092,40,1*6A
$GPGSV,3,3,11,26,34,183,47,27,66,300,38,30,01,343,,1*55
$GLGSV,3,1,09,65,29,089,48,66,07,134,,72,19,028,41,78,19,193,35,1*7F
$GLGSV,3,2,09,79,52,247,33,80,32,321,34,81,63,302,44,82,21,265,39,1*79
$GLGSV,3,3,09,88,45,053,49,1*4B
$GAGSV,3,1,11,02,64,213,40,04,07,068,31,06,03,091,,10,08,056,30,7*7E
$GAGSV,3,2,11,11,34,056,44,16,02,153,,19,04,015,,25,23,162,42,7*79
$GAGSV,3,3,11,30,39,305,38,34,38,237,33,36,87,042,39,7*4B
$GNRMC,170118.00,A,4843.26090,N,00920.55558,E,0.021,,080225,,,A,V*11
$GNGGA,170118.00,4843.26090,N,00920.55558,E,1,12,0.50,252.3,M,47.6,M,,*4C
$GPGSV,3,1,11,07,13,314,28,08,29,293,38,10,41,156,46,13,04,024,,1*6B
$GPGSV,3,2,11,15,12,055,,16,61,206,40,18,35,059,47,23,53,092,40,1*6A
$GPGSV,3,3,11,26,34,183,47,27,66,300,38,30,01,343,,1*55
$GLGSV,3,1,09,65,29,089,48,66,07,134,,72,19,028,40,78,19,193,34,1*7F
$GLGSV,3,2,09,79,52,247,33,80,32,321,33,81,63,302,44,82,21,265,39,1*7E
$GLGSV,3,3,09,88,45,053,49,1*4B
$GAGSV,3,1,11,02,64,213,40,04,07,068,31,06,03,091,,10,08,056,30,7*7E
$GAGSV,3,2,11,11,34,056,44,16,02,153,,19,04,015,,25,23,162,42,7*79
$GAGSV,3,3,11,30,39,305,38,34,38,237,33,36,87,042,39,7*4B
$GNRMC,170119.00,A,4843.26089,N,00920.55556,E,0.015,,080225,,,A,V*11
$GNGGA,170119.00,4843.26089,N,00920.55556,E,1,12,0.50,252.3,M,47.6,M,,*4B
$GPGSV,3,1,11,07,13,314,28,08,29,293,38,10,41,156,46,13,04,024,,1*6B
$GPGSV,3,2,11,15,12,055,,16,61,206,40,18,35,059,47,23,53,092,39,1*64
$GPGSV,3,3,11,26,34,183,47,27,66,300,39,30,01,343,,1*54
$GLGSV,3,1,09,65,29,089,48,66,07,134,,72,19,028,40,78,19,193,34,1*7F
$GLGSV,3,2,09,79,52,247,33,80,32,321,33,81,63,302,43,82,21,265,38,1*78
$GLGSV,3,3,09,88,45,053,49,1*4B
$GAGSV,3,1,11,02,64,213,40,04,07,068,32,06,03,091,,10,08,056,30,7*7D
$GAGSV,3,2,11,11,34,056,44,16,02,153,,19,04,015,,25,23,162,43,7*78
$GAGSV,3,3,11,30,39,305,38,34,38,237,33,36,87,042,39,7*4B
$GBGSV,3,1,12,02,03,100,37,05,18,122,43,08,30,036,35,12,26,270,,1*73
$GNRMC,170120.00,A,4843.26089,N,00920.55553,E,0.005,,080225,,,A,V*1F
$GNGGA,170120.00,4843.26089,N,00920.55553,E,1,12,0.50,252.3,M,47.6,M,,*44
$GPGSV,3,1,11,07,13,314,28,08,29,293,38,10,41,156,46,13,04,024,,1*6B
$GPGSV,3,2,11,15,12,055,,16,61,206,40,18,35,059,47,23,53,092,39,1*64
$GPGSV,3,3,11,26,34,183,47,27,66,300,39,30,01,343,,1*54
$GLGSV,3,1,09,65,29,089,48,66,07,134,,72,19,028,40,78,19,193,32,1*79
$GLGSV,3,2,09,79,52,247,33,80,32,321,33,81,3,302,43,82,21,265,38,1*78
$GLGSV,3,3,09,88,45,053,49,1*4B
$GAGSV,3,1,11,02,64,213,40,04,07,068,33,06,03,091,,10,08,056,31,7*7D
$GAGSV,3,2,11,11,34,056,44,16,02,153,,19,04,015,,25,23,162,42,7*79
$GAGSV,3,3,11,30,39,305,39,34,38,237,34,36,87,042,39,7*4D
$GBGSV,3,1,12,02,03,100,37,05,18,122,43,08,30,036,35,12,26,270,,1*73
$GBGSV,3,2,12,13,36,044,43,19,30,107,46,20,24,053,47,22,07,156,,1*7F
$GNRMC,170121.00,A,4843.26089,N,00920.55551,E,0.014,,080225,,,A,V*1C
$GNGGA,170121.00,4843.26089,N,00920.55551,E,,12,0.50,252.3,M,47.6,M,,*47
$GPGSV,3,1,11,07,13,314,28,08,29,293,38,10,41,156,46,13,04,024,,1*6B
$GPGSV,3,2,11,15,12,055,,16,61,206,41,18,35,059,47,23,53,092,39,1*65
$GPGSV,3,3,11,26,34,183,47,27,66,300,39,30,01,343,,1*54
$GLGSV,3,1,09,65,29,089,48,66,07,134,,72,19,028,39,78,19,193,32,1*77
$GLGSV,3,2,09,79,52,247,34,80,32,321,33,81,63,302,42,82,21,265,38,1*7E
$GLGSV,3,3,09,88,45,053,49,1*4B
$GAGSV,3,1,11,02,64,213,40,04,07,068,34,06,03,091,,10,08,056,31,7*7A
$GAGSV,3,2,11,11,34,056,44,16,02,153,,19,04,015,,25,23,162,42,7*79
$GAGSV,3,3,11,30,39,305,39,34,38,237,34,36,87,042,39,7*4D
$GBGSV,3,1,12,02,03,100,37,05,18,122,43,08,30,036,35,12,26,270,,1*73
