$GNRMC,15004.00,A,4843.26030,N,00920.55593,E,0.006,,080225,,,A,V*16
$GNGGA,115004.00,4843.26030,N,00920.55593,E,1,12,0.46,253.7,M,47.6,M,,*4C
$GPGSV,3,1,09,06,18,038,41,11,33,072,49,12,49,081,46,24,13,151,43,1*65
$GPGSV,3,2,09,25,83,355,35,28,40,305,40,29,52,210,42,31,17,312,38,1*6F
$GPGSV,3,3,09,32,28,254,,1*55
$GLGSV,3,1,09,66,06,239,20,67,22,288,41,68,16,338,35,75,20,106,42,1*7F
$GLGSV,3,2,09,76,73,048,39,77,43,311,,85,35,038,48,86,58,126,48,1*71
$GLGSV,3,3,09,87,24,175,42,1*4D
$GAGSV,3,1,11,03,33,285,35,05,26,225,43,08,10,332,,10,25,142,47,7*71
$GAGSV,3,2,11,11,08,163,40,12,35,116,38,16,70,294,39,24,77,053,,7*77
$GAGSV,3,3,11,25,44,279,,31,26,085,41,33,28,052,41,7*4E
$GBGSV,3,3,11,27,28,049,42,29,32,189,45,30,63,110,44,1*4F
$GNRMC,15020.00,A,4843.26020,N,00920.55615,E,0.011,,080225,,,A,V*1A
$GNGGA,115020.00,4843.26020,N,00920.55615,E,1,12,0.45,253.2,M,47.6,M,,*40
$GPGSV,3,1,09,06,18,038,41,11,33,072,49,12,49,081,48,24,13,151,42,1*6A
$GPGSV,3,2,09,25,83,355,36,28,40,305,41,29,52,210,40,31,17,312,37,1*60
$GPGSV,3,3,09,32,28,254,,1*55
$GLGSV,3,1,09,66,06,239,18,67,22,288,44,68,16,338,36,75,20,106,46,1*76
$GLGSV,3,2,09,76,73,048,36,77,43,311,,85,35,038,48,86,58,126,49,1*7F
$GLGSV,3,3,09,87,24,175,43,1*4C
$GAGSV,3,1,11,03,33,285,35,05,26,225,43,08,10,332,,10,25,142,45,7*73
$GAGSV,3,2,11,11,08,163,40,12,35,116,39,16,70,294,38,24,77,053,,7*77
$GAGSV,3,3,11,25,44,279,,31,25,086,39,33,28,051,41,7*42
$GBGSV,3,1,11,02,00,103,,05,15,124,42,08,04,083,39,10,11,062,36,1*79
$GBGSV,3,2,11,13,03,090,,14,01,354,,17,11,112,,21,09,283,41,1*7B
$GBGSV,3,3,11,27,28,049,42,29,32,189,44,30,63,110,46,1*4C
$GNRMC,15929.00,A,4843.25976,N,00920.55554,E,0.027,,080225,,,A,V*13
$GNGGA,125929.00,4843.25976,N,00920.55554,E,1,12,0.51,248.8,M,47.6,M,,*49
$GPGSV,3,1,12,04,03,342,,05,05,102,,11,21,043,45,12,21,103,48,1*6F
$GPGSV,3,2,12,18,20,178,44,20,15,068,43,25,60,103,47,26,22,293,40,1*64
$GPGSV,3,3,12,28,58,266,,29,86,220,37,31,43,299,39,32,05,232,,1*69
$GLGSV,3,1,09,68,12,304,36,69,11,351,42,76,47,119,49,77,78,347,,1*7B
$GLGSV,3,2,09,78,19,313,38,85,04,029,09,86,55,050,37,87,64,173,37,1*75
$GLGSV,3,3,09,88,09,202,39,1*42
$GAGSV,3,1,12,02,14,287,,03,21,260,,05,04,214,,08,18,312,,7*7B
$GAGSV,3,2,12,10,49,124,45,11,34,158,35,12,48,085,37,16,82,048,31,7*73
$GAGSV,3,3,12,24,57,094,44,25,66,299,36,31,06,103,41,33,15,033,34,7*79
$GBGSV,3,1,11,02,00,102,,05,16,124,40,08,20,077,44,10,04,072,,1*7E
$GBGSV,3,2,11,13,19,085,42,14,02,330,,17,12,128,,26,19,307,39,1*7D
$GNRMC,150000.00,A,4843.26034,N,00920.55457,E,0.003,,080225,,,A,V*1B
$GNGGA,150000.00,4843.26034,N,00920.55457,E,1,12,0.49,245.0,M,47.6,M,,*4B
$GPGSV,3,1,12,05,23,051,47,09,00,323,,16,43,302,38,18,74,137,45,1*69
$GPGSV,3,2,12,20,0,024,,23,15,146,48,25,10,135,45,26,71,271,38,1*66
$GPGSV,3,3,12,27,16,269,,28,20,206,,29,39,074,46,31,34,227,38,1*6D
$GLGSV,3,1,09,70,07,355,29,71,11,040,41,72,01,084,,77,33,161,44,1*72
$GLGSV,3,2,09,78,75,273,26,79,26,324,44,81,16,232,33,87,43,040,37,1*75
$GLGSV,3,3,09,88,70,248,40,1*4C
$GAGSV,3,1,10,02,52,301,31,07,04,322,,10,47,055,41,11,70,095,39,7*73
$GAGSV,3,2,10,12,24,045,39,16,44,133,43,24,18,130,43,25,70,141,44,7*72
$GAGSV,3,3,10,30,02,307,,36,43,196,42,7*7D
$GBGSV,3,1,11,02,02,101,37,05,17,123,40,08,37,056,43,13,39,066,45,1*76
$GBGSV,3,2,11,17,08,155,,20,05,098,,24,17,317,36,26,55,275,37,1*7E
$GNRMC,150001.00,A4843.26036,N,00920.55457,E,0.010,,080225,,,A,V*1A
$GNGGA,150001.00,4843.26036,N,00920.55457,E,1,12,0.49,245.0,M,47.6,M,,*48
$GPGSV,3,1,12,05,23,051,47,09,00,323,,16,43,302,37,18,74,137,45,1*66
$GPGSV,3,2,12,20,03,024,,23,15,146,47,25,10,135,45,26,71,271,38,1*69
$GPGSV,3,3,12,27,16,269,,28,20,206,,29,39,074,47,31,34,227,38,1*6C
$GLGSV,3,1,09,70,07,355,29,71,11,040,42,72,01,084,,77,33,161,44,1*71
$GLGSV,3,2,09,78,75,273,27,79,26,324,43,81,16,232,31,87,43,040,37,1*71
$GLGSV,3,3,09,88,70,248,40,1*4C
$GAGSV,3,1,10,02,52,301,31,07,04,322,,10,47,055,41,11,70,095,39,7*73
$GAGSV,3,2,10,12,24,045,39,16,44,133,43,24,18,130,44,25,70,141,45,7*74
$GAGSV,3,3,10,30,02,307,,36,43,196,42,7*7D
$GBGSV,3,1,11,02,02,101,37,05,17,123,40,08,37,056,43,13,39,066,45,1*76
$GNRMC,150002.00,A,4843.26038,N,00920.55458,E,0.012,,080225,,,A,V*1A
$GNGGA,150002.00,4843.26038,N,00920.55458,E,1,12,0.49,245.0,M,47.6,M,,*4A
$GPGSV,3,1,12,05,23,051,47,09,00,323,,16,43,302,37,18,74,137,45,1*66
$GPGSV,3,2,12,20,03,024,,23,15,146,47,25,10,135,44,26,71,271,38,1*68
$GPGSV,3,3,12,27,16,269,,28,20,206,,29,39,074,47,31,34,227,37,1*63
$GLGSV,3,1,09,70,07,355,29,71,11,040,42,72,01,084,,77,33,161,43,1*76
$GLGSV,3,2,09,78,75,273,28,79,26,324,43,81,16,232,32,87,43,040,37,1*7D
$GLGSV,3,3,09,88,70,248,40,1*4C
$GAGSV,3,1,10,02,52,301,31,07,04,322,,10,47,055,41,11,70,095,39,7*73
$GAGSV,3,2,10,12,24,045,39,16,44,133,43,24,18,130,43,25,70,141,45,7*73
$GAGSV,3,3,10,30,02,307,,36,43,196,42,7*7D
$GBGSV,3,1,11,02,02,101,37,05,17,123,40,08,37,056,43,13,39,066,45,1*76
$GNRMC,150003.00,A,4843.26039,N,00920.55458,E,0.009,,080225,,,A,V*10
$GNGGA,150003.00,4843.26039,N,00920.55458,E,1,12,0.49,245.0,M,47.6,M,,*4A
$GPGSV,3,1,12,05,23,051,47,09,00,323,,16,43,302,38,18,74,137,44,1*68
$GPGSV,3,2,12,20,03,024,,23,15,146,47,25,10,135,44,26,71,271,38,1*68
$GPGSV,3,3,12,27,16,269,,28,20,206,,29,39,074,46,31,34,227,37,1*62
$GLGSV,3,1,09,70,07,355,28,71,11,040,42,72,01,084,,77,33,161,43,1*77
$GLGSV,3,2,09,78,75,273,29,79,26,324,43,81,16,232,32,87,43,040,38,1*73
$GLGSV,3,3,09,88,70,248,41,1*4D
$GAGSV,3,1,10,02,52,301,32,07,04,322,,10,47,055,42,11,70,095,39,7*73
$GAGSV,3,2,10,12,24,045,39,16,44,133,43,24,18,130,43,25,70,141,45,7*73
$GAGSV,3,3,10,30,02,307,,36,43,196,42,7*7D
$GBGSV,3,1,11,02,02,101,37,05,17,123,40,08,37,056,43,13,39,066,45,1*76
$GBGSV,3,2,11,17,08,155,,20,05,098,,24,17,317,36,26,55,275,37,1*7E
$GNRMC,150004.00,A,4843.26041,N,00920.55458,E,0.005,,080225,,,A,V*14
$GNGGA,150004.00,483.26041,N,00920.55458,E,1,12,0.49,244.9,M,47.6,M,,*4A
$GPGSV,3,1,12,05,23,051,47,09,00,323,,16,43,302,38,18,74,137,45,1*69
$GPGSV,3,2,12,20,03,024,,23,15,146,46,25,10,135,44,26,71,271,36,1*67
$GPGSV,3,3,12,27,16,269,,28,20,206,,29,39,074,46,31,34,227,37,1*62
$GLGSV,3,1,09,70,07,355,28,71,11,040,43,72,01,084,,77,33,161,44,1*71
$GLGSV,3,2,09,78,75,273,29,79,26,324,43,81,16,232,33,87,43,040,38,1*72
$GLGSV,3,3,09,88,70,248,40,1*4C
$GAGSV,3,1,10,02,53,301,31,07,04,322,,10,47,055,41,11,70,095,38,7*73
$GAGSV,3,2,10,12,24,045,40,16,44,133,43,24,18,130,43,25,70,141,45,7*7D
$GAGSV,3,3,10,30,02,307,,36,43,196,42,7*7D
$GBGSV,3,1,11,02,02,101,37,05,17,123,40,08,37,056,43,13,39,066,45,1*76
$GNRMC,150005.00,A,4843.26043,N,00920.55459,E,0.011,,080225,,,A,V*13
$GPGSV,3,1,12,05,23,051,47,09,00,323,,16,43,302,37,18,74,137,45,1*66
$GPGSV,3,2,12,20,03,024,,23,15,146,46,25,10,135,44,26,71,271,36,1*67
$GPGSV,3,3,12,27,16,269,,28,20,206,,29,39,074,46,31,34,227,37,1*62
$GLGSV,3,1,09,70,07,355,27,71,11,040,43,72,01,084,,77,33,161,44,1*7E
$GLGSV,3,2,09,78,75,273,28,79,26,324,43,81,16,232,34,87,43,040,38,1*74
$GLGSV,3,3,09,88,70,248,40,1*4C
$GNRMC,150006.00,A,4843.26044,N,00920.55459,E,0.016,,080225,,,A,V*10
$GNGGA,150006.00,4843.26044,N,00920.55459,E,1,12,0.49,244.9,M,47.6,M,,*4C
$GPGSV,3,1,12,05,23,051,47,09,00,323,,16,43,302,38,18,74,137,45,1*69
$GPGSV,3,2,12,20,03,024,,23,15,146,46,25,10,135,44,26,71,271,36,1*67
$GPGSV,3,3,12,27,16,269,,28,20,206,,29,39,074,46,31,34,227,37,1*62
$GLGSV,3,1,09,70,07,355,27,71,11,040,42,72,01,084,,77,33,161,44,1*7F
$GLGSV,3,2,09,78,75,273,29,79,26,324,43,81,16,232,35,87,43,040,39,1*75
$GLGSV,3,3,09,88,70,248,39,1*42
$GAGSV,3,1,10,02,53,301,32,07,04,322,,10,47,055,41,11,70,095,39,7*71
$GAGSV,3,2,10,12,24,045,40,16,44,133,43,24,18,130,44,25,70,141,45,7*7A
$GAGSV,3,3,10,30,02,307,,36,43,196,42,7*7D
$GBGSV,3,1,11,02,02,101,37,05,17,123,40,08,37,056,43,13,39,066,45,1*76
$GNRMC,150007.00,A,4843.26045,N,00920.55460,E,0.015,,080225,,,A,V*19
$GNGGA,150007.00,4843.26045,N,00920.55460,E,1,12,0.49,244.9,M,47.6,M,,*46
$GPGSV,3,1,12,05,23,051,47,09,00,323,,16,43,302,37,18,74,137,45,1*66
$GPGSV,3,2,12,20,03,024,,23,15,146,46,25,10,135,44,26,71,271,36,1*67
$GPGSV,3,3,12,27,16,269,,28,20,206,,29,39,074,46,31,34,227,38,1*6D
$GLGSV,3,1,09,70,07,355,28,71,11,040,42,72,01,084,,77,33,161,44,1*70
$GLGSV,3,2,09,78,75,273,30,79,26,324,42,81,16,232,36,87,43,040,38,1*7E
$GLGSV,3,3,09,88,70,248,36,1*4D
$GAGSV,3,1,10,02,53,301,32,07,04,322,,10,47,055,41,11,70,095,39,7*71
$GAGSV,3,2,10,12,24,045,40,16,44,133,43,24,18,130,43,25,70,141,45,7*7D
$GAGSV,3,3,10,30,02,307,,36,43,196,42,7*7D
$GBGSV,3,1,11,02,02,101,37,05,17,123,40,08,37,056,43,13,39,066,45,1*76
$GNRMC,150008.00,A,4843.26046,N,00920.55460,,0.012,,080225,,,A,V*12
$GNGGA,150008.00,4843.26046,N,00920.55460,E,1,12,0.49,244.9,M,47.6,M,,*4A
$GPGSV,3,1,12,05,23,051,47,09,00,323,,16,43,302,37,18,74,137,45,1*66
$GPGSV,3,2,12,20,03,024,,23,15,146,46,25,10,135,44,26,71,271,35,1*64
$GPGSV,3,3,12,27,16,269,,28,20,206,,29,39,074,46,31,34,227,38,1*6D
$GLGSV,3,1,09,70,07,355,28,71,11,040,41,72,01,084,,77,33,161,44,1*73
$GLGSV,3,2,09,78,75,273,30,79,26,324,42,81,16,232,37,87,43,040,38,1*7F
$GLGSV,3,3,09,88,70,248,37,1*4C
$GAGSV,3,1,10,02,53,301,32,07,04,322,,10,47,055,41,11,70,095,39,7*71
$GAGSV,3,2,10,12,24,045,40,16,44,133,43,24,18,130,43,25,70,141,45,7*7D
$GAGSV,3,3,10,30,02,307,,36,43,196,42,7*7D
$GBGSV,3,1,11,02,02,101,37,05,17,123,40,08,37,056,43,13,39,066,45,1*76
$GNRMC,150009.00,A,4843.26047,N,00920.55459,E,0.058,,080225,,,A,V*16
$GNGGA,150009.00,4843.26047,N,00920.55459,E,1,12,0.49,244.9,M,47.6,M,,*40
$GPGSV,3,1,12,05,23,051,47,09,00,323,,16,43,302,36,18,74,137,45,1*67
$GPGSV,3,2,12,20,03,024,,23,15,146,45,25,10,135,45,26,71,271,34,1*67
$GPGSV,3,3,12,27,16,269,,28,20,206,,29,39,074,46,31,34,227,38,1*6D
$GLGSV,3,1,09,70,07,355,28,71,11,040,41,72,01,084,,77,33,161,44,1*73
$GLGSV,3,2,09,78,75,273,30,79,26,324,42,81,16,232,35,87,43,040,38,1*7D
$GLGSV,3,3,09,88,70,248,37,1*4C
$GAGSV,3,1,10,02,53,301,33,07,04,322,,10,47,055,41,11,70,095,39,7*70
$GAGSV,3,2,10,12,24,045,40,16,44,133,43,24,18,130,44,25,70,141,45,7*7A
$GAGSV,3,3,10,30,02,307,,36,43,196,42,7*7D
$GBGSV,3,1,11,02,02,101,37,05,17,123,40,08,37,056,43,13,39,066,45,1*76
$GBGSV,3,2,11,17,08,155,,20,05,098,,24,17,317,36,26,55,275,38,1*71
$GNRMC,150010.00,A,4843.26047,N,00920.55459,E,0.011,,080225,,,A,V*13
$GNGGA,150010.00,4843.26047,N,00920.55459,E,1,12,0.49,244.9,M,47.6,M,,*48
$GPGSV,3,1,12,05,23,051,46,09,00,323,,16,43,302,36,18,74,137,44,1*67
$GPGSV,3,2,12,20,03,024,,23,15,146,45,25,10,135,45,26,71,271,34,1*67
$GPGSV,3,3,12,27,16,269,,28,20,206,,29,39,074,45,31,34,227,39,1*6F
$GLGSV,3,1,09,70,07,355,29,71,12,039,42,72,01,084,,77,32,162,44,1*7E
$GLGSV,3,2,09,78,75,273,29,79,27,324,41,81,16,232,41,87,43,040,38,1*74
$GLGSV,3,3,09,88,70,249,37,1*4D
$GAGSV,3,1,10,02,53,301,33,07,04,322,,10,47,055,41,11,70,095,39,7*70
$GAGSV,3,2,10,12,24,045,40,16,44,133,43,24,18,130,44,25,70,141,46,7*79
$GAGSV,3,3,10,30,02,307,,36,43,196,2,7*7D
$GBGSV,3,1,11,02,02,101,37,05,17,123,40,08,37,056,43,13,39,066,45,1*76
$GNRMC,150011.00,A,4843.26048,N,00920.55459,E,0.032,,080225,,,A,V*1C
$GNGGA,150011.00,4843.26048,N,00920.55459,E,1,12,0.49,244.9,M,47.6,M,,*46
$GPGSV,3,1,12,05,23,051,46,09,00,323,,16,43,302,36,18,74,137,44,1*67
$GPGSV,3,2,12,20,03,024,,23,15,146,45,25,10,135,45,26,71,271,34,1*67
$GPGSV,3,3,12,27,16,269,,28,20,206,,29,39,074,46,31,34,227,39,1*6C
$GLGSV,3,1,09,70,07,355,28,71,12,039,41,72,01,084,,77,32,162,44,1*7C
$GLGSV,3,2,09,78,75,273,28,79,27,324,42,81,16,232,40,87,43,040,38,1*77
$GLGSV,3,3,09,88,70,249,37,1*4D
$GAGSV,3,1,10,02,53,301,33,07,04,322,,10,47,055,41,11,70,095,39,7*70
$GAGSV,3,2,10,12,24,045,40,16,44,133,43,24,18,130,44,25,70,141,46,7*79
$GAGSV,3,3,10,30,02,307,,36,43,196,43,7*7C
$GBGSV,3,1,11,02,02,101,37,05,17,123,40,08,37,056,43,13,39,066,45,1*76
$GBGSV,3,2,11,17,08,155,,20,05,098,,24,17,317,36,26,55,275,38,1*71
$GNRMC,150012.00,A,4843.26049,N,00920.55460,E,0.013,,080225,,,A,V*17
$GNGGA,150012.00,4843.26049,N,00920.55460,E,1,12,0.49,244.9,M,47.6,M,,*4E
$GPGSV,3,1,12,05,23,051,46,09,00,323,,16,43,302,36,18,74,137,44,1*67
$GPGSV,3,2,12,20,03,024,,23,15,146,45,25,10,135,45,26,71,271,35,1*66
$GPGSV,3,3,12,27,16,269,,28,2,206,,29,39,074,45,31,34,227,39,1*6F
$GLGSV,3,1,09,70,07,355,28,71,12,039,41,72,01,084,,77,32,162,44,1*7C
$GLGSV,3,2,09,78,75,273,27,79,27,324,42,81,16,232,41,87,43,040,38,1*79
$GLGSV,3,3,09,88,70,249,38,1*42
$GAGSV,3,1,10,02,53,301,33,07,04,322,,10,46,055,41,11,70,095,40,7*7F
$GAGSV,3,2,10,12,24,045,40,16,44,133,42,24,18,130,44,25,70,141,46,7*78
$GAGSV,3,3,10,30,02,307,,36,43,196,43,7*7C
$GBGSV,3,1,11,02,02,101,37,05,17,123,40,08,37,056,43,13,39,066,45,1*76
$GNRMC,150013.00,A,4843.26051,N,00920.55459,E,0.022,,080225,,,A,V*17
$GNGGA,150013.00,4843.26051,N,00920.55459,E,1,12,0.49,244.9,M,47.6,M,,*4C
$GPGSV,3,1,12,05,23,051,45,09,00,323,,16,43,302,36,18,74,137,44,1*64
$GPGSV,3,2,12,20,03,024,,23,15,146,44,25,10,135,45,26,71,271,34,1*66
$GPGSV,3,3,12,27,16,269,,28,20,206,,29,39,074,45,31,34,227,39,1*6F
$GLGSV,3,1,09,70,07,355,29,71,12,039,41,72,01,084,,77,32,162,44,1*7D
$GLGSV,3,2,09,78,75,273,28,79,27,324,42,81,16,232,41,87,43,040,38,1*76
$GLGSV,3,3,09,88,70,249,38,1*42
$GAGSV,3,1,10,02,53,301,33,07,04,322,,10,46,055,41,11,70,093,39,7*77
$GAGSV,3,2,10,12,24,045,40,16,44,133,42,24,18,130,44,25,70,141,46,7*78
$GAGSV,3,3,10,30,02,307,,36,43,196,43,7*7C
$GBGSV,3,1,11,02,02,101,37,05,17,123,40,08,37,056,43,13,39,066,45,1*76
$GNRMC,150014.00,A,4843.26052,N,00920.55460,E,0.024,,080225,,,A,V*1F
$GNGGA,150014.00,4843.26052,N,00920.55460,E,1,12,0.51,245.0,M,47.6,M,,*43
$GPGSV,3,1,12,05,23,051,46,09,00,323,,16,43,302,36,18,74,137,44,1*67
$GPGSV,3,2,12,20,03,024,,23,15,146,44,25,10,135,44,26,71,271,35,1*66
$GPGSV,3,3,12,27,16,269,,28,20,206,,29,39,074,45,31,34,227,39,1*6F
$GLGSV,3,1,09,70,07,355,28,71,12,039,42,72,01,084,,77,32,162,45,1*7E
$GLGSV,3,2,09,78,75,273,29,79,27,324,42,81,16,232,41,87,43,040,39,1*76
$GLGSV,3,3,09,88,70,249,38,1*42
$GAGSV,3,1,10,02,53,301,33,07,04,322,,10,46,055,41,11,70,093,39,7*77
$GAGSV,3,2,10,12,24,045,40,16,44,133,42,24,18,130,45,25,70,141,46,7*79
$GAGSV,3,3,10,30,02,307,,36,43,196,43,7*7C
$GBGSV,3,1,11,02,02,101,37,05,17,123,40,08,37,056,43,13,39,066,45,1*76
$GBGSV,3,2,11,17,08,55,,20,05,098,,24,17,317,35,26,55,275,38,1*72
$GNRMC,150015.00,A,4843.26054,N,00920.55459,E,0.036,,080225,,,A,V*11
$GNGGA,150015.00,4843.26054,N,00920.55459,E,1,12,0.49,245.0,M,47.6,M,,*47
$GPGSV,3,1,12,05,23,051,46,09,00,323,,16,43,302,36,18,74,137,44,1*67
$GPGSV,3,3,12,27,16,269,,28,0,206,,29,39,074,44,31,34,227,39,1*6E
$GLGSV,3,1,09,70,07,355,29,71,12,039,42,72,01,084,,77,32,162,44,1*7E
$GLGSV,3,2,09,78,75,273,30,79,27,324,42,81,16,232,40,87,43,040,39,1*7F
$GLGSV,3,3,09,88,70,249,38,1*42
$GAGSV,3,1,10,02,53,301,34,07,04,322,,10,46,055,41,11,70,093,39,7*70
$GAGSV,3,2,10,12,24,045,40,16,44,133,42,24,18,130,45,25,70,141,46,7*79
$GAGSV,3,3,10,30,02,307,,36,43,196,43,7*7C
$GNRMC,150016.00,A,4843.26056,N,00920.55459,E,0.020,,080225,,,A,V*17
$GNGGA,150016.00,4843.26056,N,00920.55459,E,1,12,0.49,245.0,M,47.6,M,,*46
$GPGSV,3,1,12,05,23,051,46,09,00,323,,16,43,302,36,18,74,137,45,1*66
$GPGSV,3,2,12,20,03,024,,23,15,146,41,25,10,135,44,26,71,271,36,1*60
$GPGSV,3,3,12,27,16,269,,28,20,206,,29,39,074,45,31,34,227,40,1*61
$GLGSV,3,1,09,70,07,355,31,71,12,039,42,72,01,084,,77,32,162,45,1*76
$GLGSV,3,2,09,78,75,273,30,79,27,324,43,81,16,232,40,87,43,040,39,1*7E
$GLGSV,3,3,09,88,70,249,37,1*4D
$GAGSV,3,1,10,02,53,301,35,07,04,322,,10,46,055,41,11,70,093,39,7*71
$GAGSV,3,2,10,12,24,045,40,16,44,133,42,24,18,130,45,25,70,141,46,7*79
$GAGSV,3,3,10,30,02,307,,36,43,196,43,7*7C
$GBGSV,3,1,11,02,02,101,37,05,17,123,39,08,37,055,43,13,39,066,45,1*7B
$GNRMC,150017.00,A,4843.26058,N,00920.55458,E,0.016,,080225,,,A,V*1C
$GNGGA,150017.00,4843.26058,N,00920.55458,E,1,12,0.49,245.0,M,47.6,M,,*48
$GPGSV,3,1,12,05,23,051,46,09,00,323,,16,43,302,36,18,74,137,44,1*67
$GPGSV,3,2,12,20,03,024,,23,15,146,43,25,10,135,45,26,71,271,37,1*62
$GPGSV,3,3,12,27,16,269,,28,20,206,,29,39,074,44,31,34,227,40,1*60
$GLGSV,3,1,09,70,07,355,31,71,12,039,42,72,01,084,,77,32,162,45,1*76
$GLGSV,3,2,09,78,75,273,32,79,27,324,43,81,16,232,40,87,43,040,40,1*72
$GLGSV,3,3,09,88,70,249,37,1*4D
$GAGSV,3,1,10,02,53,301,35,07,04,322,,10,46,055,42,11,70,093,39,7*72
$GAGSV,3,2,10,12,24,045,40,16,44,133,42,24,18,130,45,25,70,141,45,7*7A
$GAGSV,3,3,10,30,02,307,,36,43,196,43,7*7C
$GBGSV,3,1,11,02,02,101,37,05,17,123,40,08,37,055,43,13,39,066,45,1*75
$GNRMC,150018.00,A,4843.26060,N,00920.55457,E,0.017,,080225,,,A,V*16
$GNGGA,150018.00,4843.26060,N,00920.55457,E,1,12,0.49,245.0,M,47.6,M,,*43
$GPGSV,3,1,12,05,23,051,46,09,00,323,,16,43,302,37,18,74,137,44,1*66
$GPGSV,3,2,12,20,03,024,,23,15,146,42,25,10,135,45,26,71,271,37,1*63
$GPGSV,3,3,12,27,16,269,,28,20,206,,29,39,074,44,31,34,227,40,1*60
$GLGSV,3,1,09,70,07,355,30,71,12,039,41,72,01,084,,77,32,162,45,1*74
$GLGSV,3,2,09,78,75,273,33,79,27,324,43,81,16,232,41,87,43,040,39,1*7C
$GLGSV,3,3,09,88,70,249,38,1*42
$GAGSV,3,1,10,02,53,301,35,07,04,322,,10,46,055,42,11,70,093,39,7*72
$GAGSV,3,2,10,12,24,045,40,16,44,133,42,24,18,130,45,25,70,141,45,7*7A
$GAGSV,3,3,10,30,02,307,,36,43,196,43,7*7C
$GBGSV,3,1,11,02,02,101,37,05,17,123,40,08,37,055,43,13,39,066,45,1*75
$GBGSV,3,2,11,17,08,155,,20,05,098,,24,17,317,35,26,55,274,39,1*72
$GNRMC,150019.00,A,4843.26062,N,00920.55455,E,0.007,,080225,,,A,V*16
$GNGGA,150019.00,4843.26062,N,00920.55455,E,1,12,0.49,245.0,M,47.6,M,,*42
$GPGSV,3,1,12,05,23,051,46,09,00,323,,16,43,302,37,18,74,137,44,1*66
$GPGSV,3,2,12,20,03,024,,23,15,146,41,25,10,135,44,26,71,271,36,1*60
$GPGSV,3,3,12,27,16,269,,28,20,206,,29,39,074,44,31,34,227,40,1*60
$GLGSV,3,1,09,70,07,355,30,71,12,039,41,72,01,084,,77,32,162,45,1*74
$GLGSV,3,2,09,78,75,273,34,79,27,324,43,81,16,232,41,87,43,040,38,1*7A
$GLGSV,3,3,0988,70,249,39,1*43
$GAGSV,3,1,10,02,53,301,34,07,04,322,,10,46,055,41,11,70,093,40,7*7E
$GAGSV,3,2,10,12,24,045,40,16,44,133,42,24,18,130,45,25,70,141,45,7*7A
$GAGSV,3,3,10,30,02,307,,36,43,196,43,7*7C
$GBGSV,3,1,11,02,02,101,37,05,17,123,39,08,37,055,43,13,39,066,45,1*7B
$GNRMC,150020.00,A,4843.26064,N,00920.55455,E,0.006,,080225,,,A,V*1B
$GNGGA,150020.00,4843.26064,N,00920.55455,E,1,12,0.49,245.1,M,47.6,M,,*4F
$GPGSV,3,1,12,05,23,051,46,09,00,323,,16,43,302,37,18,74,137,43,1*61
$GPGSV,3,2,12,20,03,024,,23,15,146,41,25,10,135,45,26,71,271,36,1*61
$GPGSV,3,3,12,27,16,269,,28,20,206,,29,39,074,43,31,34,227,41,1*66
$GLGSV,3,1,09,70,07,355,31,71,12,039,40,72,01,084,,77,32,162,45,1*74
$GLGSV,3,2,09,78,75,273,34,79,27,324,44,81,16,232,39,87,43,040,38,1*72
$GLGSV,3,3,09,88,70,249,39,1*43
$GAGSV,3,1,10,02,53,301,35,07,04,322,,10,46,055,42,11,70,093,39,7*72
$GAGSV,3,2,10,12,24,045,40,16,44,133,42,24,18,130,45,25,70,141,45,7*7A
$GAGSV,3,3,10,30,02,307,,36,43,196,43,7*7C
$GBGSV,3,1,11,02,02,101,37,05,17,123,40,08,37,055,43,13,39,066,45,1*75
$GBGSV,3,2,11,17,08,155,,20,05,098,,24,17,317,35,26,55,274,38,1*73
$GNRMC,150021.00,A,4843.26066,N,00920.55454,E,0.019,,080225,,,A,V*17
$GNGGA,150021.00,4843.26066,N,00920.55454,E,1,12,0.49,245.1,M,47.6,M,,*4D
$GPGSV,3,1,12,05,23,051,45,09,00,323,,16,43,302,37,18,74,137,43,1*62
$GPGSV,3,2,12,20,03,024,,23,15,146,41,25,10,135,45,26,71,271,33,1*64
$GPGSV,3,3,12,27,16,269,,28,20,206,,29,39,074,43,31,34,227,42,1*65
$GLGSV,3,1,09,70,07,355,31,71,12,039,40,72,01,084,,77,32,162,46,1*77
$GLGSV,3,2,09,78,75,273,34,79,27,324,44,81,16,232,36,87,43,040,39,1*7C
$GLGSV,3,3,09,88,70,249,39,1*43
$GAGSV,3,1,10,02,53,301,35,07,04,322,,10,46,055,42,11,70,093,39,7*72
$GAGSV,3,2,10,12,24,045,40,16,44,133,42,24,18,130,45,25,70,141,44,7*7B
$GAGSV,3,3,10,30,02,307,,36,43,196,43,7*7C
$GBGSV,3,1,11,02,02,101,37,05,17,123,39,08,37,055,43,13,39,066,46,1*78
$GNRMC,150022.00,A,4843.26068,N,00920.55453,E,0.023,,080225,,,A,V*14
$GNGGA,150022.00,4843.26068,N,00920.55453,E,1,12,0.49,245.1,M,47.6,M,,*47
$GPGSV,3,1,12,05,23,051,46,09,00,323,,16,43,302,37,18,74,137,43,1*61
$GPGSV,3,2,12,20,03,024,,23,15,146,41,25,10,135,45,26,71,271,36,1*61
$GPGSV,3,3,12,27,16,269,,28,20,206,,29,39,074,42,31,34,227,40,1*66
$GLGSV,3,1,09,70,07,355,32,71,12,039,39,72,01,084,,77,32,162,44,1*78
$GLGSV,3,2,09,78,75,273,37,79,27,324,45,81,16,232,39,87,43,040,38,1*70
$GLGSV,3,3,09,88,70,249,35,1*4F
$GAGSV,3,1,10,02,53,301,36,07,04,322,,10,46,055,42,11,70,093,39,7*71
$GAGSV,3,2,10,12,24,045,40,16,44,133,40,24,18,130,45,25,70,142,46,7*78
$GAGSV,3,3,10,30,02,307,,36,43,196,41,7*7E
$GBGSV,3,1,11,02,02,101,38,05,17,123,39,08,37,055,43,13,39,066,46,1*77
$GNRMC,150023.00,A,4843.26071,N,00920.55454,E,0.030,,080225,,,A,V*18
$GNGGA,150023.00,4843.26071,N,00920.55454,E,1,12,0.49,245.1,M,47.6,M,,*49
$GPGSV,3,1,12,05,23,051,46,09,00,323,,16,43,302,34,18,74,137,43,1*62
$GPGSV,3,2,12,20,03,02,,23,15,146,41,25,10,135,46,26,71,271,37,1*63
$GPGSV,3,3,12,27,16,269,,28,20,206,,29,39,074,45,31,34,227,40,1*61
$GLGSV,3,1,09,70,07,355,32,71,12,039,36,72,01,084,,77,32,162,45,1*76
$GLGSV,3,2,09,78,75,273,37,79,27,324,44,81,16,232,40,87,43,040,38,1*7F
$GLGSV,3,3,09,88,70,249,37,1*4D
$GAGSV,3,1,10,02,53,301,36,07,04,322,,10,46,055,43,11,70,093,39,7*70
$GAGSV,3,2,10,12,24,045,40,16,44,133,41,24,18,130,45,25,70,142,45,7*7A
$GAGSV,3,3,10,30,02,307,,36,43,196,43,7*7C
$GBGSV,3,1,11,02,02,101,38,05,17,123,39,08,37,055,42,13,39,066,46,1*76
$GBGSV,3,2,11,17,08,155,,20,05,098,,24,17,317,34,26,55,274,40,1*7D
$GNRMC,150024.00,A,4843.26073,N,00920.55455,E,0.022,,080225,,,A,V*1F
$GNGGA,150024.00,4843.26073,N,00920.55455,E,1,12,0.49,245.2,M,47.6,M,,*4E
$GPGSV,3,1,12,05,23,051,46,09,00,323,,16,43,302,37,18,74,137,44,1*66
$GPGSV,3,2,12,20,03,024,,23,15,146,40,25,10,135,45,26,71,271,36,1*60
$GPGSV,3,3,12,27,16,269,,28,20,206,,29,39,074,44,31,34,227,40,1*60
$GLGSV,3,1,09,70,07,355,31,71,12,039,38,72,01,084,,77,32,162,45,1*7B
$GLGSV,3,2,09,78,75,273,6,79,27,324,45,81,16,232,39,87,43,040,35,1*7C
$GLGSV,3,3,09,88,70,249,38,1*42
$GAGSV,3,1,10,02,53,301,36,07,04,322,,10,46,055,43,11,70,093,39,7*70
$GAGSV,3,2,10,12,24,045,40,16,44,133,42,24,18,130,47,25,70,142,45,7*7B
$GAGSV,3,3,10,30,02,307,,36,43,196,41,7*7E
$GBGSV,3,1,11,02,02,101,38,05,17,123,40,08,37,055,43,13,39,066,46,1*79
$GNRMC,150025.00,A,4843.26074,N,00920.55456,E,0.022,,080225,,,A,V*1A
$GNGGA,150025.00,4843.26074,N,00920.55456,E,1,12,0.49,245.2,M,47.6,M,,*4B
$GPGSV,3,1,12,05,23,051,46,09,00,323,,16,43,302,37,18,74,137,44,1*66
$GPGSV,3,2,12,20,03,024,,23,15,146,39,25,10,135,44,26,71,271,36,1*6F
$GPGSV,3,3,12,27,16,269,,28,20,206,,29,39,074,44,31,34,227,40,1*60
$GLGSV,3,1,09,70,07,355,30,71,12,039,36,72,01,084,,77,32,162,45,1*74
$GLGSV,3,2,09,78,75,273,36,79,27,324,45,81,16,232,40,87,43,040,38,1*7F
$GLGSV,3,3,09,88,70,249,39,1*43
$GAGSV,3,1,10,02,53,301,36,07,04,322,,10,46,055,41,11,70,093,40,7*7C
$GAGSV,3,2,10,12,24,045,40,16,44,133,42,24,18,130,46,25,70,142,45,7*7A
$GAGSV,3,3,10,30,02,307,,36,43,196,42,7*7D
$GBGSV,3,1,11,02,02,101,37,05,17,123,41,08,37,055,43,13,39,066,46,1*77
$GNRMC,150026.00,A,4843.26076,N,00920.55457,E,0.021,,080225,,,A,V*19
$GNGGA,150026.00,4843.26076,N,00920.55457,E,1,12,0.49,245.2,M,47.6,M,,*4B
$GPGSV,3,1,12,05,23,051,46,09,00,323,,16,43,302,38,18,74,137,44,1*69
$GPGSV,3,2,12,20,03,024,,23,15,146,39,25,10,135,45,26,71,271,36,1*6E
$GPGSV,3,3,12,27,16,269,,28,20,206,,29,39,074,44,31,34,227,39,1*6E
$GLGSV,3,1,09,70,07,355,31,71,12,039,36,72,01,084,,77,32,162,45,1*75
$GLGSV,3,2,09,78,75,273,36,79,27,324,45,81,16,232,41,87,43,040,38,1*7E
$GLGSV,3,3,09,88,70,249,38,1*42
$GAGSV,3,1,10,02,53,301,35,07,04,322,,10,46,055,42,11,70,093,40,7*7C
$GAGSV,3,2,10,12,24,045,40,16,44,13,42,24,18,130,47,25,70,142,45,7*7B
$GAGSV,3,3,10,30,02,307,,36,43,196,42,7*7D
$GBGSV,3,1,11,02,02,101,37,05,17,123,41,08,37,055,43,13,39,066,45,1*74
$GNRMC,150027.00,A,4843.26079,N,00920.55459,E,0.013,,080225,,,A,V*18
$GNGGA,150027.00,4843.26079,N,00920.55459,E,1,12,0.49,245.2,M,47.6,M,,*4B
$GPGSV,3,1,12,05,23,051,47,09,00,323,,16,43,302,38,18,74,137,45,1*69
$GPGSV,3,2,12,20,03,024,,23,15,146,39,25,10,135,45,26,71,271,36,1*6E
$GPGSV,3,3,12,27,16,269,,28,20,206,,29,39,074,43,31,34,227,40,1*67
$GLGSV,3,1,09,70,07,355,31,71,12,039,36,72,01,084,,77,32,162,45,1*75
$GLGSV,3,2,09,78,75,273,36,79,27,324,45,81,16,232,40,87,43,040,38,1*7F
$GLGSV,3,3,09,88,70,249,37,1*4D
$GAGSV,3,1,10,02,53,301,35,07,04,322,,10,46,055,42,11,70,093,40,7*7C
$GAGSV,3,2,10,12,24,045,40,16,44,133,42,24,18,130,47,25,70,142,45,7*7B
$GAGSV,3,3,10,30,02,307,,36,43,196,41,7*7E
$GBGSV,3,1,11,02,02,101,37,05,17,123,41,08,37,055,43,13,39,066,46,1*77
$GNRMC,150028.00,A,4843.26081,N,00920.55461,E,0.019,,080225,,,A,V*11
$GNGGA,150028.00,4843.26081,N,00920.55461,E,1,12,0.49,245.2,M,47.6,M,,*48
$GPGSV,3,1,12,05,23,051,47,09,00,323,16,43,302,37,18,74,137,44,1*67
$GPGSV,3,2,12,20,03,024,,23,15,146,40,25,10,135,44,26,71,271,36,1*61
$GPGSV,3,3,12,27,16,269,,28,20,206,,29,39,074,44,31,34,227,39,1*6E
$GLGSV,3,1,09,70,07,355,31,71,12,039,36,72,01,084,,77,32,162,45,1*75
$GLGSV,3,2,09,78,75,273,35,79,27,324,45,81,16,232,39,87,43,040,38,1*72
$GLGSV,3,3,09,88,70,249,36,1*4C
$GAGSV,3,1,10,02,53,301,35,07,04,322,,10,46,055,42,11,70,093,40,7*7C
$GAGSV,3,2,10,12,24,045,40,16,44,133,41,24,18,130,47,25,70,142,45,7*78
$GAGSV,3,3,10,30,02,307,,36,43,196,41,7*7E
$GBGSV,3,1,11,02,02,101,37,05,17,123,40,08,37,055,43,13,39,066,45,1*75
$GBGSV,3,2,11,17,08,155,,20,05,098,,24,17,317,35,26,55,274,39,1*72
$GNRMC,150029.00,A,4843.26083,N,00920.55462,E,0.007,,080225,,,A,V*1E
$GNGGA,150029.00,4843.26083,N,00920.55462,E,1,12,0.49,245.2,M,47.6,M,,*48
$GPGSV,3,1,12,05,23,051,47,09,00,323,,16,43,302,37,18,74,137,44,1*67
$GPGSV,3,2,12,20,03,024,,23,15,146,39,25,10,135,45,26,71,271,36,1*6E
$GPGSV,3,3,12,27,16,269,,28,20,206,,29,39,074,44,31,34,227,39,1*6E
$GLGSV,3,1,09,70,07,355,31,71,12,039,35,72,01,084,,77,32,162,45,1*76
$GLGSV,3,2,09,78,75,273,35,79,27,324,45,81,16,232,39,87,43,040,38,1*72
$GLGSV,3,3,09,88,70,249,36,1*4C
$GAGSV,3,1,10,02,53,301,35,07,04,322,,10,46,055,42,11,70,093,40,7*7C
$GAGSV,3,2,10,12,24,045,40,16,44,133,41,24,18,130,47,25,70,142,45,7*78
$GAGSV,3,3,10,30,02,307,,36,43,196,41,7*7E
$GBGSV,3,1,11,02,02,101,37,05,17,123,40,08,37,055,43,13,39,066,45,1*75
$GNRMC,150030.00,A,4843.26085,N,00920.55465,E,.005,,080225,,,A,V*15
$GNGGA,150030.00,4843.26085,N,00920.55465,E,1,12,0.49,245.1,M,47.6,M,,*42
$GPGSV,3,1,12,05,23,051,46,09,00,323,,16,43,302,36,18,74,137,45,1*66
$GPGSV,3,2,12,20,03,024,,23,15,146,39,25,10,135,45,26,71,271,36,1*6E
$GPGSV,3,3,12,27,16,269,,28,20,206,,29,39,074,45,31,34,227,39,1*6F
$GLGSV,3,1,09,70,07,355,31,71,12,039,29,72,01,084,,77,32,162,45,1*7B
$GLGSV,3,2,09,78,75,273,35,79,27,324,45,81,16,232,40,87,43,040,37,1*73
$GLGSV,3,3,09,88,70,249,37,1*4D
$GAGSV,3,1,10,02,53,301,35,07,04,322,,10,46,055,42,11,70,093,40,7*7C
$GAGSV,3,2,10,12,24,045,40,16,44,133,42,24,18,130,47,25,70,142,45,7*7B
$GAGSV,3,3,10,30,02,307,,36,44,196,41,7*79
$GBGSV,3,1,11,02,02,101,37,05,17,123,40,08,37,055,42,13,39,066,46,1*77
$GBGSV,3,2,11,17,08,155,,20,05,098,,24,17,317,35,26,55,274,38,1*73
$GNRMC,150031.00,A,4843.26087,N,00920.55466,E,0.012,,080225,,,A,V*13
$GNGGA,150031.00,4843.26087,N,00920.55466,E,1,12,0.49,245.1,M,47.6,M,,*42
$GPGSV,3,1,12,05,23,051,46,09,00,323,,16,43,302,36,18,74,137,45,1*66
$GPGSV,3,2,12,20,03,024,,23,15,146,39,25,10,135,45,26,71,271,36,1*6E
$GPGSV,3,3,12,27,16,269,,28,20,206,,29,39,074,45,31,34,227,39,1*6F
$GLGSV,3,1,09,70,07,355,31,71,12,039,34,72,01,084,,77,32,162,45,1*77
$GLGSV,3,2,09,78,75,273,36,79,27,324,45,81,16,232,39,87,43,040,39,1*70
$GLGSV,3,3,09,88,70,249,35,1*4F
$GAGSV,3,1,10,02,53,301,34,07,04,322,,10,46,055,41,11,70,093,40,7*7E
$GAGSV,3,2,10,12,24,045,40,16,44,133,43,24,18,130,47,25,70,142,45,7*7A
$GAGSV,3,3,10,30,02,307,,36,44,196,40,7*78
$GBGSV,3,1,11,02,02,101,37,05,17,123,40,08,37,055,42,13,39,066,46,1*77
$GNRMC,150032.00,A,4843.26089,N,00920.55469,E,0.005,,080225,,,A,V*17
$GNGGA,150032.00,4843.26089,N,00920.55469,E,1,12,0.49,245.1,M,47.6,M,,*40
$GPGSV,3,1,12,05,23,051,46,09,00,323,,16,43,302,36,18,74,137,45,1*66
$GPGSV,3,2,12,20,03,024,,23,15,146,41,25,10,135,45,26,71,271,36,1*61
$GPGSV,3,3,12,27,16,269,,28,20,206,,29,39,074,45,31,34,227,42,1*63
$GLGSV,3,1,09,70,07,355,31,71,12,039,32,72,01,084,,77,32,162,45,1*71
$GLGSV,3,2,09,78,75,273,36,79,27,324,45,81,16,232,40,87,43,040,39,1*7E
$GLGSV,3,3,09,88,70,249,35,1*4F
$GAGSV,3,1,10,02,53,301,34,07,04,322,,10,46,055,42,11,70,093,40,7*7D
$GAGSV,3,2,10,12,24,045,40,16,44,133,45,24,18,130,47,25,70,142,45,7*7C
$GAGSV,3,3,10,30,02,307,,36,44,196,41,7*79
$GBGSV,3,1,11,02,02,101,37,05,17,123,40,08,37,055,42,13,39,066,46,1*77
$GNRMC,150033.00,A,4843.26091,N,00920.55471,E,0.009,,080225,,,A,V*1A
$GNGGA,150033.00,4843.26091,N,00920.55471,E,1,12,0.49,245.1,M,476,M,,*41
$GPGSV,3,1,12,05,23,051,46,09,00,323,,16,43,302,36,18,74,137,44,1*67
$GPGSV,3,2,12,20,03,024,,23,15,146,41,25,10,135,45,26,71,271,35,1*62
$GPGSV,3,3,12,27,16,269,,28,20,206,,29,39,074,43,31,34,227,39,1*69
$GLGSV,3,1,09,70,07,355,31,71,12,039,32,72,01,084,,77,32,162,46,1*72
$GLGSV,3,2,09,78,75,273,35,79,27,324,45,81,16,232,40,87,43,040,40,1*73
$GLGSV,3,3,09,88,70,249,36,1*4C
$GAGSV,3,1,10,02,53,301,34,07,04,322,,10,46,055,42,11,70,093,39,7*73
$GAGSV,3,2,10,12,24,045,40,16,44,133,43,24,18,130,47,25,70,142,42,7*7D
$GAGSV,3,3,10,30,02,307,,36,44,196,41,7*79
$GNRMC,150034.00,A,4843.26092,N,00920.55472,E,0.016,,080225,,,A,V*13
$GNGGA,150034.00,4843.26092,N,00920.55472,E,1,12,0.49,245.1,M,47.6,M,,*46
$GPGSV,3,2,12,20,03,024,,23,15,146,41,25,10,135,44,26,71,271,35,1*63
$GPGSV,3,3,12,27,16,269,,28,20,206,,29,39,074,43,31,34,227,39,1*69
$GLGSV,3,1,09,70,07,355,30,71,12,039,33,72,01,084,,77,32,162,46,1*72
$GLGSV,3,2,09,78,75,273,35,79,27,324,45,81,16,232,40,87,43,040,40,1*73
$GLGSV,3,3,09,88,70,249,35,1*4F
$GAGSV,3,1,10,02,53,301,34,07,04,322,,10,46,055,41,11,70,093,37,7*7E
$GAGSV,3,2,10,12,24,045,40,16,44,133,43,24,18,130,48,25,70,142,42,7*72
$GAGSV,3,3,10,30,02,307,,36,44,196,39,7*76
$GNRMC,150035.00,A,4843.26093,N,00920.55474,E,0.007,,080225,,,A,V*15
$GNGGA,150035.00,4843.26093,N,00920.55474,E,1,12,0.49,245.1,M,47.6,M,,*40
$GPGSV,3,1,12,05,23,051,46,09,00,323,,16,43,302,36,18,74,137,42,1*61
$GPGSV,3,2,12,20,03,024,,23,15,146,41,25,10,135,45,26,71,271,36,1*61
$GPGSV,3,3,12,27,16,269,,28,20,206,,29,39,074,43,31,34,227,38,1*68
$GLGSV,3,1,09,70,07,355,30,71,12,039,34,72,01,084,,77,32,162,46,1*75
$GLGSV,3,2,09,78,75,273,36,79,27,324,45,81,16,232,40,87,43,040,39,1*7E
$GLGSV,3,3,09,88,70,249,36,1*4C
$GAGSV,3,1,10,02,53,301,34,07,04,322,,10,46,055,43,11,70,093,38,7*73
$GAGSV,3,2,10,12,24,045,40,16,44,133,42,24,18,130,48,25,70,142,42,7*73
$GAGSV,3,3,10,30,02307,,36,44,196,39,7*76
$GBGSV,3,1,11,02,02,101,37,05,17,123,40,08,37,055,42,13,39,066,46,1*77
$GNRMC,150036.00,A,4843.26094,N,00920.55475,E,0.020,,080225,,,A,V*15
$GNGGA,150036.00,4843.26094,N,00920.55475,E,1,12,0.49,245.2,M,47.6,M,,*46
$GPGSV,3,1,12,05,23,051,46,09,00,323,,16,43,302,36,18,74,137,41,1*62
$GPGSV,3,2,12,20,03,024,,23,15,146,41,25,10,135,45,26,71,271,36,1*61
$GPGSV,3,3,12,27,16,269,,28,20,206,,29,39,074,43,31,34,227,38,1*68
$GLGSV,3,1,09,70,07,355,30,71,12,039,34,72,01,084,,77,32,162,43,1*70
$GLGSV,3,2,09,78,75,273,37,79,27,324,45,81,16,232,40,87,43,040,39,1*7F
$GLGSV,3,3,09,88,70,249,36,1*4C
$GAGSV,3,1,10,02,53,301,34,07,04,322,,10,46,055,42,11,70,093,37,7*7D
$GAGSV,3,2,10,12,24,045,40,16,44,133,41,24,18,130,48,25,70,142,45,7*77
$GAGSV,3,3,10,30,02,307,,36,44,196,40,7*78
$GBGSV,3,1,11,02,02,101,37,05,17,123,40,08,37,055,42,13,39,066,46,1*77
$GNRMC,150037.00,A,4843.26096,N,00920.55478,E,0.022,,080225,,,A,V*19
$GNGGA,150037.00,4843.26096,N,00920.55478,E,1,12,0.49,245.2,M,47.6,M,,*48
$GPGSV,3,1,12,05,23,051,46,09,00,323,,16,43,302,35,18,74,137,46,1*66
$GPGSV,3,2,12,20,03,024,,23,15,146,41,25,10,135,45,26,71,271,37,1*60
$GPGSV,3,3,12,27,16,269,,28,20,206,,29,39,074,44,31,34,227,40,1*60
$GLGSV,3,1,09,70,07,355,30,71,12,039,36,72,01,084,,77,32,162,45,1*74
$GLGSV,,2,09,78,75,273,37,79,27,324,45,81,16,232,38,87,43,040,39,1*70
$GLGSV,3,3,09,88,70,249,35,1*4F
$GAGSV,3,1,10,02,53,301,34,07,04,322,,10,46,055,44,11,70,093,33,7*7F
$GAGSV,3,2,10,12,24,045,40,16,44,133,43,24,18,130,48,25,7,142,45,7*75
$GAGSV,3,3,10,30,02,307,,36,44,196,40,7*78
$GBGSV,3,1,11,02,02,101,37,05,17,123,40,08,37,055,43,13,39,066,46,1*76
$GNRMC,150038.00,A,4843.26097,N,00920.55479,E,0.013,,080225,,,A,V*14
$GNGGA,150038.00,4843.26097,N,00920.55479,E,1,12,0.49,245.2,M,47.6,M,,*47
$GPGSV,3,1,12,05,23,051,47,09,00,323,,16,43,302,35,18,74,137,44,1*65
$GPGSV,3,2,12,20,03,024,,23,15,146,41,25,10,135,45,26,71,271,38,1*6F
$GPGSV,3,3,12,27,16,269,,28,20,206,,29,39,074,40,31,34,227,37,1*64
$GLGSV,3,1,09,70,07,355,30,71,12,039,36,72,01,084,,77,32,162,45,1*74
$GLGSV,3,2,09,78,75,273,37,79,27,324,44,81,16,232,40,87,43,040,39,1*7E
$GLGSV,3,3,09,88,70,249,36,1*4C
$GAGSV,3,1,10,02,53,301,34,07,04,322,,10,46,055,45,11,70,093,37,7*7A
$GAGSV,3,2,10,12,24,045,40,16,44,133,41,24,18,130,48,25,70,142,45,7*77
$GAGSV,3,3,10,30,02,307,,36,44,196,41,7*79
$GBGSV,3,1,11,02,02,101,37,05,17,123,40,08,37,055,43,13,39,066,46,1*76
$GNRMC,150039.00,A,4843.26098,N,00920.55480,E,0.002,,080225,,,A,V*1C
$GNGGA,150039.00,4843.26098,N,00920.55480,E,1,12,0.49,245.2,M,47.6,M,,*4F
$GPGSV,3,1,12,05,23,051,47,09,00,323,,16,43,302,37,18,74,137,45,1*66
$GPGSV,3,2,12,20,03,024,,23,15,146,43,25,10,135,45,26,71,271,37,1*62
$GPGSV,3,3,12,27,16,269,,28,20,206,,29,39,074,43,31,34,227,38,1*68
$GLGSV,3,1,09,70,07,355,30,71,12,039,36,72,01,084,,77,32,162,45,1*74
$GLGSV,3,2,09,78,75,273,38,79,27,324,44,81,16,232,40,87,43,040,39,1*71
$GLGSV,3,3,09,88,70,249,36,1*4C
$GAGSV,3,1,10,02,53,301,34,07,04,322,,10,46,055,43,11,70,093,40,7*7C
$GAGSV,3,2,10,12,24,045,40,16,44,133,41,24,18,130,48,25,70,142,45,7*77
$GAGSV,3,3,10,30,02,307,,36,44,196,41,7*79
$GBGSV,3,1,11,02,02,101,37,05,17,123,40,08,37,055,42,13,39,066,45,1*74
$GBGSV,3,2,11,17,08,155,,20,05,098,,24,17,317,34,26,55,274,37,1*7D
$GNRMC,150040.00,A,4843.26100,N,00920.55481,E,0.006,,080225,,,A,V*17
$GNGGA,150040.00,4843.26100,N,00920.55481,E,1,12,0.49,245.3,M,47.6,M,,*41
$GPGSV,3,1,12,05,23,051,47,09,00,323,,16,43,302,37,18,74,137,46,1*65
$GPGSV,3,2,12,20,03,024,,23,15,146,45,25,10,135,45,26,71,271,37,1*64
$GPGSV,3,3,12,27,16,269,,28,20,206,,29,39,074,44,31,34,227,39,1*6E
$GLGSV,3,1,09,70,07,355,30,71,12,039,36,72,01,084,,77,32,162,43,1*72
$GLGSV,3,2,09,78,75,273,38,79,27,324,44,81,16,232,40,87,43,040,40,1*7F
$GLGSV,3,3,09,88,70,249,34,1*4E
$GAGSV,3,1,10,02,53,301,33,07,04,322,,10,46,055,45,11,70,093,39,7*73
$GAGSV,3,2,10,12,24,045,40,16,44,133,42,24,18,130,48,25,70,142,45,7*74
$GAGSV,3,3,10,30,02,307,,36,44,196,41,7*79
$GBGSV,3,1,11,02,02,101,37,05,17,123,40,08,37,055,42,13,39,066,44,1*75
$GNRMC,150041.00,A,4843.26101,N,00920.55481,E,0.012,,080225,,,A,V*12
$GNGGA,150041.00,4843.26101,N,00920.55481,E,1,12,0.49,245.2,M,47.6,M,,*40
$GPGSV,3,1,12,05,23,051,47,09,00,323,,16,43,302,37,18,74,137,46,1*65
$GPGSV,3,2,12,20,03,024,,23,15,146,44,25,10,135,45,26,71,271,37,1*65
$GPGSV,3,3,12,27,16,269,,28,20,206,,29,39,074,45,31,34,227,37,1*61
$GLGSV,3,1,09,70,07,355,30,71,12,039,36,72,01,084,,77,32,162,43,1*72
$GLGSV,3,2,09,78,75,273,38,79,27,324,45,81,16,232,42,87,43,040,40,1*7C
$GLGSV,3,3,09,88,70,249,35,1*4F
$GAGSV,3,1,10,02,53,301,32,07,04,322,,10,46,055,44,11,70,093,40,7*7D
$GAGSV,3,2,10,12,24,045,40,16,44,133,43,24,18,130,48,25,70,142,45,7*75
$GAGSV,3,3,10,30,02,307,,36,44,196,41,7*79
$GBGSV,3,1,11,02,02,101,37,05,17,123,40,08,37,055,42,13,39,066,45,1*74
$GBGSV,3,2,11,17,08,155,,20,05,098,,24,17,317,35,26,55,274,38,1*73
$GNRMC,15042.00,A,4843.26102,N,00920.55482,E,0.007,,080225,,,A,V*15
$GNGGA,150042.00,4843.26102,N,00920.55482,E,1,12,0.49,245.3,M,47.6,M,,*42
$GPGSV,3,1,12,05,23,051,47,09,00,323,,16,43,302,36,18,74,137,45,1*67
$GPGSV,3,2,12,20,03,024,,23,15,146,44,25,10,135,45,26,71,271,38,1*6A
$GPGSV,3,3,12,27,16,269,,28,20,206,,29,39,074,41,31,34,227,44,1*61
$GLGSV,3,1,09,70,07,355,31,71,12,039,37,72,01,084,,77,32,162,42,1*73
$GLGSV,3,2,09,78,75,273,37,79,27,324,45,81,16,232,42,87,43,040,40,1*73
$GLGSV,3,3,09,88,70,249,35,1*4F
$GAGSV,3,1,10,02,53,301,32,07,04,322,,10,46,055,45,11,70,093,40,7*7C
$GAGSV,3,2,10,12,24,045,40,16,44,133,43,24,18,130,48,25,70,142,45,7*75
$GAGSV,3,3,10,30,02,307,,36,44,196,39,7*76
$GBGSV,3,1,11,02,02,101,37,05,17,123,40,08,37,055,42,13,39,066,45,1*74
$GNRMC,150043.00,A,4843.26104,N,00920.55484,E,0.022,,080225,,,A,V*13
$GNGGA,150043.00,4843.26104,N,00920.55484,E,1,12,0.49,245.2,M,47.6,M,,*42
$GPGSV,3,1,12,05,23,051,48,09,00,323,,16,43,302,36,18,74,137,45,1*68
$GPGSV,3,2,12,20,03,024,,23,15,146,44,25,10,135,45,26,71,271,38,1*6A
$GPGSV,3,3,12,27,16,269,,28,20,206,,29,39,074,41,31,34,227,41,1*64
$GLGSV,3,1,09,70,07,355,31,71,12,039,38,72,01,084,,77,32,162,43,1*7D
$GLGSV,3,2,09,78,75,273,37,79,27,324,44,81,16,232,43,87,43,040,41,1*72
$GLGSV,3,3,09,88,70,249,35,1*4F
$GAGSV,3,1,10,02,53,301,33,07,04,322,,10,46,055,42,11,70,093,40,7*7A
$GAGSV,3,2,10,12,24,045,40,16,44,133,42,24,18,130,48,25,70,142,45,7*74
$GAGSV,3,3,10,30,02,307,,36,44,196,39,7*76
$GBGSV,3,1,11,02,02,101,37,05,17,123,40,08,37,055,42,13,39,066,45,1*74
$GNRMC,150044.00,A,4843.26106,N,00920.55485,E,0.017,,080225,,,A,V*11
$GNGGA,150044.00,4843.26106,N,00920.55485,E,1,12,0.49,245.3,M,47.6,M,,*47
$GPGSV,3,1,12,05,23,051,48,09,00,323,,16,43,302,37,18,74,137,46,1*6A
$GPGSV,3,2,12,20,03,024,,23,15,146,45,25,10,135,45,26,71,271,38,1*6B
$GPGSV,,3,12,27,16,269,,28,20,206,,29,39,074,39,31,34,227,41,1*6B
$GLGSV,3,1,09,70,07,355,32,71,12,039,37,72,01,084,,77,32,162,43,1*71
$GLGSV,3,2,09,78,75,273,38,79,27,324,44,81,16,232,42,87,43,040,41,1*7C
$GLGSV,3,3,09,88,70,249,39,1*43
$GNRMC,150045.00,A,4843.26107,N,00920.55485,E,0.017,,080225,,,A,V*11
$GNGGA,150045.00,4843.26107,N,00920.55485,E,1,12,0.49,245.3,M,47.6,M,,*47
$GPGSV,3,1,12,05,23,051,48,09,00,323,,16,43,302,36,18,74,137,44,1*69
$GPGSV,3,2,12,20,03,024,,23,15,146,46,25,10,135,45,26,71,271,38,1*68
$GPGSV,3,3,12,27,16,269,,28,20,206,,29,39,074,41,31,34,227,40,1*65
$GLGSV,3,1,09,70,07,355,32,71,12,039,37,72,01,084,,77,32,162,44,1*76
$GLGSV,3,2,09,78,75,273,38,79,27,324,44,81,16,232,40,87,43,040,42,1*7D
$GLGSV,3,3,09,88,70,249,38,1*42
$GAGSV,3,1,10,02,53,301,32,07,04,322,,10,46,055,44,11,70,093,40,7*7D
$GAGSV,3,2,10,12,24,045,40,16,44,133,43,24,18,130,48,25,70,142,45,7*75
$GAGSV,3,3,10,30,02,307,,36,44,196,40,7*78
$GBGSV,3,1,11,02,02,101,37,05,17,123,40,08,37,055,42,13,39,066,45,1*74
$GNRMC,150046.00,A,4843.26108,N,00920.55485,E,0.020,,080225,,,A,V*19
$GNGGA,150046.00,4843.26108,N,00920.55485,E,1,12,0.49,245.3,M,47.6,M,,*4B
$GPGSV,3,1,12,05,23,051,48,09,00,323,,16,43,302,36,18,74,137,43,1*6E
$GPGSV,3,2,12,20,03,024,,23,15,146,47,25,10,135,45,26,71,271,38,1*69
$GPGSV,3,3,12,27,16,269,,28,20,206,,29,39,074,41,31,34,227,37,1*65
$GLGSV,3,1,09,70,07,355,33,71,12,039,39,72,01,084,,77,32,162,45,1*78
$GLGSV,3,2,09,78,75,273,35,79,27,324,43,81,16,232,38,87,43,040,39,1*74
$GLGSV,3,3,09,88,70,249,38,1*42
$GAGSV,3,1,10,02,53,301,32,07,04,322,,10,46,055,43,11,70,093,40,7*7A
$GAGSV,3,2,10,12,24,045,40,16,44,133,43,24,18,130,48,25,70,142,46,7*76
$GAGSV,3,3,10,30,02,307,,36,44,196,39,7*76
$GBGSV,3,1,11,02,02,101,37,05,17,123,40,08,37,055,42,13,39,066,45,1*74
$GNRMC,150047.00,A,4843.26108,N,00920.55485,E,0.018,,080225,,,A,V*13
$GNGGA,150047.00,4843.26108,N,00920.55485,E,1,12,0.49,245.3,M,47.6,M,,*4A
$GPGSV,3,1,12,05,23,051,47,09,00,323,,16,43,302,36,18,74,137,43,1*61
$GPGSV,3,2,12,20,03,024,,23,15,146,46,25,10,135,46,26,71,271,38,1*6B
$GPGSV,3,3,12,27,16,269,,28,20,206,,29,39,074,37,31,34,227,38,1*6B
$GLGSV,3,1,09,70,07,355,33,71,12,039,38,72,01,084,,77,32,162,43,1*7F
$GLGSV,3,2,09,78,75,273,38,79,27,324,44,8116,232,40,87,43,040,39,1*71
$GLGSV,3,3,09,88,70,249,39,1*43
$GAGSV,3,1,10,02,53,301,32,07,04,322,,10,46,055,44,11,70,093,40,7*7D
$GAGSV,3,2,10,12,24,045,40,16,44,133,43,24,18,130,48,25,70,142,45,7*75
$GAGSV,3,3,10,30,02,307,,36,44,196,39,7*76
$GBGSV,3,1,11,02,02,101,37,05,17,123,40,08,37,055,42,13,39,066,45,1*74
$GBGSV,3,2,11,17,08,156,,20,05,098,,24,17,317,35,26,55,274,37,1*7F
$GNRMC,150048.00,A,4843.26109,N,00920.55485,E,0.020,,080225,,,A,V*16
$GNGGA,150048.00,4843.26109,N,00920.55485,E,1,12,0.49,245.3,M,47.6,M,,*44
$GPGSV,3,1,12,05,23,051,48,09,00,323,,16,43,302,35,18,74,137,44,1*6A
$GPGSV,3,2,12,20,03,024,,23,15,146,47,25,10,135,46,26,71,271,37,1*65
$GPGSV,3,3,12,27,16,269,,28,20,206,,29,39,074,39,31,34,227,38,1*65
$GLGSV,3,1,09,70,07,355,32,71,12,039,38,72,01,084,,77,32,162,42,1*7F
$GLGSV,3,2,09,78,75,273,37,79,27,324,44,81,16,232,40,87,43,040,39,1*7E
$GLGSV,3,3,09,88,70,249,37,1*4D
$GAGSV,3,1,10,02,53,301,31,07,04,322,,10,46,055,44,11,70,093,40,7*7E
$GAGSV,3,2,10,12,24,045,40,16,44,133,43,24,18,130,49,25,70,142,45,7*74
$GAGSV,3,3,10,30,02,307,,36,44,196,41,7*79
$GNRMC,150049.00,A,4843.26109,N,00920.55484,E,0.038,,080225,,,A,V*1F
$GNGGA,150049.00,4843.26109,N,00920.55484,E,1,12,0.49,245.3,M,47.6,M,,*44
$GPGSV,3,1,12,05,23,051,47,09,00,323,,16,43,302,35,18,74,137,43,1*62
$GPGSV,3,2,12,20,03,024,,23,15,146,47,25,10,135,46,26,71,271,37,1*65
$GPGSV,3,3,12,27,16,269,,28,20,206,,29,39,074,42,31,34,227,35,1*64
$GLGSV,3,1,09,70,07,355,32,71,12,039,37,72,01,084,,77,32,162,41,1*73
$GLGSV,3,2,09,78,75,273,37,79,27,324,44,81,16,232,40,87,43,040,42,1*72
$GLGSV,3,3,09,88,70,249,39,1*43
$GAGSV,3,1,10,02,53,301,32,07,04,322,,10,46,055,46,11,70,093,40,7*7F
$GAGSV,3,2,10,12,24,045,40,16,44,133,43,24,18,130,49,25,70,142,45,7*74
$GAGSV,3,3,10,30,02,307,,36,44,196,40,7*78
$GBGSV,3,1,11,02,02,101,37,05,17,123,40,08,37,055,42,13,39,066,44,1*75
$GBGSV,3,2,11,17,08,156,,20,05,098,,24,17,317,35,26,55,274,37,1*7F
$GNRMC,150050.00,A,4843.26109,N,00920.55483,E,0.034,,080225,,,A,V*1C
$GNGGA,150050.00,4843.26109,N,00920.55483,E,1,12,0.49,245.3,M,47.6,M,,*4B
$GPGSV,3,1,12,05,23,051,47,09,00,323,,16,43,302,34,18,74,137,44,1*64
$GPGSV,3,2,12,20,03,024,,23,15,146,47,25,10,135,46,26,71,271,36,1*64
$GPGSV,3,3,12,27,16,269,,28,20,206,,29,39,074,43,31,34,227,34,1*64
$GLGSV,3,1,09,70,07,355,32,71,12,039,37,72,01,084,,77,32,162,43,1*71
$GLGSV,3,2,09,78,75,273,36,79,27,324,44,81,16,232,40,87,43,040,40,1*71
$GLGSV,3,3,09,88,70,249,37,1*4D
$GAGSV,3,1,10,02,53,301,31,07,04,322,,10,46,055,46,11,70,093,40,7*7C
$GAGSV,3,2,10,12,24,045,40,16,44,133,42,24,18,130,49,25,70,142,45,7*75
$GAGSV,3,3,10,30,02,307,,36,44,196,38,7*77
$GBGSV,3,1,11,02,02,101,37,05,17,123,40,08,37,055,42,13,39,066,45,1*74
$GBGSV,3,2,11,17,08,156,,20,05,098,,24,17,317,35,26,55,274,37,1*7F
$GNRMC,150051.00,A,4843.26109,N,00920.55482,E,0.014,,080225,,,A,V*1E
$GNGGA,150051.00,4843.26109,N,00920.55482,E,1,12,0.50,245.3,M,47.6,M,,*43
$GPGSV,3,1,12,05,23,051,48,09,00,323,,16,43,302,34,18,74,137,44,1*6B
$GPGSV,3,2,12,20,03,024,,23,15,146,48,25,10,135,46,26,71,271,35,1*68
$GPGSV,3,3,12,27,16,269,,28,20,206,,29,39,074,,31,34,227,38,1*6F
$GLGSV,3,1,09,70,07,355,31,71,12,039,37,72,01,084,,77,32,162,42,1*73
$GLGSV,3,2,09,78,75,273,37,79,27,324,44,81,16,232,40,87,43,040,40,1*70
$GLGSV,3,3,09,88,70,249,39,1*43
$GAGSV,3,1,10,02,53,301,31,07,04,322,,10,46,055,43,11,70,093,41,7*78
$GAGSV,3,2,10,12,24,045,40,16,44,133,42,24,18,130,49,25,70,142,46,7*76
$GAGSV,3,3,10,30,02,307,,36,44,196,38,7*77
$GBGSV,3,1,11,02,02,101,37,05,17,123,40,08,37,055,42,13,39,066,45,1*74
$GNRMC,150052.00,A,4843.26110,N,00920.55481,E,0.008,,080225,,,A,V*1B
$GNGGA,150052.00,4843.26110,N,00920.55481,E,1,12,0.49,245.3,M,47.6,M,,*43
$GPGSV,3,1,12,05,23,051,48,09,00,323,,16,43,302,35,18,74,137,42,1*6C
$GPGSV,3,2,12,20,03,024,,23,15,146,48,25,10,135,46,26,71,271,35,1*68
$GPGSV,3,3,12,27,16,269,,28,20,206,,29,39,074,37,31,34,227,37,1*64
$GLGSV,3,1,09,70,07,355,30,71,12,039,37,72,01,084,,77,32,162,41,1*71
$GLGSV,3,2,09,78,75,273,37,79,27,324,44,81,16,232,42,87,43,040,40,1*72
$GLGSV,3,3,09,88,70,249,38,1*42
$GAGSV,3,1,10,02,53,301,30,07,04,322,,10,46,055,43,11,70,093,41,7*79
$GAGSV,3,2,10,12,24,045,40,16,44,133,42,24,18,130,49,25,7,142,45,7*75
$GAGSV,3,3,10,30,02,307,,36,44,196,41,7*79
$GBGSV,3,1,11,02,02,101,37,05,17,123,41,08,37,055,42,13,39,066,45,1*75
$GNRMC,150053.00,A,4843.26110,N,00920.55480,E,0.019,,080225,,,A,V*1B
$GNGGA,150053.00,4843.26110,N,00920.55480,E,1,12,0.50,245.3,M,47.6,M,,*4B
$GPGSV,3,1,12,05,23,051,48,09,00,323,,16,43,302,35,18,74,137,40,1*6E
$GPGSV,3,2,12,20,03,024,,23,15,146,48,25,10,135,46,26,71,271,35,1*68
$GLGSV,3,1,09,70,07,355,30,71,12,039,37,72,01,084,,77,32,162,41,1*71
$GLGSV,3,2,09,78,75,273,36,79,27,324,44,81,16,232,39,87,43,040,41,1*7E
$GLGSV,3,3,09,88,70,249,39,1*43
$GAGSV,3,1,10,02,53,301,30,07,04,322,,10,46,055,43,11,70,093,38,7*77
$GAGSV,3,2,10,12,24,045,40,16,44,133,42,24,18,130,49,25,70,142,45,7*75
$GAGSV,3,3,10,30,02,307,,36,44,196,41,7*79
$GBGSV,3,1,11,02,02,101,37,05,17,123,40,08,37,055,42,13,39,066,45,1*74
$GBGSV,3,2,11,17,08,156,,20,05,098,,24,17,317,35,26,55,274,36,1*7E
$GNRMC,150054.00,A,4843.26110,N,00920.55479,E,0.016,,080225,,,A,V*15
$GNGGA,150054.00,4843.26110,N,00920.55479,E,1,12,0.50,245.3,M,47.6,M,,*4A
$GPGSV,3,1,12,05,23,051,48,09,00,323,,16,43,302,35,18,74,137,40,1*6E
$GPGSV,3,2,12,20,03,024,,23,15,146,48,25,10,135,46,26,71,271,35,1*68
$GPGSV,3,3,12,27,16,269,,28,20,206,,29,39,074,28,31,34,227,38,1*65
$GLGSV,3,1,09,70,07,355,30,71,12,039,37,72,01,084,,77,32,162,41,1*71
$GLGSV,3,2,09,78,75,273,36,79,27,324,44,81,16,232,39,87,43,040,39,1*71
$GLGSV,3,3,09,88,70,249,39,1*43
$GAGSV,3,1,10,02,53,301,30,07,04,322,,10,46,055,44,11,70,093,35,7*7D
$GAGSV,3,2,10,12,24,045,40,16,44,133,42,24,18,130,49,25,70,142,44,7*74
$GAGSV,3,3,10,30,02,307,,3644,196,39,7*76
$GNRMC,150055.00,A,4843.26110,N,00920.55478,E,0.017,,080225,,,A,V*14
$GNGGA,150055.00,4843.26110,N,00920.55478,E,1,12,0.50,245.4,M,47.6,M,,*4D
$GPGSV,3,1,12,05,23,051,47,09,00,323,,16,43,302,35,18,74,137,40,1*61
$GPGSV,3,2,12,20,03,024,,23,15,146,48,25,10,135,45,26,71,271,35,1*6B
$GPGSV,3,3,12,27,16,269,,28,20,206,,29,39,074,,31,34,227,37,1*60
$GLGSV,3,1,09,70,07,355,30,71,12,039,37,72,01,084,,77,32,162,41,1*71
$GLGSV,3,2,09,78,75,273,36,79,27,324,45,81,16,232,40,87,43,040,39,1*7E
$GLGSV,3,3,09,88,70,249,38,1*42
$GAGSV,3,1,10,02,53,301,30,07,04,322,,10,46,055,41,11,70,093,38,7*75
$GAGSV,3,2,10,12,24,045,40,16,44,133,42,24,18,130,49,25,70,142,43,7*73
$GAGSV,3,3,10,30,02,307,,36,44,196,39,7*76
$GBGSV,3,1,11,02,02,101,37,05,17,123,40,08,37,055,42,13,39,066,46,1*77
$GNRMC,150056.00,A,4843.26111,N,00920.55477,E,0.002,,080225,,,A,V*1D
$GNGGA,150056.00,4843.26111,N,00920.55477,E,1,12,0.50,245.4,M,47.6,M,,*40
$GPGSV,3,1,12,05,23,051,48,09,00,323,,16,43,302,36,18,74,137,34,1*6E
$GPGSV,3,2,12,20,03,024,,23,15,146,48,25,10,135,45,26,71,271,35,1*6B
$GPGSV,3,3,12,27,16,269,,28,20,206,38,29,39,074,,31,34,227,34,1*68
$GLGSV,3,1,09,70,07,355,31,71,12,039,37,72,01,084,,77,32,162,41,1*70
$GLGSV,3,2,09,78,75,273,35,79,27,324,46,81,16,232,39,87,43,040,40,1*7E
$GLGSV,3,3,09,88,70,249,38,1*42
$GAGSV,3,1,10,02,53,301,30,07,04,322,,10,46,055,41,11,70,093,41,7*7B
$GAGSV,3,2,10,12,24,045,40,16,44,133,42,24,18,130,49,25,70,142,42,7*72
$GAGSV,3,3,10,30,02,307,,36,44,196,39,7*76
$GBGSV,3,1,11,02,02,101,37,05,17,123,40,08,37,055,43,13,39,066,47,1*77
$GBGSV,3,2,11,17,08,156,,20,05,098,,24,17,317,34,26,55,274,37,1*7E
$GNRMC,150057.00,A,4843.26110,N,00920.55474,E,0.007,,080225,,,A,V*1B
$GNGGA,150057.00,4843.26110,N,00920.55474,E,1,12,0.48,245.4,M,47.6,M,,*4A
$GPGSV,3,1,12,05,23,051,48,09,00,323,,16,43,302,35,18,74,137,36,1*6F
$GPGSV,3,2,12,20,03,024,,23,15,146,49,25,10,135,45,26,71,271,36,1*69
$GPGSV,3,3,12,27,16,269,,28,20,206,37,29,39,074,,31,34,227,37,1*64
$GLGSV,3,1,09,70,07,355,28,71,12,039,40,72,01,084,,77,32,162,40,1*79
$GLGSV,3,2,09,78,75,273,34,79,27,324,45,81,16,232,38,87,43,040,40,1*7D
$GAGSV,3,1,10,02,53,301,31,07,04,322,,10,46,055,43,11,70,093,41,7*78
$GAGSV,3,2,10,12,24,045,40,16,44,133,42,24,18,130,49,25,70,142,42,7*72
$GAGSV,3,3,10,30,02,307,,36,44,196,39,7*76
$GBGSV,3,1,11,02,02,101,37,05,17,123,40,08,37,055,43,13,39,066,46,1*76
$GNRMC,150058.00,A,4843.26109,N,00920.55473,E,0.017,,080225,,,A,V*1A
$GNGGA,150058.00,4843.26109,N,00920.55473,E,1,12,0.48,245.4,M,47.6,M,,*4A
$GPGSV,3,1,12,05,23,051,48,09,00,323,,16,43,302,34,18,74,137,44,1*6B
$GPGSV,3,2,12,20,03,024,,23,15,146,48,25,10,135,45,26,71,271,37,1*69
$GPGSV,3,3,12,27,16,269,,28,20,206,37,29,39,074,,31,34,227,36,1*65
$GLGSV,3,1,09,70,07,355,24,71,12,039,39,72,01,084,,77,32,162,40,1*7B
$GLGSV,3,2,09,78,75,273,32,79,27,324,40,81,16,232,39,87,43,040,40,1*7F
$GLGSV,3,3,09,88,70,249,37,1*4D
$GAGSV,3,1,10,02,53,301,31,07,04,322,,10,46,055,43,11,70,093,41,7*78
$GAGSV,3,2,10,12,24,045,40,16,44,133,41,24,18,130,49,25,70,142,44,7*77
$GAGSV,3,3,10,30,02,307,,36,44,196,40,7*78
$GBGSV,3,1,11,02,02,101,37,05,17,123,40,08,37,055,43,13,39,066,44,1*74
$GNRMC,150059.00,A,4843.26108,N,00920.55471,E,0.007,,080225,,,A,V*19
$GNGGA,150059.00,4843.26108,N,00920.55471,E,1,12,0.48,245.4,M,47.6,M,,*48
$GPGSV,3,1,12,05,23,051,48,09,00,323,,16,43,302,33,18,74,137,44,1*6C
$GPGSV,3,2,12,20,03,024,,23,15,146,49,25,10,135,46,26,71,271,38,1*64
$GPGSV,3,3,12,27,16,269,,28,20,206,37,29,39,074,,31,34,227,35,1*66
$GLGSV,3,1,09,70,07,355,19,71,12,039,35,72,01,084,,77,32,162,38,1*76
$GLGSV,3,2,09,78,75,273,31,79,27,324,37,81,16,232,40,87,43,040,42,1*70
$GLGSV,3,3,09,88,70,249,37,1*4D
$GAGSV,3,1,10,02,53,301,32,07,04,322,,10,46,055,42,11,70,093,41,7*7A
$GAGSV,3,2,10,12,24,045,40,16,44,133,42,24,18,130,49,25,70,142,47,7*77
$GAGSV,3,3,10,30,02,307,,36,44,196,41,7*79
$GBGSV,3,1,11,02,02,101,37,05,17,123,38,08,37,055,43,13,39,066,45,1*7A
$GBGSV,3,2,11,17,08,156,,20,05,098,,24,17,317,24,26,55,274,37,1*7F
$GNRMC,150100.00,A,4843.26108,N,00920.55468,E,0.027,,080225,,,A,V*1E
$GNGGA,150100.00,4843.26108,N,00920.55468,E,1,12,0.48,245.4,M,47.6,M,,*4D
$GPGSV,3,1,12,05,23,051,47,09,00,323,,16,43,302,32,18,74,137,42,1*64
$GPGSV,3,2,12,20,03,024,,23,15,146,49,25,10,135,47,26,71,271,38,1*65
$GPGSV,3,3,12,27,16,269,,28,20,206,35,29,39,074,,31,34,227,34,1*65
$GLGSV,3,1,09,70,07,355,25,71,12,039,34,72,01,084,,77,32,162,42,1*75
$GLGSV,3,2,09,78,75,273,35,79,27,324,37,81,16,232,33,87,43,040,38,1*7D
$GLGSV,3,3,09,88,70,249,37,1*4D
$GAGSV,3,1,10,02,53,301,33,07,04,322,,10,46,055,42,11,70,093,41,7*7B
$GAGSV,3,2,10,12,24,045,40,16,44,133,41,24,18,130,49,25,70,142,44,7*77
$GAGSV,3,3,10,30,02,307,,36,44,196,41,7*79
$GBGSV,3,1,11,02,02,101,37,05,17,123,40,08,37,055,43,13,39,066,46,1*76
$GNRMC,150101.00,A,4843.26108,N,00920.55465,E,0.026,,080225,,,A,V*13
$GNGGA,150101.00,4843.26108,N,00920.55465,E,1,12,0.48,245.3,M,47.6,M,,*46
$GPGSV,3,1,12,05,23,051,48,09,00,323,,16,43,302,33,18,74,137,44,1*6C
$GPGSV,3,2,12,20,03,024,,23,15,146,50,25,10,135,44,26,71,271,38,1*6E
$GPGSV,3,3,12,27,16,269,,28,20,206,37,29,39074,,31,34,227,35,1*66
$GLGSV,3,1,09,70,07,355,27,71,12,039,32,72,01,084,,77,32,162,43,1*70
$GLGSV,3,2,09,78,75,273,34,79,27,324,46,81,16,232,26,87,43,040,41,1*70
$GLGSV,3,3,09,88,70,249,37,1*4D
$GAGSV,3,1,10,02,53,301,34,07,04,322,,10,46,055,42,11,70,093,40,7*7D
$GAGSV,3,2,10,12,24,045,39,16,44,133,43,24,18,130,48,25,70,142,43,7*7D
$GAGSV,3,3,10,30,02,307,,36,44,196,40,7*78
$GBGSV,3,1,11,02,02,101,37,05,17,123,40,08,37,055,43,13,39,066,46,1*76
$GNRMC,150102.00,A,4843.26108,N,00920.55461,E,0.015,,080225,,,A,V*14
$GNGGA,150102.00,4843.26108,N,00920.55461,E,1,12,0.48,245.3,M,47.6,M,,*41
$GPGSV,3,1,12,05,23,051,48,09,00,323,,16,43,302,35,18,74,137,45,1*6B
$GPGSV,3,2,12,20,03,024,,23,15,146,49,25,10,135,47,26,71,271,38,1*65
$GPGSV,3,3,12,27,16,269,,28,20,206,37,29,39,074,,31,34,227,35,1*66
$GLGSV,3,1,09,70,07,355,26,71,12,039,31,72,01,084,,77,32,162,41,1*70
$GLGSV,3,2,09,78,75,273,35,79,27,324,46,81,16,232,32,87,43,040,39,1*7B
$GLGSV,3,3,09,88,70,249,38,1*42
$GAGSV,3,1,10,02,53,301,33,07,04,322,,10,46,055,43,11,70,093,40,7*7B
$GAGSV,3,2,10,12,24,045,40,16,44,133,44,24,18,130,48,25,70,142,45,7*72
$GAGSV,3,3,10,30,02,307,,36,44,196,40,7*78
$GBGSV,3,1,11,02,02,101,37,05,17,123,39,08,37,055,43,13,39,066,45,1*7B
$GBGSV,3,2,11,17,08,156,,20,05,098,,24,17,317,36,26,55,274,37,1*7C
$GNRMC,150103.00,A,4843.26108,N,00920.55457,E,0.010,,080225,,,A,V*15
$GNGGA,150103.00,4843.26108,N,00920.55457,E,1,12,0.48,245.2,M,47.6,M,,*44
$GPGSV,3,1,12,05,23,051,48,09,00,323,,16,43,302,35,18,74,137,46,1*68
$GPGSV,3,2,12,20,03,024,,23,15,146,50,25,10,135,46,26,71,271,36,1*62
$GPGSV,3,3,12,27,16,269,,28,20,206,37,29,39,074,,31,34,227,35,1*66
$GLGSV,3,1,09,70,07,355,26,71,12,039,29,72,01,084,,77,32,162,39,1*76
$GLGSV,3,2,09,78,75,273,37,79,27,324,46,81,16,232,30,87,43,040,39,1*7B
$GLGSV,3,3,09,88,70,249,37,1*4D
$GAGSV,3,1,10,02,53,301,32,07,04,322,,10,46,055,43,11,70,093,40,7*7A
$GAGSV,3,2,10,12,24,045,40,16,44,133,42,24,18,130,49,25,70,142,45,7*75
$GAGSV,3,3,10,30,02,307,,36,44,196,40,7*78
$GBGSV,3,1,11,02,02,101,37,05,17,123,40,08,37,055,43,13,39,066,46,1*76
$GNRMC,150104.00,A,4843.26109,N,00920.55453,E,0.022,,080225,,,A,V*16
$GNGGA,150104.00,4843.26109,N,00920.55453,E,1,12,0.48,245.2,M,47.6,M,,*46
$GPGSV,3,1,12,05,23,051,48,09,00,323,,16,43,302,35,18,74,137,44,1*6A
$GPGSV,3,2,12,20,03,024,,23,15,146,50,25,10,135,47,26,71,271,36,1*63
$GPGSV,3,3,12,27,16,269,,28,20,206,38,29,39,074,,31,34,227,33,1*6F
$GLGSV,3,1,09,70,07,354,26,71,12,039,28,72,01,084,,77,32,162,39,1*76
$GLGSV,3,2,09,78,75,273,37,79,27,324,46,81,16,232,31,87,43,040,38,1*7B
$GLGSV,3,3,09,88,70,249,36,1*4C
$GAGSV,3,1,10,02,53,301,32,07,04,322,,10,46,055,43,1170,093,40,7*7A
$GAGSV,3,2,10,12,24,045,39,16,44,133,41,24,18,130,49,25,70,142,44,7*79
$GAGSV,3,3,10,30,02,307,,36,44,196,40,7*78
$GBGSV,3,1,11,02,02,101,37,05,17,123,40,08,37,055,43,13,39,066,46,1*76
$GBGSV,3,2,11,17,08,156,,20,05,098,,24,17,317,36,26,55,274,37,1*7C
$GNRMC,150105.00,A,4843.26110,N,00920.55450,E,0.011,,080225,,,A,V*1C
$GNGGA,150105.00,4843.26110,N,00920.55450,E,1,12,0.48,245.1,M,47.6,M,,*4F
$GPGSV,3,1,12,05,23,051,47,09,00,323,,16,43,302,35,18,74,137,45,1*64
$GPGSV,3,2,12,20,03,024,,23,15,146,50,25,10,135,47,26,71,271,37,1*62
$GPGSV,3,3,12,27,16,269,,28,20,206,36,29,39,074,,31,34,227,33,1*61
$GLGSV,3,1,09,70,07,354,26,71,12,039,29,72,01,084,,77,32,162,38,1*76
$GLGSV,3,2,09,78,75,273,37,79,27,324,46,81,16,232,31,87,43,040,39,1*7A
$GLGSV,3,3,09,88,70,249,36,1*4C
$GAGSV,3,1,10,02,53,301,32,07,04,322,,10,46,055,43,11,70,093,41,7*7B
$GAGSV,3,2,10,12,24,045,39,16,44,133,43,24,18,130,49,25,70,142,43,7*7C
$GAGSV,3,3,10,30,02,307,,36,44,196,40,7*78
$GBGSV,3,1,11,02,02,101,37,05,17,123,40,08,37,055,43,13,39,066,46,1*76
$GNRMC,150106.00,A,4843.26110,N,00920.55447,E,0.042,,080225,,,A,V*1F
$GNGGA,150106.00,4843.26110,N,00920.55447,E,1,12,0.48,245.1,M,47.6,M,,*4A
$GPGSV,3,1,12,05,23,051,47,09,00,323,,16,43,302,34,18,74,137,43,1*63
$GPGSV,3,2,12,20,03,024,,23,15,146,50,25,10,135,47,26,71,271,37,1*62
$GPGSV,3,3,12,27,16,269,,28,20,206,36,29,39,074,,31,34,227,32,1*60
$GLGSV,3,1,09,70,07,354,25,71,12,039,32,72,02,083,,77,32,162,37,1*74
$GLGSV,3,2,09,78,75,26937,79,27,324,46,81,16,232,36,87,43,040,39,1*76
$GLGSV,3,3,09,88,70,249,37,1*4D
$GAGSV,3,1,10,02,53,301,31,07,04,322,,10,46,055,42,11,70,093,41,7*79
$GAGSV,3,2,10,12,24,045,39,16,44,133,42,24,18,130,48,25,70,142,45,7*7A
$GAGSV,3,3,10,30,02,307,,36,44,196,40,7*78
$GBGSV,3,1,11,02,02,101,37,05,17,123,40,08,37,055,43,13,39,066,46,1*76
$GNRMC,150107.00,A,4843.26111,N,00920.55443,E,0.009,,080225,,,A,V*14
$GNGGA,150107.00,4843.26111,N,00920.55443,E,1,12,0.48,245.0,M,47.6,M,,*4F
$GPGSV,3,1,12,05,23,051,47,09,00,323,,16,43,302,34,18,74,137,45,1*65
$GPGSV,3,2,12,20,03,024,,23,15,146,50,25,10,135,47,26,71,271,37,1*62
$GPGSV,3,3,12,27,16,269,,28,20,206,36,29,39,074,,31,34,227,34,1*66
$GLGSV,3,1,09,70,07,354,25,71,12,039,37,72,02,083,,77,32,162,41,1*70
$GLGSV,3,2,09,78,75,269,34,79,27,324,45,81,16,232,37,87,43,040,39,1*77
$GLGSV,3,3,09,88,70,249,38,1*42
$GAGSV,3,1,10,02,53,301,31,07,04,322,,10,46,055,43,11,70,093,42,7*7B
$GAGSV,3,2,10,12,24,045,39,16,44,133,42,24,18,130,49,25,70,142,45,7*7B
$GAGSV,3,3,10,30,02,307,,36,44,196,41,7*79
$GBGSV,3,1,11,02,02,101,37,05,17,123,40,08,37,055,43,13,39,066,46,1*76
$GNRMC,150108.00,A,4843.26112,N,00920.55439,E,0.017,,080225,,,A,V*1A
$GNGGA,150108.00,4843.26112,N,00920.55439,E,1,12,0.48,244.9,M,47.6,M,,*46
$GPGSV,3,1,12,05,23,051,47,09,00,323,,16,43,302,34,18,74,137,44,1*64
$GPGSV,3,2,12,20,03,024,,23,15,146,50,25,10,135,47,26,71,271,37,1*62
$GPGSV,3,3,12,27,16,269,,28,20,206,36,29,39,074,,31,34,227,33,1*61
$GLGSV,3,1,09,70,07,354,25,71,12,039,37,72,02,083,,77,32,162,43,1*72
$GLGSV,3,2,09,78,75,269,34,79,27,324,45,81,16,232,37,87,43,040,39,1*77
$GLGSV,3,3,09,88,70,249,39,1*43
$GAGSV,3,1,10,02,53,301,31,07,04,322,,10,46,055,43,11,70,093,40,7*79
$GAGSV,3,2,10,12,24,045,40,16,44,133,42,24,18,130,49,25,70,142,43,7*73
$GAGSV,3,3,10,30,02,307,,36,44,196,40,7*78
$GBGSV,3,1,11,02,02,101,37,05,17,123,40,08,37,055,43,13,39,066,46,1*76
$GBGSV,3,2,11,17,08,156,,20,05,098,,24,17,317,32,26,55,274,38,1*77
$GNRMC,150109.00,A,4843.26112,N,00920.55436,E,0.013,,080225,,,A,V*10
$GNGGA,150109.00,4843.26112,N,00920.55436,E,1,12,0.48,244.9,M,47.6,M,,*48
$GPGSV,3,1,12,05,23,051,47,09,00,323,,16,43,302,33,18,74,137,46,1*61
$GPGSV,3,2,12,20,03,024,,23,15,146,50,25,10,135,46,26,71,271,37,1*63
$GPGSV,3,3,12,27,16,269,,28,20,206,37,29,39,074,,31,34,227,33,1*60
$GLGSV,3,1,09,70,07,354,26,71,12,039,38,72,02,083,,77,32,162,41,1*7C
$GLGSV,3,2,09,78,75,269,33,79,27,324,46,81,16,232,39,87,43,040,39,1*7D
$GLGSV,3,3,09,88,70,249,38,1*42
$GAGSV,3,1,10,02,53,301,30,07,04,322,,10,46,055,42,11,70,093,40,7*79
$GAGSV,3,2,10,12,24,045,39,16,44,133,41,24,18,130,49,25,70,142,45,7*78
$GAGSV,3,3,10,30,02,307,,36,44,196,41,7*79
$GBGSV,3,1,11,02,02,101,37,05,17,123,40,08,37,055,43,13,39,066,45,1*75
$GNRMC,150110.00,A,4843.26113,N,00920.55432,E,0.010,,080225,,,A,V*1E
$GNGGA,150110.00,4843.26113,N,00920.55432,E,1,12,0.48,244.8,M,47.6,M,,*44
$GPGSV,3,1,12,05,23,051,47,09,00,33,,16,43,302,33,18,74,137,45,1*62
$GPGSV,3,2,12,20,03,024,,23,15,146,50,25,10,135,46,26,71,271,35,1*61
$GPGSV,3,3,12,27,16,269,,28,20,206,38,29,39,074,,31,34,227,34,1*68
$GLGSV,3,1,09,70,07,354,26,71,12,039,39,72,02,083,,77,32,162,41,1*7D
$GLGSV,3,2,09,78,75,269,32,79,27,324,45,81,16,232,36,87,43,040,40,1*7E
$GLGSV,3,3,09,88,70,249,39,1*43
$GAGSV,3,1,10,02,53,301,30,07,04,322,,10,46,055,43,11,70,093,41,7*79
$GAGSV,3,2,10,12,24,045,40,16,44,133,42,24,18,130,49,25,70,142,46,7*76
$GAGSV,3,3,10,30,02,307,,36,44,196,40,7*78
$GBGSV,3,1,11,02,02,101,37,05,17,123,40,08,37,055,43,13,39,066,45,1*75
$GBGSV,3,2,11,17,08,156,,20,05,098,,24,17,317,31,26,55,274,38,1*74
$GNRMC,150111.00,A,4843.26113,,00920.55426,E,0.055,,080225,,,A,V*1B
$GNGGA,150111.00,4843.26113,N,00920.55426,E,1,12,0.48,244.8,M,47.6,M,,*40
$GPGSV,3,1,12,05,23,051,46,09,00,323,,16,43,302,32,18,74,137,44,1*63
$GPGSV,3,2,12,20,03,024,,23,15,146,50,25,10,135,46,26,71,271,35,1*61
$GPGSV,3,3,12,27,16,269,,28,20,206,38,29,39,074,,31,34,227,34,1*68
$GLGSV,3,1,09,70,07,354,26,71,12,039,40,72,02,083,,77,32,162,41,1*73
$GLGSV,3,2,09,78,75,269,31,79,27,324,45,81,16,232,36,87,43,040,37,1*7D
$GLGSV,3,3,09,88,70,249,39,1*43
$GAGSV,3,1,10,02,53,301,30,07,04,322,,10,46,055,43,11,70,092,39,7*77
$GAGSV,3,2,10,12,23,045,40,16,44,133,43,24,18,130,49,25,70,142,42,7*74
$GAGSV,3,3,10,30,02,307,,36,44,196,40,7*78
$GNRMC,150112.00,A,4843.26113,N,00920.55421,E,0.021,,080225,,,A,V*1C
$GNGGA,150112.00,4843.26113,N,00920.55421,E,1,12,0.48,244.8,M,47.6,M,,*44
$GPGSV,3,1,12,05,23,051,47,09,00,323,,16,43,302,33,18,74,137,43,1*64
$GPGSV,3,2,12,20,03,024,,23,15,146,50,25,10,135,46,26,71,271,35,1*61
$GPGSV,3,3,12,27,16,269,,28,20,206,37,29,39,074,,31,34,227,34,1*67
$GLGSV,3,1,09,70,07,354,26,71,12,039,40,72,02,083,,77,32,162,42,1*70
$GLGSV,3,2,09,78,75,269,32,79,27,324,45,81,16,232,38,87,43,040,3,1*7E
$GLGSV,3,3,09,88,70,249,39,1*43
$GAGSV,3,1,10,02,53,301,30,07,04,322,,10,46,055,42,11,70,092,40,7*78
$GAGSV,3,2,10,12,23,045,40,16,43,133,42,24,18,130,49,25,70,142,42,7*72
$GAGSV,3,3,10,30,02,307,,36,44,197,40,7*79
$GBGSV,3,1,11,02,02,101,37,05,17,123,41,08,37,055,43,13,39,066,45,1*74
$GNRMC,150113.00,A,4843.26113,N,00920.55417,E,0.006,,080225,,,A,V*1D
$GNGGA,150113.00,4843.26113,N,00920.55417,E,1,12,0.48,244.7,M,47.6,M,,*4F
$GPGSV,3,1,12,05,23,051,47,09,00,323,,16,43,302,33,18,74,137,46,1*61
$GPGSV,3,2,12,20,03,024,,23,15,146,50,25,10,135,46,26,71,271,35,1*61
$GPGSV,3,3,12,27,16,269,,28,20,206,39,29,39,074,,31,34,227,34,1*69
$GLGSV,3,1,09,70,07,354,26,71,12,039,40,72,02,083,,77,32,162,42,1*70
$GLGSV,3,2,09,78,75,269,33,79,27,324,45,81,16,232,37,87,43,040,38,1*71
$GLGSV,3,3,09,88,70,249,39,1*43
$GAGSV,3,1,10,02,53,301,30,07,04,322,,10,46,055,42,11,70,092,41,7*79
$GAGSV,3,2,10,12,23,045,39,16,43,133,44,24,18,130,48,25,70,142,44,7*7D
$GNRMC,150114.00,A,4843.26114,N,00920.55412,E,0.017,,080225,,,A,V*18
$GNGGA,150114.00,4843.26114,N,00920.55412,E,1,12,0.48,244.7,M,47.6,M,,*4A
