$GNRMC,060000.00,A,4843.26145,N,00920.55496,E,0.004,,080225,,,A,V*14
$GNGGA,060000.00,4843.26145,N,00920.55496,E,1,12,0.53,250.7,M,47.6,M,,*4B
$GPGSV,4,1,13,05,43,218,45,07,09,071,39,08,06,026,,13,82,323,35,1*6F
$GPGSV,4,2,13,14,60,104,42,15,45,300,27,17,06,124,,18,09,296,40,1*6D
$GPGSV,4,3,13,20,17,192,,22,56,145,46,23,12,326,,24,11,259,,1*63
$GPGSV,4,4,13,30,42,069,37,1*58
$GLGSV,2,1,08,70,28,143,38,71,80,141,41,72,45,320,37,73,83,060,40,1*70
$GLGSV,2,2,08,74,47,215,25,80,25,039,48,81,08,017,37,88,06,327,17,1*7D
$GAGSV,3,1,10,04,86,082,37,06,64,300,37,09,39,299,37,11,03,241,,7*76
$GAGSV,3,2,10,19,26,115,43,21,35,052,46,23,60,129,46,31,25,187,36,7*7C
$GAGSV,3,3,10,34,09,335,38,36,13,286,,7*79
$GBGSV,2,1,08,05,16,124,42,07,22,063,43,09,06,071,34,10,26,076,38,1*7A
$GBGSV,2,2,08,12,02,009,,19,25,313,39,20,69,273,38,23,44,059,48,1*73
$GNRMC,060001.00,A,4843.26144,N,00920.55493,E,0.063,,080225,,,A,V*10
$GNGGA,060001.00,4843.26144,N,00920.55493,E,1,12,0.53,250.6,M,47.6,M,,*4F
$GPGSV,4,1,13,05,43,218,45,07,09,071,39,08,06,026,,13,82,323,35,1*6F
$GPGSV,4,2,13,14,60,104,42,15,45,300,26,17,06,124,,18,09,296,40,1*6C
$GPGSV,4,3,13,20,17,192,,22,56,145,46,23,12,326,,24,11,259,,1*63
$GPGSV,4,4,13,30,42,069,37,1*58
$GLGSV,2,1,08,70,28,143,38,71,80,141,41,72,45,320,37,73,83,060,40,1*70
$GLGSV,2,2,08,74,47,215,25,80,25,039,49,81,08,017,37,88,06,327,21,1*79
$GAGSV,3,1,10,04,86,082,38,06,64,300,37,09,39,299,37,11,03,241,,7*79
$GAGSV,3,2,10,19,26,115,43,21,35,052,46,23,60,129,46,31,25,187,36,7*7C
$GAGSV,3,3,10,34,09,335,38,36,13,286,,7*79
$GBGSV,2,1,08,05,16,124,42,07,22,063,43,09,06,071,33,10,26,076,38,1*7D
$GBGSV,2,2,08,12,02,009,,19,25,313,39,20,69,273,38,23,44,059,48,1*73
$GNRMC,060002.00,A,4843.26143,N,00920.55491,E,0.002,,080225,,,A,V*11
$GNGGA,060002.00,4843.26143,N,00920.55491,E,1,12,0.53,250.6,M,47.6,M,,*49
$GPGSV,4,1,13,05,43,218,45,07,09,071,39,08,06,026,,13,83,326,36,1*68
$GPGSV,4,2,13,14,60,102,42,15,45,300,26,17,06,124,,18,08,295,40,1*68
$GPGSV,4,3,13,20,17,192,,22,56,144,46,23,12,326,,24,11,259,,1*62
$GPGSV,4,4,13,30,42,069,37,1*58
$GLGSV,2,1,08,70,28,143,38,71,80,141,42,72,45,320,36,73,83,060,40,1*72
$GLGSV,2,2,08,74,47,215,25,80,25,039,49,81,08,017,37,88,06,327,23,1*7B
$GAGSV,3,1,10,04,86,082,38,06,64,300,37,09,39,299,37,11,03,241,,7*79
$GAGSV,3,2,10,19,26,115,43,21,35,052,46,23,60,129,46,31,25,187,36,7*7C
$GAGSV,3,3,10,34,09,335,38,36,13,286,,7*79
$GBGSV,2,1,08,05,16,124,42,07,22,063,43,09,06,071,33,10,26,076,39,1*7C
$GBGSV,2,2,08,12,02,009,,19,25,313,39,20,69,273,38,23,44,059,48,1*73
$GNRMC,060003.00,A,4843.26143,N,00920.55490,E,0.009,,080225,,,A,V*1A
$GNGGA,060003.00,4843.26143,N,00920.55490,E,1,12,0.53,250.5,M,47.6,M,,*4A
$GPGSV,4,1,13,05,43,218,45,07,09,071,40,08,06,026,,13,83,326,36,1*66
$GPGSV,4,2,13,14,60,102,42,15,45,300,27,17,06,124,,18,08,295,40,1*69
$GPGSV,4,3,13,20,17,192,,22,56,144,46,23,12,326,,24,11,259,,1*62
$GPGSV,4,4,13,30,42,069,38,1*57
$GLGSV,2,1,08,70,28,143,38,71,80,141,42,72,45,320,36,73,83,060,40,1*72
$GLGSV,2,2,08,74,47,215,26,80,25,039,48,81,08,017,37,88,06,327,25,1*7F
$GAGSV,3,1,10,04,86,082,38,06,64,300,37,09,39,299,36,11,03,241,,7*78
$GAGSV,3,2,10,19,26,115,43,21,35,052,46,23,60,129,46,31,25,187,36,7*7C
$GAGSV,3,3,10,34,09,335,38,36,3,286,,7*79
$GBGSV,2,1,08,05,16,124,42,07,22,063,43,09,06,071,33,10,26,076,39,1*7C
$GBGSV,2,2,08,12,02,009,,19,25,313,39,20,69,273,38,23,44,059,48,1*73
$GNRMC,060004.00,A,4843.26144,N,00920.55490,E,0.049,,080225,,,A,V*1E
$GNGGA,060004.00,4843.26144,N,00920.55490,E,1,12,0.53,250.6,M,47.6,M,,*49
$GPGSV,4,1,13,05,43,218,45,07,09,071,40,08,06,026,,13,83,326,36,1*66
$GPGSV,4,2,13,14,60,102,42,15,45,300,27,17,06,124,,18,08,295,40,1*69
$GPGSV,4,3,13,20,17,192,,22,56,144,46,23,12,326,,24,11,259,,1*62
$GPGSV,4,4,13,30,42,069,38,1*57
$GLGSV,2,1,08,70,28,143,38,71,80,141,42,72,45,320,36,73,83,060,40,1*72
$GLGSV,2,2,08,74,47,215,26,80,25,039,48,81,08,017,38,88,06,327,25,1*70
$GAGSV,3,1,10,04,86,082,38,06,64,300,37,09,39,299,36,11,03,241,,7*78
$GAGSV,3,2,10,19,26,115,43,21,35,052,46,23,60,129,46,31,25,187,36,7*7C
$GAGSV,3,3,10,34,09,335,39,36,13,286,,7*78
$GBGSV,2,1,08,05,16,124,42,07,22,063,42,09,06,071,33,10,26,076,39,1*7D
$GBGSV,2,2,08,12,02,009,,19,25,313,39,20,69,273,38,23,44,059,48,1*73
$GNRMC,060005.00,A,4843.26147,N,00920.55493,E,0.025,,080225,,,A,V*15
$GNGGA,060005.00,4843.26147,N,00920.55493,E,1,12,0.53,250.6,M,47.6,M,,*48
$GPGSV,4,1,13,05,43,218,44,07,09,071,40,08,06,026,,13,83,326,36,1*67
$GPGSV,4,2,13,14,60,102,42,15,45,300,28,17,06,124,,18,08,295,40,1*66
$GPGSV,4,3,13,20,17,192,,22,56,144,46,23,12,326,,24,11,259,,1*62
$GPGSV,4,4,13,30,42,069,39,1*56
$GLGSV,2,1,08,70,28,143,38,71,80,141,42,72,45,320,36,73,83,060,39,1*7C
$GLGSV,2,2,08,74,47,215,26,80,25,039,48,81,08,017,38,88,06,327,25,1*70
$GAGSV,3,1,10,04,86,082,37,06,64,300,37,09,3299,36,11,03,241,,7*77
$GAGSV,3,2,10,19,26,115,43,21,35,052,46,23,60,129,46,31,25,187,36,7*7C
$GAGSV,3,3,10,34,09,335,38,36,13,286,,7*79
$GBGSV,2,1,08,05,16,124,42,07,22,063,42,09,06,071,33,10,26,076,39,1*7D
$GBGSV,2,2,08,12,02,009,,19,25,313,39,20,69,273,38,23,44,059,48,1*73
$GNRMC,060006.00,A,4843.26150,N,00920.55497,E,0.044,,080225,,,A,V*13
$GNGGA,060006.00,4843.26150,N,00920.55497,E,1,12,0.53,250.7,M,47.6,M,,*48
$GPGSV,4,1,13,05,43,218,44,07,09,071,40,08,06,026,,13,83,326,36,1*67
$GPGSV,4,2,13,14,60,102,42,15,46,300,28,17,06,124,,18,08,295,40,1*65
$GPGSV,4,3,13,20,17,192,,22,56,144,46,23,12,326,,24,11,259,,1*62
$GPGSV,4,4,13,30,42,069,39,1*56
$GLGSV,2,1,08,70,28,143,38,71,80,141,42,72,45,320,36,73,83,060,39,1*7C
$GLGSV,2,2,08,74,47,215,6,80,25,039,48,81,08,017,38,88,06,327,26,1*73
$GAGSV,3,1,10,04,86,082,37,06,64,300,37,09,39,299,36,11,03,241,,7*77
$GAGSV,3,2,10,19,26,115,43,21,35,052,46,23,60,129,45,31,25,187,36,7*7F
$GAGSV,3,3,10,34,09,335,39,36,13,286,,7*78
$GBGSV,2,1,08,05,16,124,42,07,22,063,42,09,06,071,33,10,26,076,39,1*7D
$GBGSV,2,2,08,12,02,009,,19,25,313,39,20,69,273,38,23,44,059,48,1*73
$GNRMC,060007.00,A,4843.26151,N,00920.55498,E,0.045,,080225,,,A,V*1D
$GNGGA,060007.00,4843.26151,N,00920.55498,E,1,12,0.53,250.7,M,47.6,M,,*47
$GPGSV,4,1,13,05,43,218,45,07,09,071,40,08,06,026,,13,83,326,35,1*65
$GPGSV,4,2,13,14,60,102,42,15,46,300,28,17,06,124,,18,08,295,40,1*65
$GPGSV,4,3,13,20,17,192,,22,56,144,46,23,12,326,,24,11,259,,1*62
$GPGSV,4,4,13,30,42,069,39,1*56
$GLGSV,2,1,08,70,28,143,38,71,80,141,42,72,45,320,37,73,83,060,40,1*73
$GLGSV,2,2,08,74,47,215,26,80,25,039,48,81,08,017,39,88,06,327,25,1*71
$GAGSV,3,1,10,04,86,082,37,06,64,300,37,09,39,299,36,11,03,241,,7*77
$GAGSV,3,2,10,19,26,115,42,21,35,052,46,23,60,129,45,31,25,187,37,7*7F
$GAGSV,3,3,10,34,09,335,39,36,13,286,,7*78
$GBGSV,2,1,08,05,16,124,42,07,22,063,42,09,06,071,33,10,26,076,39,1*7D
$GBGSV,2,2,08,12,02,009,,19,25,313,39,20,69,273,38,23,44,059,48,1*73
$GNRMC,060008.00,A,4843.26151,N,00920.55499,E,0.015,,080225,,,A,V*16
$GNGGA,060008.00,4843.26151,N,00920.55499,E,1,12,0.53,250.7,M,47.6,M,,*49
$GPGSV,4,1,13,0,43,218,45,07,09,071,39,08,06,026,,13,83,326,35,1*6B
$GPGSV,4,2,13,14,60,102,42,15,46,300,28,17,06,124,,18,08,295,40,1*65
$GPGSV,4,3,13,20,17,192,,22,56,144,46,23,12,326,,24,11,259,,1*62
$GPGSV,4,4,13,30,42,069,39,1*56
$GLGSV,2,1,08,70,28,143,38,71,80,141,42,72,45,320,37,73,83,060,401*73
$GLGSV,2,2,08,74,47,215,27,80,25,039,48,81,08,017,40,88,06,327,25,1*7E
$GAGSV,3,1,10,04,86,082,37,06,64,300,37,09,39,299,36,11,03,241,,7*77
$GAGSV,3,2,10,19,26,115,42,21,35,052,46,23,60,129,45,31,25,187,37,7*7F
$GAGSV,3,3,10,34,09,335,39,36,13,286,,7*78
$GBGSV,2,1,08,05,16,124,42,07,22,063,42,09,06,071,33,10,26,076,39,1*7D
$GBGSV,2,2,08,12,02,009,,19,25,313,39,20,69,273,38,23,44,059,48,1*73
$GNRMC,060009.00,A,4843.26152,N,00920.55500,E,0.060,,080225,,,A,V*17
$GNGGA,060009.00,4843.26152,N,00920.55500,E,1,12,0.53,250.7,M,47.6,M,,*4A
$GPGSV,4,1,13,05,43,218,45,07,09,071,39,08,06,026,,13,83,326,35,1*6B
$GPGSV,4,2,13,14,60,102,42,15,46,300,28,17,06,124,,18,08,295,40,1*65
$GPGSV,4,3,13,20,17,192,,22,56,144,46,23,12,326,,24,11,259,,1*62
$GPGSV,4,4,13,30,42,069,40,1*58
$GLGSV,2,1,08,70,28,143,38,71,80,141,42,72,45,320,38,73,83,060,40,1*7C
$GLGSV,2,2,08,74,47,215,27,80,25,039,48,81,08,017,41,88,06,327,23,1*79
$GAGSV,3,1,10,04,86,082,37,06,64,300,37,09,39,299,36,11,03,241,,7*77
$GAGSV,3,2,10,19,26,115,42,21,35,052,46,23,60,129,45,31,25,187,37,7*7F
$GAGSV,3,3,10,34,09,335,39,36,13,286,,7*78
$GBGSV,2,1,08,05,16,124,42,07,22,063,42,09,06,071,33,10,26,076,39,1*7D
$GBGSV,2,2,08,12,02,009,,19,25,313,39,20,69,273,38,23,44,059,49,1*72
$GNRMC,060010.00,A,4843.26154,N,00920.55504,E,0.029,,080225,,,A,V*10
$GNGGA,060010.00,4843.26154,N,00920.55504,E,1,12,0.53,250.8,M,47.6,M,,*4F
$GPGSV,4,1,13,05,43,218,44,07,09,071,39,08,06,026,,13,83,326,34,1*6B
$GPGSV,4,2,13,14,60,102,42,15,46,300,29,17,06,124,,18,08,295,40,1*64
$GPGSV,4,3,13,20,17,192,,22,56,144,46,23,12,326,,24,11,259,,1*62
$GPGSV,4,4,13,30,42,069,40,1*58
$GLGSV,2,1,08,70,28,143,38,71,79,142,43,72,46,320,38,73,82,059,40,1*70
$GLGSV,2,2,08,74,47,215,28,80,25,039,48,81,08,017,41,88,06,327,19,1*7F
$GAGSV,3,1,10,04,86,082,37,06,64,300,38,09,39,299,36,11,03,241,,7*78
$GAGSV,3,2,10,19,26,115,42,21,35,052,46,23,60,129,45,31,25,187,37,7*7F
$GAGSV,3,3,10,34,09,335,39,36,13,286,,7*78
$GBGSV,2,1,08,05,16,124,41,07,22,063,42,09,06,071,33,10,26,076,39,1*7E
$GBGSV,2,2,08,2,02,009,,19,25,313,39,20,69,273,38,23,44,059,49,1*72
$GNRMC,060011.00,A,4843.26156,N,00920.55508,E,0.037,,080225,,,A,V*10
$GNGGA,060011.00,4843.26156,N,00920.55508,E,1,12,0.53,250.8,M,47.6,M,,*40
$GPGSV,4,1,13,05,43,218,44,07,09,071,38,08,06,026,,13,83,326,34,1*6A
$GPGSV,4,2,13,14,60,102,42,15,46,300,30,17,06,124,,18,08,295,40,1*6C
$GPGSV,4,3,13,20,16,192,,22,56,144,46,23,12,326,,24,11,259,,1*63
$GPGSV,4,4,13,30,42,069,41,1*59
$GLGSV,2,1,08,70,28,143,38,71,79,142,43,72,46,320,39,73,82,059,40,1*71
$GLGSV,2,2,08,74,47,215,28,80,25,039,48,81,08,017,42,88,06,327,14,1*71
$GAGSV,3,1,10,04,86,082,37,06,64,300,38,09,39,299,36,11,03,241,,7*78
$GAGSV,3,2,10,19,26,115,42,21,35,052,46,23,60,129,45,31,25,187,37,7*7F
$GAGSV,3,3,10,34,09,335,38,36,13,286,,7*79
$GBGSV,2,1,08,05,16,124,41,07,22,063,42,09,06,071,33,10,26,076,39,1*7E
$GBGSV,2,2,08,12,02,009,,19,25,313,39,20,69,273,38,23,44,059,49,1*72
$GNRMC,060012.00,A,4843.26157,N,00920.55511,E,0.025,,080225,,,A,V*19
$GNGGA,060012.00,4843.26157,N,00920.55511,E,1,12,0.53,250.9,M,47.6,M,,*4B
$GPGSV,4,1,13,05,43,218,44,07,09,071,38,08,06,026,,13,83,326,34,1*6A
$GPGSV,4,2,13,14,60,102,42,15,46,300,31,17,06,124,,18,08,295,40,1*6D
$GPGSV,4,3,13,20,16,192,,22,56,143,46,23,12,326,,24,11,259,,1*64
$GPGSV,4,4,13,30,42,069,41,1*59
$GLGSV,2,1,08,70,28,143,37,71,79,142,43,72,46,320,40,73,82,059,40,1*70
$GLGSV,2,2,08,74,47,215,28,80,25,039,47,81,08,017,42,88,06,327,16,1*7C
$GAGSV,3,1,10,04,86,082,37,06,64,300,38,09,39,299,36,11,03,241,,7*78
$GAGSV,3,2,10,19,26,115,42,21,35,052,46,23,60,129,45,31,25,187,37,7*7F
$GAGSV,3,3,10,34,09,335,39,36,13,286,,7*78
$GBGSV,2,1,08,05,16,124,41,07,22,063,42,09,06,071,33,10,26,076,39,1*7E
$GBGSV,2,2,08,12,02,009,,19,25,313,39,20,69,273,37,23,44,059,48,1*7C
$GNRMC,060013.00,A,4843.26158,N,00920.55514,E,0.012,,080225,,,A,V*16
$GNGGA,060013.00,4843.26158,N,00920.55514,E,1,12,0.53,251.0,M,47.6,M,,*48
$GPGSV,4,1,13,05,43,218,44,07,09,071,37,08,06,026,,13,83,326,35,1*64
$GPGSV,4,2,13,14,60,102,42,15,46,300,32,17,06,124,,18,08,295,39,1*60
$GPGSV,4,3,13,20,16,192,,22,56,143,46,23,13,325,,24,11,259,,1*66
$GPGSV,4,4,13,30,42,069,41,1*59
$GLGSV,2,1,08,70,28,143,37,71,79,142,43,72,46,320,40,73,82,059,39,1*7E
$GLGSV,2,2,08,74,47,215,28,80,25,039,47,81,08,017,42,88,06,327,19,1*73
$GAGSV,3,1,10,04,86,082,37,06,64,300,38,09,39,299,36,11,03,241,,7*78
$GAGSV,3,2,10,19,26,115,42,21,35,052,46,23,60,129,45,31,25,187,37,7*7F
$GAGSV,3,3,10,34,09,335,39,36,13,286,,7*78
$GBGSV,2,1,08,05,16,124,42,07,22,063,42,09,06,071,33,10,26,076,39,1*7D
$GBGSV,2,2,08,12,02,009,,19,25,313,39,20,69,273,37,23,44,059,48,1*7C
$GNRMC,060014.00,A,4843.26157,N,00920.55518,E,0.022,,080225,,,A,V*11
$GNGGA,060014.00,4843.26157,N,00920.55518,E,1,12,0.54,251.1,M,47.6,M,,*4A
$GPGSV,4,1,13,05,43,218,45,07,09,071,36,08,06,026,,13,83,326,35,1*64
$GPGSV,4,2,13,14,60,102,42,15,46,300,33,17,06,124,,18,08,295,39,1*61
$GPGSV,4,3,13,20,16,192,,22,56,143,46,23,13,325,,24,12,259,,1*65
$GPGSV,4,4,13,30,42,069,41,1*59
$GLGSV,2,1,08,70,28,143,37,71,79,142,43,72,46,320,40,73,82,059,40,1*70
$GLGSV,2,2,08,74,47,215,29,80,25,039,47,81,08,017,42,88,06,327,22,1*7A
$GAGSV,3,1,10,04,86,082,37,06,64,300,38,09,39,299,36,11,03,241,,7*78
$GAGSV,3,2,10,19,26,115,42,21,35,052,46,23,60,129,45,31,25,187,37,7*7F
$GAGSV,3,3,10,34,09,335,39,36,13,286,,7*78
$GBGSV,2,1,08,05,16,124,42,07,22,063,42,09,06,071,33,10,26,076,39,1*7D
$GBGSV,2,2,08,12,02,009,,19,25,313,38,20,69,273,37,23,44,059,48,1*7D
$GNRMC,060015.00,A,4843.26158,N,00920.55523,E,0.036,,080225,,,A,V*12
$GNGGA,060015.00,4843.26158,N,00920.55523,E,1,12,0.54,251.2,M,47.6,M,,*4F
$GPGSV,4,1,13,05,43,218,44,07,09,071,36,08,06,026,,13,83,326,36,1*66
$GPGSV,4,2,13,14,60,102,42,15,46,300,34,17,06,124,,18,08,295,39,1*66
$GPGSV,4,3,13,20,16,192,,22,56,143,46,23,13,325,,24,12,259,,1*65
$GPGSV,4,4,13,30,42,069,42,1*5A
$GLGSV,2,1,08,70,28,143,38,71,79,142,43,72,46,320,40,73,82,059,40,1*7F
$GLGSV,2,2,08,74,47,215,28,80,25,039,47,81,08,017,42,88,06,327,24,1*7D
$GAGSV,3,1,10,04,86,082,37,06,64,300,38,09,39,299,37,11,03,241,,7*79
$GAGSV,3,2,10,19,26,115,42,21,35,052,46,23,60,129,45,31,25,187,37,7*7F
$GAGSV,3,3,10,34,09,335,38,36,13,286,,7*79
$GBGSV,2,1,08,05,16,124,42,07,22,063,42,09,06,071,33,10,26,076,40,1*73
$GBGSV,2,2,08,12,02,009,,19,25,313,38,20,69,273,37,23,44,059,48,1*7D
$GNRMC,060016.00,A,4843.26158,N,00920.55528,E,0.022,,080225,,,A,V*1F
$GNGGA,060016.00,4843.26158,N,00920.55528,E,1,12,0.54,251.3,M,47.6,M,,*46
$GPGSV,4,1,13,05,43,218,44,07,09,071,35,08,06,026,,13,83,326,36,1*65
$GPGSV,4,2,13,14,60,102,42,15,46,300,34,17,06,124,,18,08,295,39,1*66
$GPGSV,4,3,13,20,16,192,,22,56,143,46,23,13,325,,24,12,259,,1*65
$GPGSV,4,4,13,30,42,069,42,1*5A
$GLGSV,2,1,08,70,28,143,37,71,79,142,42,72,46,320,40,73,82,059,41,1*70
$GLGSV,2,2,08,74,47,215,28,80,25,039,47,81,08,017,41,88,06,327,25,1*7F
$GAGSV,3,1,10,04,86,082,37,06,64,300,38,09,39,299,37,11,03,241,,7*79
$GAGSV,3,2,10,19,26,115,42,21,35,052,46,23,60,129,45,31,25,187,37,7*7F
$GAGSV,3,3,10,34,09,335,38,36,13,286,,7*79
$GBGSV,2,1,08,05,16,124,42,07,22,063,42,09,05,071,33,10,26,076,39,1*7E
$GBGSV,2,2,08,12,02,009,,19,25,313,38,20,69,272,37,23,43,059,48,1*7B
$GNRMC,060017.00,A,4843.26157,N,00920.55532,E,0.029,,080225,,,A,V*11
$GNGGA,060017.00,4843.26157,N,00920.55532,E,1,12,0.54,251.4,M,47.6,M,,*44
$GPGSV,4,1,13,05,43,218,44,07,09,071,35,08,06,026,,13,83,326,36,1*65
$GPGSV,4,2,13,14,60,102,42,15,46,300,35,17,06,124,,18,08,295,39,1*67
$GPGSV,4,3,13,20,16,192,,22,56,143,46,23,13,325,,24,12,259,,1*65
$GPGSV,4,4,13,30,42,069,42,1*5A
$GLGSV,2,1,08,70,28,143,37,71,79,142,41,72,46,320,40,73,82,059,41,1*73
$GLGSV,2,2,08,74,47,215,27,80,25,039,48,81,08,017,41,88,06,327,26,1*7C
$GAGSV,3,1,10,04,86,082,37,06,64,300,38,09,39,299,37,11,03,241,,7*79
$GAGSV,3,2,10,19,26,115,42,21,35,052,46,23,60,129,45,31,25,187,37,7*7F
$GAGSV,3,3,10,34,09,335,38,36,13,286,,7*79
$GBGSV,2,1,08,05,16,124,42,07,22,063,42,09,05,071,33,10,26,076,40,1*70
$GBGSV,2,2,08,12,02,009,,19,25,313,38,20,69,272,37,23,43,059,48,1*7B
$GNRMC,060018.00,A,4843.26156,N,00920.55535,E,0.034,,080225,,,A,V*14
$GNGGA,060018.00,4843.26156,N,00920.55535,E,1,12,0.54,251.4,M,47.6,M,,*4D
$GPGSV,4,1,13,05,43,218,44,07,09,071,34,08,06,026,,13,83,326,37,1*65
$GPGSV,4,2,13,14,60,102,42,15,46,300,35,17,06,124,,18,08,295,39,1*67
$GPGSV,4,3,13,20,16,192,,22,56,143,46,23,13,325,,24,12,259,,1*65
$GPGSV,4,4,13,30,42,069,42,1*5A
$GLGSV,2,1,08,70,28,143,37,71,79,142,41,72,46,320,40,73,82,059,42,1*70
$GLGSV,2,2,08,74,47,215,27,80,25,039,48,81,08,017,41,88,06,327,29,1*73
$GAGSV,3,1,10,04,86,082,37,06,64,300,38,09,39,299,37,11,03,241,,7*79
$GAGSV,3,2,10,19,26,115,42,21,35,052,46,23,60,129,45,31,25,187,37,7*7F
$GAGSV,3,3,10,34,09,335,38,36,13,286,,7*79
$GBGSV,2,1,08,05,16,124,41,07,22,063,42,09,05,071,33,10,26,076,40,1*73
$GBGSV,2,2,08,12,02,009,,19,25,313,38,20,69,272,37,23,43,059,49,1*7A
$GNGGA,060019.00,4843.26153,N,00920.55539,E,1,12,0.54,251.5,M,47.6,M,,*44
$GPGSV,4,1,13,05,43,218,44,07,09,071,33,08,06,026,,13,83,326,37,1*62
$GPGSV,4,2,13,14,60,102,42,15,46,300,35,17,06,124,,18,08,295,38,1*66
$GPGSV,4,3,13,20,16,192,,22,56,143,46,23,13,325,,24,12,259,,1*65
$GPGSV,4,4,13,30,42,069,42,1*5A
$GLGSV,2,1,08,70,28,143,37,71,79,142,41,72,46,320,40,73,82,059,42,1*70
$GLGSV,2,2,08,74,47,215,27,80,25,039,47,81,08,017,41,88,06,327,30,1*74
$GAGSV,3,1,10,04,86,082,37,06,64,300,38,09,39,299,37,11,03,241,,7*79
$GAGSV,3,2,10,19,26,115,42,21,35,052,46,23,60,129,45,31,25,187,37,7*7F
$GAGSV,3,3,10,34,09,335,38,36,13,286,,7*79
$GBGSV,2,1,08,05,16,124,41,07,22,063,42,09,05,071,33,10,26,076,40,1*73
$GBGSV,2,2,08,12,02,009,,19,25,313,38,20,69,272,36,23,43,059,49,1*7B
$GNRMC,060020.00,A,4843.26150,N,00920.55543,E,0.045,,080225,,,A,V*1E
$GNGGA,060020.00,4843.26150,N,00920.55543,E,1,12,0.53,251.5,M,47.6,M,,*47
$GPGSV,4,1,13,05,43,218,44,07,09,071,32,08,06,026,,13,83,326,37,1*63
$GPGSV,4,2,13,14,60,102,42,15,46,300,35,17,06,124,,18,08,295,38,1*66
$GPGSV,4,3,13,20,16,192,,22,56,143,46,23,13,325,,24,12,259,,1*65
$GPGSV,4,4,13,30,42,069,43,1*5B
$GLGSV,2,1,08,70,28,143,37,71,79,142,42,72,46,320,40,73,82,09,42,1*73
$GLGSV,2,2,08,74,47,215,27,80,25,039,47,81,08,017,41,88,06,327,30,1*74
$GAGSV,3,1,10,04,86,082,37,06,64,300,38,09,39,299,37,11,03,241,,7*79
$GAGSV,3,2,10,19,26,115,42,21,35,052,46,23,60,129,44,31,25,187,37,7*7E
$GAGSV,3,3,10,34,09,335,38,36,13,286,,7*79
$GBGSV,2,1,08,05,16,124,41,07,22,063,42,09,05,071,33,10,26,076,40,1*73
$GBGSV,2,2,08,12,02,009,,19,25,313,38,20,69,272,36,23,43,059,49,1*7B
$GNRMC,060021.00,A,4843.26147,N,00920.55545,E,0.024,,080225,,,A,V*18
$GNGGA,060021.00,4843.26147,N,00920.55545,E,1,12,0.53,251.6,M,47.6,M,,*45
$GPGSV,4,1,13,05,43,218,45,07,09,071,31,08,06,026,,13,83,326,36,1*60
$GPGSV,4,2,13,14,60,102,42,15,46,300,35,17,06,124,,18,08,295,38,1*66
$GPGSV,4,3,13,20,16,192,,22,56,143,46,23,13,325,,24,12,259,,1*65
$GPGSV,4,4,13,30,42,069,43,1*5B
$GLGSV,2,1,08,70,28,143,37,71,79,142,42,72,46,320,40,73,82,059,42,1*73
$GLGSV,2,2,08,74,47,215,27,80,25,039,47,81,08,017,41,88,06,327,30,1*74
$GAGSV,3,1,10,04,86,082,37,06,64,300,38,09,39,299,37,11,03,241,,7*79
$GAGSV,3,2,10,19,26,115,42,21,35,052,46,23,60,129,44,31,25,187,37,7*7E
$GAGSV,3,3,10,34,09,335,38,36,13,286,,7*79
$GBGSV,2,1,08,05,16,124,41,07,22,063,42,09,05,071,33,10,26,076,40,1*73
$GBGSV,2,2,08,12,02,009,,19,25,313,38,20,69,272,36,23,43,059,49,1*7B
$GNRMC,060022.00,A,4843.26143,N,00920.55546,E,0.011,,080225,,,A,V*1A
$GNGGA,060022.00,4843.26143,N,00920.55546,E,1,12,0.53,251.5,M,47.6,M,,*42
$GPGSV,4,1,13,05,43,218,44,07,09,071,30,08,06,026,,13,83,326,36,1*60
$GPGSV,4,2,13,14,60,102,41,15,46,300,35,17,06,124,,18,08,295,38,1*65
$GPGSV,4,3,13,20,16,192,,22,56,143,46,23,13,325,,24,12,259,,1*65
$GPGSV,4,4,13,30,42,069,43,1*5B
$GLGSV,2,1,08,70,28,143,37,71,79,142,43,72,46,320,40,73,82,059,42,1*72
$GLGSV,2,2,08,74,47,215,26,80,25,039,47,81,08,017,42,88,06,327,29,1*7E
$GAGSV,3,1,10,04,86,082,37,06,64,300,38,09,39,299,37,11,03,241,,7*79
$GAGSV,3,2,10,19,26,115,42,21,35,052,46,23,60,129,45,31,25,187,38,7*70
$GAGSV,3,3,10,34,09,335,38,36,13,286,,7*79
$GBGSV,2,1,08,05,16,124,41,07,22,063,42,09,05,071,33,10,26,076,40,1*73
$GBGSV,2,2,08,12,02,009,,19,25,313,39,20,69,272,36,23,43,059,48,1*7B
$GNRMC,060023.00,A,4843.26139,N,00920.55546,E,0.021,,080225,,,A,V*15
$GNGGA,060023.00,4843.26139,N,00920.55546,E,1,12,0.53,251.5,M,47.6,M,,*4E
$GPGSV,4,1,13,05,43,218,44,07,09,071,27,08,06,026,,13,83,326,35,1*65
$GPGSV,4,2,13,14,60,102,41,15,46,300,35,17,06,124,,18,08,295,38,1*65
$GPGSV,4,3,13,20,16,192,,22,56,143,46,23,13,325,,24,12,259,,1*65
$GPGSV,4,4,13,30,42,069,43,1*5B
$GLGSV,2,1,08,70,28,143,36,71,79,142,43,72,46,320,39,73,82,059,42,1*7D
$GLGSV,2,2,08,74,47,215,26,80,25,039,47,81,08,017,42,88,06,327,27,1*70
$GAGSV,3,1,10,04,86,082,37,06,64,300,38,09,39,299,38,11,03,241,,7*76
$GAGSV,3,2,10,19,26,115,41,21,35,052,46,23,60,129,45,31,25,187,38,7*73
$GAGSV,3,3,10,34,09,335,38,36,13,286,,7*79
$GBGSV,2,1,08,05,16,124,42,07,22,063,42,09,05,071,33,10,26,076,40,1*70
$GBGSV,2,2,08,12,02,009,,19,25,313,39,20,69,272,36,23,43,059,48,1*7B
$GNRMC,060024.00,A,4843.26136,N,00920.55546,E,0.011,,080225,,,A,V*1E
$GNGGA,060024.00,4843.26136,N,00920.55546,E,1,12,0.53,251.5,M,47.6,M,,*46
$GPGSV,4,1,13,05,43,218,44,07,09,071,24,08,06,026,,13,83,326,35,1*66
$GPGSV,4,2,13,14,60,102,41,15,46,300,35,17,06,124,,18,08,295,38,1*65
$GPGSV,4,3,13,20,16,192,,22,56,143,46,23,13,325,,24,12,259,,1*65
$GPGSV,4,4,13,30,42,069,43,1*5B
$GLGSV,2,1,08,70,28,143,36,71,79,142,43,72,46,320,39,73,82,059,42,1*7D
$GLGSV,2,2,08,74,47,215,26,80,25,039,47,81,08,017,42,88,06,327,26,1*71
$GAGSV,3,1,10,04,86,082,37,06,64,300,38,09,39,299,37,11,03,241,,7*79
$GAGSV,3,2,10,19,26,115,41,21,35,052,46,23,60,129,45,31,25,187,37,7*7C
$GAGSV,3,3,10,34,09,335,38,36,13,286,,7*79
$GBGSV,2,1,08,05,16,124,41,07,22,063,42,09,05,071,33,10,26,076,40,1*73
$GBGSV,2,2,08,12,02,009,,19,25,313,38,20,69,272,35,23,43,059,48,1*79
$GNRMC,060025.00,A,4843.26132,N,00920.55547,E,0.016,,080225,,,A,V*1D
$GNGGA,060025.00,4843.26132,N,00920.55547,E,1,12,0.53,251.4,M,47.6,M,,*43
$GPGSV,4,1,13,05,43,218,44,07,09,071,20,08,06,026,,13,83,326,35,1*62
$GPGSV,4,2,13,14,60,102,40,15,46,300,35,17,06,124,,18,08,295,38,1*64
$GPGSV,4,3,13,20,16,192,,22,56,143,46,23,13,325,,24,12,259,,1*65
$GPGSV,4,4,13,30,42,069,43,1*5B
$GLGSV,2,1,08,70,28,143,36,71,79,142,42,72,46,320,40,73,82,059,42,1*72
$GLGSV,2,2,08,74,47,215,27,80,25,039,47,81,08,017,41,88,06,327,26,1*73
$GAGSV,3,1,10,04,86,082,37,06,64,300,38,09,39,299,37,11,03,241,,7*79
$GAGSV,3,2,10,19,26,115,41,21,34,052,46,23,60,129,45,31,25,187,37,7*7D
$GAGSV,3,3,10,34,09,335,38,36,13,286,,7*79
$GBGSV,2,1,08,05,16,124,41,07,22,063,42,09,05,071,33,10,26,076,40,1*73
$GBGSV,2,2,08,12,02,009,,19,25,313,39,20,69,272,35,23,43,059,48,1*78
$GNRMC,060026.00,A,4843.26129,N,00920.55546,E,0.038,,080225,,,A,V*19
$GNGGA,060026.00,4843.26129,N,00920.55546,E,1,12,0.53,251.3,M,47.6,M,,*4C
$GPGSV,4,1,13,05,43,218,44,07,09,071,19,08,06,026,,13,83,326,34,1*69
$GPGSV,4,2,13,14,60,102,40,15,46,300,35,17,06,124,,18,08,295,38,1*64
$GPGSV,4,3,13,20,16,192,,22,56,143,46,23,13,325,,24,12,259,,1*65
$GPGSV,4,4,13,30,42,069,44,1*5C
$GLGSV,2,1,08,70,28,143,36,71,79,142,42,72,46,320,40,73,82,059,42,1*72
$GLGSV,2,2,08,74,47,215,27,80,25,039,47,81,08,017,42,88,06,327,25,1*73
$GAGSV,3,1,10,04,86,082,37,06,64,300,38,09,39,299,37,11,03,241,,7*79
$GAGSV,3,2,10,19,26,115,41,21,34,052,46,23,60,129,45,31,25,187,38,7*72
$GAGSV,3,3,10,34,09,335,37,36,13,286,,7*76
$GBGSV,2,1,08,05,16,124,41,07,22,063,42,09,05,071,33,10,26,076,40,1*73
$GBGSV,2,2,08,12,02,009,,19,25,313,39,20,69,272,35,23,43,059,48,1*78
$GNRMC,060027.00,A,4843.26126,N,00920.55547,E,0.006,,080225,,,A,V*1B
$GNGGA,060027.00,4843.26126,N,00920.55547,E,1,12,0.53,251.2,M,47.6,M,,*42
$GPGSV,4,1,13,05,43,218,44,07,09,071,23,08,06,026,,13,83,326,34,1*60
$GPGSV,4,2,13,14,60,102,40,15,46,300,35,17,06,124,,18,08,295,38,1*64
$GPGSV,4,3,13,20,16,192,,22,56,143,46,23,13,325,,24,12,259,,1*65
$GPGSV,4,4,13,30,42,069,44,1*5C
$GLGSV,2,1,08,70,28,143,36,71,79,142,41,72,46,320,40,73,82,059,42,1*71
$GLGSV,2,2,08,74,47,215,25,80,25,039,47,81,08,017,42,88,06,327,25,1*71
$GAGSV,3,1,10,04,86,090,36,06,64,300,39,09,39,299,37,11,03,241,,7*7A
$GAGSV,3,2,10,19,26,115,41,21,34,052,46,23,60,129,45,31,25,187,38,7*72
$GAGSV,3,3,10,34,09,335,37,36,13,286,,7*76
$GBGSV,2,1,08,05,16,124,41,07,22,063,42,09,05,071,33,10,26,076,40,1*73
$GBGSV,2,2,08,12,02,009,,19,25,313,38,20,69,272,35,23,43,059,48,1*79
$GNRMC,060028.00,A,4843.26123,N,00920.55547,E,0.039,,080225,,,A,V*1D
$GNGGA,060028.00,4843.26123,N,00920.55547,E,1,12,0.53,251.1,M,47.6,M,,*4B
$GPGSV,4,1,13,05,43,218,44,07,09,071,27,08,06,026,,13,83,326,34,1*64
$GPGSV,4,2,13,14,60,102,40,15,46,300,36,17,06,124,,18,08,295,34,1*6B
$GPGSV,4,3,13,20,16,192,,22,56,143,46,23,13,325,,24,12,259,,1*65
$GPGSV,4,4,13,30,42,069,44,1*5C
$GLGSV,2,1,08,70,28,143,36,71,79,142,40,72,46,320,39,73,82,059,42,1*7E
$GLGSV,2,2,08,74,47,215,24,80,25,039,47,81,08,017,42,88,06,327,26,1*73
$GAGSV,3,1,10,04,86,090,37,06,64,300,38,09,39,299,37,11,03,241,,7*7A
$GAGSV,3,2,10,19,26,115,41,21,34,052,46,23,60,129,45,31,25,187,38,7*72
$GAGSV,3,3,10,34,09,335,34,36,13,286,,7*75
$GBGSV,2,1,08,05,16,124,41,07,22,063,42,09,05,071,32,10,26,076,40,1*72
$GBGSV,2,2,08,12,02,009,,19,25,313,39,20,69,272,35,23,43,059,48,1*78
$GNRMC,060029.00,A,4843.26120,N,00920.55545,E,0.005,,080225,,,A,V*12
$GNGGA,060029.00,4843.26120,N,00920.55545,E,1,12,0.53,251.1,M,47.6,M,,*4B
$GPGSV,4,1,13,05,43,218,44,07,09,071,30,08,06,026,,13,83,326,34,1*62
$GPGSV,4,2,13,14,60,102,40,15,46,300,36,17,06,124,,18,08,295,37,1*68
$GPGSV,4,3,13,20,16,192,,22,56,143,46,23,13,325,,24,12,259,,1*65
$GPGSV,4,4,13,30,42,069,44,1*5C
$GLGSV,2,1,08,70,28,143,36,71,79,142,40,72,46,320,40,73,82,059,42,1*70
$GLGSV,2,2,08,74,47,215,24,80,25,039,47,81,08,017,41,88,06,327,27,1*71
$GAGSV,3,1,10,04,86,090,37,06,65,300,39,09,39,299,37,11,03,241,,7*7A
$GAGSV,3,2,10,19,26,115,41,21,34,052,46,2360,129,45,31,25,187,38,7*72
$GAGSV,3,3,10,34,09,335,36,36,13,286,,7*77
$GBGSV,2,1,08,05,16,124,41,07,22,063,42,09,05,071,32,10,26,076,40,1*72
$GBGSV,2,2,08,12,02,009,,19,25,313,39,20,69,272,35,23,43,059,48,1*78
$GNRMC,060030.00,A,4843.26116,N,00920.55544,E,0.006,,080225,,,A,V*1D
$GNGGA,060030.00,4843.26116,N,00920.55544,E,1,12,0.53,251.0,M,47.6,M,,*46
$GPGSV,4,1,13,05,43,218,43,07,09,071,31,08,06,026,,13,83,326,34,1*64
$GPGSV,4,2,13,14,60,102,40,15,46,300,35,17,06,124,,18,08,295,38,1*64
$GPGSV,4,3,13,20,16,192,,22,56,143,45,23,13,325,,24,12,259,,1*66
$GPGSV,4,4,13,30,42,069,44,1*5C
$GLGSV,2,1,08,70,28,143,36,71,79,142,40,72,46,320,40,73,82,059,42,1*70
$GLGSV,2,2,08,74,47,215,25,80,25,039,47,81,08,017,41,88,06,327,29,1*7E
$GAGSV,3,1,10,04,86,090,37,06,65,300,39,09,39,299,37,11,03,241,,7*7A
$GAGSV,3,2,10,19,26,115,41,21,34,052,46,23,60,129,45,31,25,187,38,7*72
$GAGSV,3,3,10,34,09,335,37,36,13,286,,7*76
$GBGSV,2,1,08,05,16,124,41,07,22,063,42,09,05,071,32,10,26,076,40,1*72
$GBGSV,2,2,08,12,02,009,,19,25,313,38,20,69,272,35,23,43,059,48,1*79
$GNRMC,060031.00,A,4843.26113,N,00920.55541,E,0.018,,080225,,,A,V*13
$GNGGA,060031.00,4843.26113,N,00920.55541,E,1,12,0.53,250.9,M,47.6,M,,*4F
$GPGSV,4,1,13,05,43,218,43,07,09,071,34,08,06,026,,13,83,326,34,1*61
$GPGSV,4,2,13,14,60,102,40,15,46,300,36,17,06,124,,18,08,295,38,1*67
$GPGSV,4,3,13,20,16,192,,22,56,143,45,23,13,325,,24,12,259,,1*66
$GPGSV,4,4,13,30,42,069,44,1*5C
$GLGSV,2,1,08,70,28,143,35,71,79,142,40,72,46,320,40,73,82,059,42,1*73
$GLGSV,2,2,08,74,47,215,27,80,25,039,47,81,08,017,41,88,06,327,30,1*74
$GAGSV,3,1,10,04,86,090,37,06,65,300,39,09,39,299,38,11,03,241,,7*75
$GAGSV,3,2,10,19,26,115,41,21,34,052,46,23,60,129,45,31,25,187,38,7*72
$GAGSV,3,3,10,34,09,335,37,36,13,286,,7*76
$GBGSV,2,1,08,05,16,124,41,07,22,063,42,09,05,071,32,10,26,076,40,1*72
$GBGSV,2,2,08,12,02,009,,19,25,313,39,20,69,272,35,23,43,059,48,1*78
$GNRMC,060032.00,A,4843.26110,N,00920.55539,E,0.006,,080225,,,A,V*13
$GNGGA,060032.00,4843.26110,N,00920.55539,E,1,12,0.53,250.8,M,47.6,M,,*41
$GPGSV,4,1,13,05,43,218,43,07,09,071,35,08,06,026,,13,83,326,34,1*60
$GPGSV,4,2,13,14,60,102,40,15,46,299,36,17,06,124,,18,08,295,38,1*66
$GPGSV,4,3,13,20,16,192,,22,56,143,45,23,13,325,,24,12,259,,1*66
$GPGSV,4,4,13,30,42,069,44,1*5C
$GLGSV,2,1,08,70,28,143,35,71,79,142,40,72,46,320,40,73,82,059,42,1*73
$GLGSV,2,2,08,74,47,215,6,80,25,039,47,81,08,017,40,88,06,327,31,1*75
$GAGSV,3,1,10,04,86,090,37,06,65,300,39,09,40,299,38,11,03,241,,7*7B
$GAGSV,3,2,10,19,26,115,41,21,34,052,46,23,60,129,45,31,25,187,38,7*72
$GAGSV,3,3,10,34,09,335,37,36,13,286,,7*76
$GBGSV,2,1,08,05,16,124,41,07,22,063,42,09,05,071,31,10,26,076,40,1*71
$GBGSV,2,2,08,12,02,009,,19,25,313,39,20,69,272,35,23,43,059,48,1*78
$GNRMC,060033.00,A,4843.26107,N,00920.55538,E,0.006,,080225,,,A,V*15
$GNGGA,060033.00,4843.26107,N,00920.55538,E,1,12,0.53,250.7,M,47.6,M,,*48
$GPGSV,4,1,13,05,43,218,43,07,09,071,36,08,06,026,,13,83,326,35,1*62
$GPGSV,4,2,13,14,60,102,41,15,46,299,36,17,06,124,,18,08,295,38,1*67
$GPGSV,4,3,13,20,16,192,,22,56,143,45,23,13,325,,24,12,259,,1*66
$GPGSV,4,4,13,30,42,069,44,1*5C
$GLGSV,2,1,08,70,28,143,35,71,79,142,40,72,46,320,40,73,82,059,42,1*73
$GLGSV,2,2,08,74,47,215,26,80,25,039,47,81,08,017,39,88,06,327,32,1*78
$GAGSV,3,1,10,04,86,090,37,06,65,300,39,09,40,299,37,11,03,241,,7*74
$GAGSV,3,2,10,19,26,115,41,21,34,052,46,23,60,129,45,31,25,187,37,7*7D
$GAGSV,3,3,10,34,09,335,37,36,13,286,,7*76
$GBGSV,2,1,08,05,16,124,41,07,22,063,42,09,05,071,31,10,26,076,40,1*71
$GBGSV,2,2,08,12,02,009,,19,25,313,38,20,69,272,35,23,43,059,48,1*79
$GNRMC,060034.00,A,4843.26103,N,00920.55537,E,0.004,,080225,,,A,V*1B
$GNGGA,060034.00,4843.26103,N,00920.55537,E,1,12,0.53,250.7,M,47.6,M,,*44
$GPGSV,4,1,13,05,43,218,43,07,09,071,37,08,06,026,,13,83,326,35,1*63
$GPGSV,4,2,13,14,60,102,41,15,46,299,37,17,06,124,,18,08,295,37,1*69
$GPGSV,4,3,13,20,16,192,,22,56,143,45,23,13,325,,24,12,259,,1*66
$GPGSV,4,4,13,30,42,069,44,1*5C
$GLGSV,2,1,08,70,28,143,35,71,79,142,40,72,46,320,40,73,82,059,42,1*73
$GLGSV,2,2,08,74,47,215,27,80,25,039,47,81,08,017,39,88,06,327,32,1*79
$GAGSV,3,1,1,04,86,090,37,06,65,300,39,09,40,299,37,11,02,241,,7*75
$GAGSV,3,2,10,19,26,115,41,21,34,052,46,23,60,129,45,31,25,187,38,7*72
$GAGSV,3,3,10,34,09,335,37,36,13,286,,7*76
$GBGSV,2,1,08,05,16,124,41,07,22,063,42,09,05,071,31,10,26,076,40,1*71
$GBGSV,2,2,08,12,02,009,,19,25,313,38,20,69,272,35,23,43,059,48,1*79
$GNRMC,060035.00,A,4843.26100,N,00920.55535,E,0.031,,080225,,,A,V*1D
$GNGGA,060035.00,4843.26100,N,00920.55535,E,1,12,0.53,250.7,M,47.6,M,,*44
$GPGSV,4,1,13,05,43,218,43,07,09,071,37,08,06,026,,13,83,326,35,1*63
$GPGSV,4,2,13,14,60,102,41,15,46,299,37,17,06,124,,18,08,295,38,1*66
$GPGSV,4,3,13,20,16,192,,22,56,143,45,23,13,325,,24,12,259,,1*66
$GPGSV,4,4,13,30,42,069,45,1*5D
$GLGSV,2,1,08,70,28,143,35,71,79,142,41,72,46,320,39,73,82,059,41,1*7F
$GLGSV,2,2,08,74,47,215,28,80,25,039,47,81,08,017,39,88,06,327,33,1*77
$GAGSV,3,1,10,04,86,090,38,06,65,300,39,09,40,299,37,11,02,241,,7*7A
$GAGSV,3,2,10,19,26,115,40,21,34,052,46,23,60,129,45,31,25,187,37,7*7C
$GAGSV,3,3,10,34,09,335,37,36,13,286,,7*76
$GBGSV,2,1,08,05,16,124,41,07,22,063,42,09,05,071,31,10,26,076,40,1*71
$GBGSV,2,2,08,12,02,009,,19,25,313,38,20,69,272,36,23,43,059,48,1*7A
$GNRMC,060036.00,A,4843.26096,N,00920.55533,E,0.033,,080225,,,A,V*14
$GNGGA,060036.00,4843.26096,N,00920.55533,E,1,12,0.53,250.6,M,47.6,M,,*4E
$GPGSV,4,1,13,05,43,218,43,07,09,071,38,08,06,026,,13,83,326,35,1*6C
$GPGSV,4,2,13,14,60,102,41,15,46,299,37,17,06,124,,18,08,295,38,1*66
$GPGSV,4,3,13,20,16,192,,22,56,143,45,23,13,325,,24,12,259,,1*66
$GPGSV,4,4,13,30,42,069,45,1*5D
$GLGSV,2,1,08,70,28,143,35,71,79,142,41,72,46,320,39,73,82,059,41,1*7F
$GLGSV,2,2,08,74,47,215,29,80,25,039,47,81,08,017,38,88,06,327,32,1*76
$GAGSV,3,1,10,04,86,090,38,06,65,300,39,09,40,299,37,11,02,241,,7*7A
$GAGSV,3,2,10,19,26,115,40,21,34,052,46,23,60,129,44,31,25,187,37,7*7D
$GAGSV,3,3,10,34,09,335,37,36,13,286,,7*76
$GBGSV,2,1,08,05,16,124,41,07,22,063,42,09,05,071,30,10,26,076,40,1*70
$GBGSV,2,2,08,12,02,009,,19,25,313,38,20,69,272,36,23,43,059,47,1*75
$GNRMC,060037.00,A,4843.26092,N,00920.55532,E,0.004,,080225,,,A,V*14
$GNGGA,060037.00,4843.26092,N,00920.55532,E,1,12,0.53,250.6,M,47.6,M,,*4A
$GPGSV,4,1,13,05,43,218,43,07,09,071,39,08,06,026,,13,83,326,36,1*6E
$GPGSV,4,2,13,14,60,102,42,15,46,299,37,17,06,124,,18,08,295,37,1*6A
$GPGSV,4,3,13,20,16,192,,22,56,143,45,23,13,325,,24,12,259,,1*66
$GPGSV,4,4,13,30,42,069,45,1*5D
$GLGSV,2,1,08,70,28,143,35,71,79,142,40,72,46,320,38,73,82,059,42,1*7C
$GLGSV,2,2,08,74,47,215,30,80,25,039,47,81,08,017,39,88,06,327,33,1*7E
$GAGSV,3,1,10,04,86,090,38,06,65,300,39,09,40,299,38,11,02,241,,7*75
$GAGSV,3,2,10,19,26,115,40,21,34,052,46,23,60,129,44,31,25,187,37,7*7D
$GAGSV,3,3,10,34,09,335,37,36,13,286,,7*76
$GBGSV,2,1,08,05,16,124,41,07,22,063,42,09,05,071,30,10,26,076,40,1*70
$GBGSV,2,2,08,12,02,009,,19,25,313,38,20,69,272,36,23,43,059,47,1*75
$GNRMC,060038.00,A,4843.26088,N,00920.55531,E,0.005,,080225,,,A,V*12
$GNGGA,060038.00,4843.26088,N,00920.55531,E,1,12,0.53,250.6,M,47.6,M,,*4D
$GPGSV,4,1,13,05,43,218,43,07,09,071,39,08,06,026,,13,83,326,36,1*6E
$GPGSV,4,2,13,14,60,102,42,15,46,299,37,17,06,124,,18,08,295,37,1*6A
$GPGSV,4,3,13,20,16,192,,22,56,143,45,23,13,325,,24,12,259,,1*66
$GPGSV,4,4,13,30,42,069,45,1*5D
$GLGSV,2,1,08,70,28,143,35,71,79,142,40,72,46,320,39,73,82,059,42,1*7D
$GLGSV,2,2,08,74,47,215,31,80,25,039,47,81,08,017,39,88,06,327,33,1*7F
$GAGSV,3,1,10,04,86,090,38,06,65,300,39,09,40,299,38,11,02,241,,7*75
$GAGSV,3,2,10,19,26,115,40,21,34,052,46,23,60,129,44,31,25,187,38,7*72
$GAGSV,3,3,10,34,09,335,37,36,3,286,,7*76
$GBGSV,2,1,08,05,16,124,41,07,22,063,42,09,05,071,30,10,26,076,40,1*70
$GBGSV,2,2,08,12,02,009,,19,25,313,38,20,69,272,37,23,43,059,47,1*74
$GNRMC,060039.00,A,4843.26083,N,00920.55531,E,0.013,,080225,,,A,V*1F
$GNGGA,060039.00,4843.26083,N,00920.55531,E,1,12,0.53,250.6,M,47.6,M,,*47
$GPGSV,4,1,13,05,43,218,43,07,09,071,39,08,06,026,,13,83,326,36,1*6E
$GPGSV,4,2,13,14,60,102,42,15,46,299,37,17,06,124,,18,08,295,37,1*6A
$GPGSV,4,3,13,20,16,192,,22,56,143,45,23,13,325,,24,12,259,,1*66
$GPGSV,4,4,13,30,42,069,45,1*5D
$GLGSV,2,1,08,70,28,143,35,71,79,142,40,72,46,320,39,73,82,059,42,1*7D
$GLGSV,2,2,08,74,47,215,32,80,25,039,47,81,08,017,39,88,06,327,32,1*7D
$GAGSV,3,1,10,04,86,090,37,06,65,300,39,09,40,299,38,11,02,241,,7*7A
$GAGSV,3,2,10,19,26,115,39,21,34,052,46,23,60,129,44,31,25,187,38,7*7C
$GAGSV,3,3,10,34,09,335,37,36,13,286,,7*76
$GBGSV,2,1,08,05,16,124,41,07,22,063,42,09,05,071,30,10,26,076,40,1*70
$GBGSV,2,2,08,12,02,009,,19,25,313,38,20,69,272,37,23,43,059,47,1*74
$GNRMC,060040.00,A,4843.26079,N,00920.55530,E,0.008,,080225,,,A,V*1F
$GNGGA,060040.00,4843.26079,N,00920.55530,E,1,12,0.53,250.5,M,47.6,M,,*4E
$GPGSV,4,1,13,05,43,218,43,07,09,071,40,08,06,026,,13,83,326,35,1*63
$GPGSV,4,2,13,14,60,102,42,15,46,299,37,17,06,124,,18,08,295,38,1*65
$GPGSV,4,3,13,20,16,192,,22,56,143,45,23,13,325,,24,12,259,,1*66
$GPGSV,4,4,13,30,42,069,45,1*5D
$GLGSV,2,1,08,70,28,143,35,71,79,142,40,72,46,320,38,73,82,059,42,1*7C
$GLGSV,2,2,08,74,47,215,32,80,25,039,46,81,08,017,38,88,06,327,31,1*7E
$GAGSV,3,1,10,04,86,090,37,06,65,300,39,09,40,299,38,11,02,241,,7*7A
$GAGSV,3,2,10,19,26,115,39,21,34,052,46,23,60,129,44,31,25,187,38,7*7C
$GAGSV,3,3,10,34,09,335,37,36,13,286,,7*76
$GBGSV,2,1,08,05,16,124,41,07,22,063,42,09,05,071,30,10,26,076,40,1*70
$GBGSV,2,2,08,12,02,009,,19,25,313,38,20,69,272,37,23,43,059,47,1*74
$GNRMC,060041.00,A,4843.26075,N,00920.55529,E,0.002,,080225,,,A,V*10
$GNGGA,060041.00,4843.26075,N,00920.55529,E,1,12,0.53,250.5,M,47.6,M,,*4B
$GPGSV,4,1,13,05,43,218,43,07,09,071,40,08,06,026,,13,83,326,35,1*63
$GPGSV,4,2,13,14,60,102,42,15,46,299,37,17,06,124,,18,08,295,38,1*65
$GPGSV,4,3,13,20,16,192,,22,56,143,45,23,13,325,,24,12,259,,1*66
$GPGSV,4,4,13,30,42,069,45,1*5D
$GLGSV,2,1,08,70,28,143,35,71,79,142,40,72,46,320,39,73,82,059,42,1*7D
$GLGSV,2,2,08,74,47,215,33,80,25,039,46,81,08,017,38,88,06,327,30,1*7E
$GAGSV,3,1,10,04,86,090,37,06,65,300,38,09,40,299,38,11,02,241,,7*7B
$GAGSV,3,2,10,19,26,115,39,21,34,052,46,23,60,128,44,31,25,187,38,7*7D
$GAGSV,3,3,10,34,09,335,37,36,13,286,,7*76
$GBGSV,2,1,08,05,16,124,41,07,22,063,42,09,05,071,30,10,26,076,40,1*70
$GBGSV,2,2,08,12,02,009,,19,25,313,38,20,69,272,38,23,43,059,47,1*7B
$GNRMC,060042.00,A,4843.26072,N,00920.55529,E,0.015,,080225,,,A,V*12
$GNGGA,060042.00,4843.26072,N,00920.55529,E,1,12,0.53,250.4,M,47.6,M,,*4E
$GPGSV,4,1,13,05,43,218,43,07,09,071,40,08,06,026,,13,83,326,35,1*63
$GPGSV,4,2,13,14,60,102,42,15,46,299,37,17,06,124,,18,08,295,37,1*6A
$GPGSV,4,3,13,20,16,192,,22,56,143,45,23,13,325,,24,12,259,,1*66
$GLGSV,2,1,08,70,28,143,35,71,79,142,39,72,46,320,39,73,82,059,42,1*73
$GLGSV,2,2,08,74,47,215,33,80,25,039,46,81,08,017,39,88,06,327,28,1*76
$GAGSV,3,1,10,04,86,090,37,06,65,300,38,09,40,299,38,11,02,241,,7*7B
$GAGSV,3,2,10,19,26,115,39,21,34,052,46,23,60,128,44,31,25,187,38,7*7D
$GAGSV,3,3,10,34,09,335,37,36,13,286,,7*76
$GBGSV,2,1,08,05,16,124,41,07,22,063,42,09,05,071,29,10,26,076,40,1*78
$GBGSV,2,2,08,12,02,009,,19,25,313,38,20,69,272,38,23,43,059,47,1*7B
$GNRMC,060043.00,A,4843.26070,N,00920.55528,E,0.028,,080225,,,A,V*1E
$GNGGA,060043.00,4843.26070,N,00920.55528,E,1,12,0.54,250.4,M,47.6,M,,*4B
$GPGSV,4,1,13,05,43,218,43,07,09,071,41,08,06,026,,13,83,326,35,1*62
$GPGSV,4,2,13,14,60,102,42,15,46,299,37,17,06,124,,18,08,295,37,1*6A
$GPGSV,4,3,13,20,16,192,,22,56,143,45,23,13,325,,24,12,259,,1*66
$GPGSV,4,4,13,30,42,069,46,1*5E
$GLGSV,2,1,08,70,28,143,34,71,79,142,39,72,46,320,38,73,82,059,41,1*70
$GLGSV,2,2,08,74,47,215,33,80,25,039,46,81,08,017,38,88,06,327,26,1*79
$GAGSV,3,1,10,04,86,090,37,06,65,300,38,09,40,299,38,11,02,241,,7*7B
$GAGSV,3,2,10,19,26,115,39,21,34,052,46,23,60,128,44,31,25,187,38,7*7D
$GAGSV,3,3,10,34,09,335,37,36,13,286,,7*76
$GBGSV,2,1,08,05,16,124,41,07,22,063,42,09,05,071,29,10,26,076,40,1*78
$GBGSV,2,2,08,12,02,009,,19,25,313,38,20,69,272,38,23,43,059,47,1*7B
$GNRMC,060044.00,A,4843.26067,N,00920.55529,E,0.010,,080225,,,A,V*15
$GNGGA,060044.00,4843.26067,N,00920.55529,E,1,12,0.54,250.4,M,47.6,M,,*4B
$GPGSV,4,1,13,05,43,218,43,07,09,071,41,08,06,026,,13,83,326,35,1*62
$GPGSV,4,2,13,14,60,102,42,15,46,299,37,17,06,124,,18,08,295,34,1*69
$GPGSV,4,3,13,20,16,192,,22,56,143,45,23,13,325,,24,12,259,,1*66
$GPGSV,4,4,13,30,42,069,46,1*5E
$GLGSV,2,1,08,70,28,143,35,71,79,142,39,72,46,320,38,73,82,059,41,1*71
$GLGSV,2,2,08,74,47,215,32,80,25,039,46,81,08,017,37,88,06,327,25,1*74
$GAGSV,3,1,10,04,86,090,38,06,65,300,38,09,40,299,38,11,02,241,,7*74
$GAGSV,3,2,10,19,26,115,38,21,34,052,46,23,60,128,44,31,25,187,38,7*7C
$GAGSV,3,3,10,34,09,335,33,36,13,286,,7*72
$GBGSV,2,1,08,05,16,124,41,07,22,063,42,09,05,071,29,10,26,076,40,1*78
$GBGSV,2,2,08,12,02,009,,19,25,313,38,20,69,272,38,23,43,059,47,1*7B
$GNRMC,060045.00,A,4843.26066,N,00920.55527,E,0.017,,080225,,,A,V*1C
$GNGGA,060045.00,4843.26066,N,00920.55527,E,1,12,0.54,250.4,M,47.6,M,,*45
$GPGSV,4,1,13,05,43,218,43,07,09,071,42,08,06,026,,13,83,326,34,1*60
$GPGSV,4,2,13,14,60,102,41,15,46,299,37,17,06,124,,18,08,295,37,1*69
$GPGSV,4,3,13,20,16,192,,22,56,143,46,23,13,325,,24,12,259,,1*65
$GLGSV,2,1,08,70,28,143,34,71,79,142,39,72,46,320,38,73,82,059,42,1*73
$GLGSV,2,2,08,74,47,215,32,80,25,039,46,81,08,017,37,88,06,327,22,1*73
$GAGSV,3,1,10,04,86,090,38,06,65,300,38,09,40,299,38,11,02,241,,7*74
$GAGSV,3,2,10,19,26,115,38,21,34,052,46,23,60,128,44,31,25,187,38,7*7C
$GAGSV,3,3,10,34,09,335,36,36,13,286,,7*77
$GBGSV,2,1,08,05,16,124,41,07,22,063,42,09,05,071,29,10,26,076,40,1*78
$GBGSV,2,2,08,12,02,009,,19,25,313,39,20,69,272,38,23,43,059,46,1*7B
$GNRMC,060046.00,A,4843.26065,N,00920.55525,E,0.015,,080225,,,A,V*1C
$GNGGA,060046.00,4843.26065,N,00920.55525,E,1,12,0.54,250.3,M,47.6,M,,*40
$GPGSV,4,1,13,05,43,218,44,07,09,071,42,08,06,026,,13,83,326,35,1*66
$GPGSV,4,3,13,20,16,192,,22,56,143,46,23,13,325,,24,12,259,,1*65
$GPGSV,4,4,13,30,42,069,46,1*5E
$GLGSV,2,1,08,70,28,143,34,71,79,142,39,72,46,320,38,73,82,059,42,1*73
$GLGSV,2,2,08,74,47,215,32,80,25,039,46,81,08,017,38,88,06,327,18,1*75
$GAGSV,3,1,10,04,86,090,38,06,65,300,38,09,40,299,38,11,02,241,,7*74
$GAGSV,3,2,10,19,26,115,38,21,34,052,46,23,60,128,44,31,25,187,39,7*7D
$GAGSV,3,3,10,34,09,335,36,36,13,286,,7*77
$GBGSV,2,1,08,05,16,124,41,07,22,063,42,09,05,071,29,10,26,076,41,1*79
$GBGSV,2,2,08,12,02,009,,19,25,313,38,20,69,272,38,23,43,059,46,1*7A
$GNRMC,060047.00,A,4843.26064,N,00920.55524,E,0.005,,080225,,,A,V*1C
$GNGGA,060047.00,4843.26064,N,00920.55524,E,1,12,0.54,250.2,M,47.6,M,,*40
$GPGSV,4,1,13,05,43,218,44,07,09,071,42,08,06,026,,13,83,326,35,1*66
$GPGSV,4,2,13,14,60,102,41,15,46,299,37,17,06,124,,18,08,295,38,1*66
$GPGSV,4,3,13,20,16,192,,22,56,143,46,23,13,325,,24,12,259,,1*65
$GPGSV,4,4,13,30,42,069,47,1*5F
$GLGSV,2,1,08,70,28,143,35,71,79,142,38,72,46,320,38,73,82,059,42,1*73
$GLGSV,2,2,08,74,47,215,32,80,25,039,46,81,08,017,35,88,06,327,12,1*72
$GAGSV,3,1,10,04,86,090,38,06,65,300,38,09,40,299,38,11,02,241,,7*74
$GAGSV,3,2,10,19,26,115,38,21,34,052,46,23,60,128,44,31,25,187,39,7*7D
$GAGSV,3,3,10,34,09,335,37,36,13,286,,7*76
$GBGSV,2,1,08,05,16,124,41,07,22,063,42,09,05,071,29,10,26,076,41,1*79
$GBGSV,2,2,08,12,02,009,,19,25,313,38,20,69,272,38,23,43,059,46,1*7A
$GNRMC,060048.00,A,4843.26063,N,00920.55526,E,0.057,,080225,,,A,V*11
$GNGGA,060048.00,4843.26063,N,00920.55526,E,1,12,0.54,250.3,M,47.6,M,,*4B
$GPGSV,4,1,13,05,43,218,44,07,09,071,42,08,06,026,,13,83,326,35,1*66
$GPGSV,4,2,13,14,60,102,41,15,46,299,25,17,06,124,,18,08,295,28,1*64
$GPGSV,4,3,13,20,16,192,,22,56,143,47,23,13,325,,24,12,259,,1*64
$GPGSV,4,4,13,30,42,069,47,1*5F
$GLGSV,2,1,08,70,28,143,31,71,79,142,37,72,46,320,34,73,82,059,42,1*74
$GLGSV,2,2,08,74,47,215,33,80,25,039,47,81,08,017,38,88,06,327,26,1*78
$GAGSV,3,1,10,04,86,090,37,06,65,300,37,09,40,299,30,11,02,241,,7*7C
$GAGSV,3,2,10,19,26,115,41,21,34,052,46,23,60,128,44,31,26,187,39,7*70
$GAGSV,3,3,10,34,09,335,27,36,13,286,,7*77
$GBGSV,2,1,08,05,16,124,43,07,22,063,40,09,05,071,29,10,26,076,40,1*78
$GBGSV,2,2,08,12,02,009,,19,25,313,28,20,69,272,37,23,43,059,46,1*74
$GNRMC,060049.00,A,4843.26065,N,00920.55525,E,0.014,,080225,,,A,V*12
$GNGGA,060049.00,4843.26065,N,00920.55525,E,1,12,0.55,250.3,M,47.6,M,,*4E
$GPGSV,4,1,13,05,43,218,44,07,09,071,42,08,06,026,,13,83,326,36,1*65
$GPGSV,4,2,13,14,60,102,41,15,46,299,36,17,06,124,,18,08,295,38,1*67
$GPGSV,4,3,13,20,16,192,,22,56,143,47,23,13,325,,24,12,259,,1*64
$GPGSV,4,4,13,30,42,069,46,1*5E
$GLGSV,2,1,08,70,28,143,34,71,79,142,38,72,46,320,38,73,82,059,42,1*72
$GLGSV,2,2,08,74,47,215,32,80,25,039,45,81,08,017,38,88,06,327,25,1*78
$GAGSV,3,1,10,04,86,090,38,06,65,300,37,09,40,299,38,11,02,241,,7*7B
$GAGSV,3,2,10,19,26,115,38,21,34,052,46,23,60,128,44,31,26,187,38,7*7F
$GAGSV,3,3,10,34,09,335,,36,13,286,,7*72
$GBGSV,2,1,08,05,16,124,42,07,22,063,42,09,05,071,29,10,26,076,41,1*7A
$GBGSV,2,2,08,12,02,009,,19,25,313,38,20,69,272,38,23,43,059,46,1*7A
$GNRMC,060050.00,A,4843.26067,N,00920.55525,E,0.008,,080225,,,A,V*15
$GNGGA,060050.00,4843.26067,N,00920.55525,E,1,12,0.55,250.3,M,47.6,M,,*44
$GPGSV,4,1,13,05,43,218,43,07,09,071,42,08,06,026,,13,83,326,36,1*62
$GPGSV,4,2,13,14,60,102,40,15,46,299,36,17,06,124,,18,08,295,38,1*66
$GPGSV,4,3,13,20,16,192,,22,56,143,46,23,13,325,,24,12,259,,1*65
$GPGSV,4,4,13,30,42,069,47,1*5F
$GLGSV,2,1,08,70,28,143,34,71,79,142,39,72,46,320,39,73,82,059,42,1*72
$GLGSV,2,2,08,74,47,215,31,80,25,039,46,81,08,017,37,88,06,327,26,1*74
$GAGSV,3,1,10,04,86,090,38,06,65,300,38,09,40,299,38,11,02,241,,7*74
$GAGSV,3,2,10,19,26,115,37,21,34,052,46,23,60,128,44,31,26,187,38,7*70
$GAGSV,3,3,10,34,09,335,,36,13,286,,7*72
$GBGSV,2,1,08,05,16,124,41,07,22,063,42,09,05,071,29,10,26,076,41,1*79
$GBGSV,2,2,08,12,02,009,,19,25,313,38,20,69,272,37,23,43,059,45,1*76
$GNRMC,060051.00,A,4843.26068,N,00920.55524,E,0.002,,080225,,,A,V*10
$GNGGA,060051.00,4843.26068,N,00920.55524,E,1,12,0.54,250.3,M,47.6,M,,*4A
$GPGSV,4,1,13,05,43,218,43,07,09,071,43,08,06,026,,13,83,326,36,1*63
$GPGSV,4,2,13,14,60,102,40,15,46,299,37,17,06,124,,18,08,295,38,1*67
$GPGSV,4,3,13,20,16,192,,22,56,143,47,23,13,325,,24,12,259,,1*64
$GPGSV,4,4,13,30,42,069,47,1*5F
$GLGSV,2,1,08,70,28,143,34,71,79,142,39,72,46,320,39,73,82,059,42,1*72
$GLGSV,2,2,08,74,47,215,30,80,25,039,46,81,08,017,40,88,06,327,28,1*7B
$GAGSV,3,1,10,04,86,090,38,06,65,300,38,09,40,299,38,11,02,241,,7*74
$GAGSV,3,2,10,19,26,115,37,21,34,052,46,23,60,128,44,31,26,187,39,7*71
$GAGSV,3,3,10,34,09,335,37,36,13,286,,7*76
$GBGSV,2,1,08,05,16,124,41,07,22,063,42,09,05,071,29,10,26,076,41,1*79
$GBGSV,2,2,08,12,02,009,,19,25,313,38,20,69,272,37,23,43,059,45,1*76
$GNRMC,060052.00,A,4843.26070,N,00920.55525,E,0.018,,080225,,,A,V*10
$GNGGA,060052.00,4843.26070,N,00920.55525,E,1,12,0.54,250.3,M,47.6,M,,*41
$GPGSV,4,1,13,05,43,218,43,07,09,071,43,08,06,026,,13,83,326,36,1*63
$GPGSV,4,2,13,14,60,102,40,15,46,299,37,17,06,124,,18,08,295,38,1*67
$GPGSV,4,3,13,20,16,192,,22,56,143,47,23,13,325,,24,12,259,,1*64
$GPGSV,4,4,13,30,42,069,47,1*5F
$GLGSV,2,1,08,70,28,143,34,71,79,142,39,72,46,320,40,73,82,059,42,1*7C
$GLGSV,2,2,08,74,47,215,30,80,25,039,46,81,08,017,35,88,06,327,28,1*79
$GAGSV,3,1,10,04,86,090,38,06,65,300,38,09,40,299,38,11,02,241,,7*74
$GAGSV,3,2,10,19,26,115,37,21,34,052,47,23,60,128,44,31,26,187,38,7*71
$GAGSV,3,3,10,34,09,335,37,36,13,286,,7*76
$GBGSV,2,1,08,05,16,124,41,07,22,063,41,09,05,071,28,10,26,076,41,1*7B
$GBGSV,2,2,08,12,02,009,,19,25,313,38,20,69,272,37,23,43,059,45,1*76
$GNRMC,060053.00,A,4843.26073,N,00920.55525,E,0.016,,080225,,,A,V*1C
$GNGGA,060053.00,4843.26073,N,00920.55525,E,1,12,0.54,250.2,M,47.6,M,,*42
$GPGSV,4,1,13,05,43,218,44,07,09,071,43,08,06,026,,13,83,326,36,1*64
$GPGSV,4,2,13,14,60,102,40,15,46,299,37,17,06,124,,18,08,295,39,1*66
$GPGSV,4,3,13,20,16,192,,22,56,143,47,23,13,325,,24,12,259,,1*64
$GPGSV,4,4,13,30,42,069,47,1*5F
$GLGSV,2,1,08,70,28,143,34,71,79,142,38,72,46,320,40,73,82,059,42,1*7D
$GLGSV,2,2,08,74,47,215,30,80,25,039,46,81,08,017,41,88,06,327,28,1*7A
$GAGSV,3,1,10,04,86,090,38,06,65,300,38,09,40,299,38,11,02,241,,7*74
$GAGSV,3,2,10,19,26,115,37,21,34,052,47,23,60,128,44,31,26,187,38,7*71
$GAGSV,3,3,10,34,09,335,37,36,13,286,,7*76
$GBGSV,2,1,08,05,16,124,41,07,22,063,42,09,05,071,28,10,26,076,41,1*78
$GBGSV,2,2,08,12,02,009,,19,25,313,38,20,69,272,37,23,43,059,45,1*76
$GNRMC,060054.00,A,4843.26076,N,00920.55525,E,0.020,,080225,,,A,V*1B
$GNGGA,060054.00,4843.26076,N,00920.55525,E,1,12,0.54,250.2,M,47.6,M,,*40
$GPGSV,4,1,13,05,43,218,44,07,09,071,43,08,06,026,,13,83,326,36,1*64
$GPGSV,4,2,13,14,60,102,40,15,46,299,37,17,06,124,,18,08,295,38,1*67
$GPGSV,4,3,13,20,16,192,,22,56,143,47,23,13,325,,24,12,259,,1*64
$GPGSV,4,4,13,30,42,069,47,1*5F
$GLGSV,2,1,08,70,28,143,34,71,79,142,37,72,46,320,40,73,82,059,42,1*72
$GLGSV,2,2,08,74,47,215,30,80,25,039,46,81,08,017,41,88,06,327,27,1*75
$GAGSV,3,1,10,04,86,090,38,06,65,300,38,09,40,299,38,11,02,241,,7*74
$GAGSV,3,2,10,19,26,115,36,21,34,052,46,23,60,128,44,31,26,187,38,7*71
$GAGSV,3,3,10,34,09,335,37,36,13,286,,7*76
$GBGSV,2,1,08,05,16,124,41,07,22,063,41,09,05,071,28,10,26,076,41,1*7B
$GBGSV,2,2,08,12,02,009,,19,25,313,39,20,69,272,36,23,43,059,45,1*76
$GNGGA,060055.00,4843.26079N,00920.55526,E,1,12,0.54,250.2,M,47.6,M,,*4D
$GPGSV,4,1,13,05,43,218,44,07,09,071,44,08,06,026,,13,83,326,36,1*63
$GPGSV,4,2,13,14,60,102,40,15,46,299,36,17,06,124,,18,08,295,39,1*67
$GPGSV,4,3,13,20,16,192,,22,56,143,47,23,13,325,,24,12,259,,1*64
$GPGSV,4,4,13,30,42,069,48,1*50
$GLGSV,2,1,08,70,28,143,34,71,79,142,35,72,46,320,40,73,82,059,42,1*70
$GLGSV,2,2,08,74,47,215,29,80,25,039,45,81,08,017,40,88,06,327,26,1*7E
$GAGSV,3,1,10,04,86,090,38,06,65,300,38,09,40,299,38,11,02,241,,7*74
$GAGSV,3,2,10,19,26,115,36,21,34,052,47,23,60,128,44,31,26,187,38,7*70
$GAGSV,3,3,10,34,09,335,37,36,13,286,,7*76
$GBGSV,2,1,08,05,16,124,41,07,22,063,41,09,05,071,28,10,26,076,41,1*7B
$GBGSV,2,2,08,12,02,009,,19,25,313,38,20,69,272,36,23,43,059,44,1*76
$GNRMC,060056.00,A,4843.26081,N,00920.55527,E,0.013,,080225,,,A,V*13
$GNGGA,060056.00,4843.2608,N,00920.55527,E,1,12,0.53,250.2,M,47.6,M,,*4F
$GPGSV,4,1,13,05,43,218,44,07,09,071,44,08,06,026,,13,83,326,36,1*63
$GPGSV,4,2,13,14,60,102,40,15,46,299,37,17,06,124,,18,08,295,39,1*66
$GPGSV,4,3,13,20,16,192,,22,56,143,47,23,13,325,,24,12,259,,1*64
$GPGSV,4,4,13,30,42,069,48,1*50
$GLGSV,2,1,08,70,28,143,34,71,79,142,35,72,46,320,40,73,82,059,42,1*70
$GLGSV,2,2,08,74,47,215,28,80,25,039,45,81,08,017,41,88,06,327,25,1*7D
$GAGSV,3,1,10,04,86,090,38,06,65,300,39,09,40,299,38,11,02,241,,7*75
$GAGSV,3,2,10,19,26,115,36,21,34,052,47,23,60,128,44,31,26,187,38,7*70
$GAGSV,3,3,10,34,09,335,37,36,13,286,,7*76
$GBGSV,2,1,08,05,16,124,41,07,22,063,41,09,05,071,28,10,26,076,41,1*7B
$GBGSV,2,2,08,12,02,009,,19,25,313,39,20,69,272,36,23,43,059,44,1*77
$GNRMC,060057.00,A,4843.26085,N,00920.55528,E,0.032,,080225,,,A,V*1A
$GNGGA,060057.00,4843.26085,N,00920.55528,E,1,12,0.53,250.2,M,47.6,M,,*45
$GPGSV,4,1,13,05,43,218,43,07,09,071,44,08,06,026,,13,83,326,36,1*64
$GPGSV,4,2,13,14,60,102,40,15,46,299,37,17,06,124,,18,08,295,39,1*66
$GPGSV,4,3,13,20,16,192,,22,56,143,47,23,13,325,,24,12,259,,1*64
$GPGSV,4,4,13,30,42,069,48,1*50
$GLGSV,2,1,08,70,28,143,34,71,79,142,34,72,46,320,39,73,82,059,42,1*7F
$GLGSV,2,2,08,74,47,215,28,80,25,039,45,81,08,017,41,88,06,327,25,1*7D
$GAGSV,3,1,10,04,86,090,38,06,65,300,39,09,40,299,38,11,02,241,,7*75
$GAGSV,3,2,10,19,26,115,36,21,34,052,47,23,60,128,43,31,26,187,38,7*77
$GAGSV,3,3,10,34,09,335,37,36,13,286,,7*76
$GBGSV,2,1,08,05,16,124,41,07,22,063,41,09,05,071,28,10,26,076,41,1*7B
$GBGSV,2,2,08,12,02,009,,19,25,313,39,20,69,272,36,23,43,059,44,1*77
$GNRMC,060058.00,A,4843.26088,N,00920.55531,E,0.010,,080225,,,A,V*10
$GNGGA,060058.00,4843.26088,N,00920.55531,E,1,12,0.53,250.3,M,47.6,M,,*4E
$GPGSV,4,1,13,05,43,218,43,07,09,071,44,08,06,026,,13,83,326,36,1*64
$GPGSV,4,2,13,14,60,102,40,15,46,299,37,17,06,124,,18,08,295,39,1*66
$GPGSV,4,3,13,20,16,192,,22,56,143,47,23,13,325,,24,12,259,,1*64
$GPGSV,4,4,13,30,42,069,48,1*50
$GLGSV,2,1,08,70,28,143,34,71,79,142,33,72,46,320,39,73,82,059,43,1*79
$GLGSV,2,2,08,74,47,215,29,80,25,039,45,81,08,017,41,88,06,327,26,1*7F
$GAGSV,3,1,10,04,86,090,38,06,65,300,39,09,40,299,38,11,02,241,,7*75
$GAGSV,3,2,10,19,26,115,36,21,34,052,47,23,60,128,44,31,26,187,38,7*70
$GAGSV,3,3,10,34,09,335,37,36,13,286,,7*76
$GBGSV,2,1,08,05,16,124,41,07,22,063,41,09,05,071,28,10,26,076,42,1*78
$GBGSV,2,2,08,12,02,009,,19,25,313,39,20,69,272,35,23,43,059,44,1*74
$GNRMC,060059.00,A,4843.26091,N,00920.55532,E,0.008,,080225,,,A,V*13
$GNGGA,060059.00,4843.26091,N,00920.55532,E,1,12,0.53,250.4,M,47.6,M,,*43
$GPGSV,4,1,13,05,43,218,44,07,09,071,44,08,06,026,,13,83,326,35,1*60
$GPGSV,4,2,13,14,60,102,41,15,46,299,36,17,06,124,,18,08,295,39,1*66
$GPGSV,4,3,13,20,16,192,,22,56,143,47,23,13,325,,24,12,259,,1*64
$GPGSV,4,4,13,30,42,069,48,1*50
$GLGSV,2,1,08,70,28,143,35,71,79,142,32,72,46,320,38,73,82,059,43,1*78
$GLGSV,2,2,08,74,47,215,30,80,25,039,44,81,08,017,40,88,06,327,28,1*79
$GAGSV,3,1,1,04,86,090,38,06,65,300,39,09,40,299,38,11,02,241,,7*75
$GAGSV,3,2,10,19,26,115,36,21,34,052,47,23,60,128,43,31,26,187,38,7*77
$GAGSV,3,3,10,34,09,335,37,36,13,286,,7*76
$GBGSV,2,1,08,05,16,124,41,07,22,063,41,09,05,071,28,10,26,076,42,1*78
$GBGSV,2,2,08,12,02,009,,19,25,313,39,20,69,272,35,23,43,059,44,1*74
$GNRMC,060100.00,A,4843.26094,N,00920.55534,E,0.015,,080225,,,A,V*11
$GNGGA,060100.00,4843.26094,N,00920.55534,E,1,12,0.53,250.5,M,47.6,M,,*4C
$GPGSV,4,1,13,05,43,218,44,07,09,071,44,08,06,026,,13,83,326,35,1*60
$GPGSV,4,2,13,14,60,102,41,15,46,299,36,17,06,124,,18,08,295,38,1*67
$GPGSV,4,3,13,20,16,192,,22,56,143,47,23,13,325,,24,12,259,,1*64
$GPGSV,4,4,13,30,42,069,47,1*5F
$GLGSV,2,1,08,70,28,143,35,71,79,142,32,72,46,320,38,73,82,059,43,1*78
$GLGSV,2,2,08,74,47,215,30,80,25,039,44,81,08,017,39,88,06,327,29,1*76
$GAGSV,3,1,10,04,86,090,38,06,65,300,38,09,40,29,38,11,02,241,,7*74
$GAGSV,3,2,10,19,26,115,36,21,34,052,47,23,60,128,43,31,26,187,38,7*77
$GAGSV,3,3,10,34,09,335,37,36,13,286,,7*76
$GBGSV,2,1,08,05,16,124,41,07,22,063,41,09,05,071,28,10,26,076,42,1*78
$GBGSV,2,2,08,12,02,009,,19,25,313,39,20,69,272,35,23,43,059,44,1*74
$GNRMC,060101.00,A,4843.26096,N,00920.55536,E,0.011,,080225,,,A,V*14
$GNGGA,060101.00,4843.26096,N,00920.55536,E,1,12,0.53,250.6,M,47.6,M,,*4E
$GPGSV,4,1,13,05,43,218,44,07,09,071,44,08,06,026,,13,83,326,35,1*60
$GPGSV,4,2,13,14,60,102,41,15,46,299,36,17,06,124,,18,08,295,38,1*67
$GPGSV,4,3,13,20,16,192,,22,56,143,47,23,13,325,,24,12,259,,1*64
$GPGSV,4,4,13,30,42,069,47,1*5F
$GLGSV,2,1,08,70,28,143,35,71,79,142,33,72,46,320,38,73,82,059,43,1*79
$GLGSV,2,2,08,74,47,215,30,80,25,039,45,81,08,017,38,88,06,327,30,1*7E
$GAGSV,3,1,10,04,86,090,38,06,65,300,38,09,40,299,38,11,02,241,,7*74
$GAGSV,3,2,10,19,26,115,36,21,34,052,47,23,60,128,43,31,26,187,38,7*77
$GAGSV,3,3,10,34,09,335,37,36,13,286,,7*76
$GBGSV,3,1,09,05,16,124,41,07,22,063,41,09,05,071,28,10,26,076,42,1*78
$GBGSV,3,2,09,11,00,056,,12,02,009,,19,25,313,39,20,69,272,35,1*7D
$GBGSV,3,3,09,23,43,059,44,1*45
$GNRMC,060102.00,A,4843.26099,N,00920.55537,E,0.028,,080225,,,A,V*13
$GNGGA,060102.00,4843.26099,N,00920.55537,E,1,12,0.53,250.7,M,47.6,M,,*42
$GPGSV,4,1,13,05,43,218,44,07,09,071,44,08,06,026,,13,83,326,35,1*60
$GPGSV,4,2,13,14,60,102,41,15,46,299,36,17,06,124,,18,08,295,39,1*66
$GPGSV,4,3,13,20,16,192,,22,56,143,47,23,13,325,,24,12,259,,1*64
$GPGSV,4,4,13,30,42,069,47,1*5F
$GLGSV,2,1,08,70,28,143,35,71,79,142,34,72,46,320,38,73,82,059,43,1*7E
$GLGSV,2,2,08,74,47,215,30,80,25,039,45,81,08,017,38,88,06,327,31,1*7F
$GAGSV,3,1,10,04,86,090,38,06,65,300,38,09,40,299,38,11,02,241,,7*74
$GAGSV,3,2,10,19,26,115,35,21,34,052,47,23,60,128,43,31,26,187,38,7*74
$GAGSV,3,3,10,34,09,335,37,36,13,286,,7*76
$GBGSV,3,1,09,05,16,124,41,07,22,063,41,09,05,071,28,10,26,076,42,1*78
$GBGSV,3,2,09,11,00,056,,12,02,008,,19,25,313,39,20,69,272,35,1*7C
$GBGSV,3,3,09,23,43,059,43,1*42
$GNRMC,060103.00,A,4843.26102,N,00920.55536,E,0.024,,080225,,,A,V*1C
$GNGGA,060103.00,4843.26102,N,00920.55536,E,1,12,0.53,250.8,M,47.6,M,,*4E
$GPGSV,4,1,13,05,43,218,44,07,09,071,44,08,06,026,,13,83,326,34,1*61
$GPGSV,4,2,13,14,60,102,41,15,46,299,36,17,06,124,,18,08,295,39,1*66
$GPGSV,4,3,13,20,16,192,,22,56,143,48,23,13,325,,24,12,259,,1*6B
$GPGSV,4,4,13,30,42,069,46,1*5E
$GLGSV,2,1,08,70,28,143,35,71,79,142,35,72,46,320,38,73,82,059,43,1*7F
$GLGSV,2,2,08,74,47,215,30,80,25,039,45,81,08,017,38,88,06,327,33,1*7D
$GAGSV,3,1,10,04,86,090,38,06,65,300,38,09,40,299,38,11,02,241,,7*74
$GAGSV,3,2,10,19,26,115,36,21,34,052,47,23,60,128,43,31,26,187,38,7*77
$GAGSV,3,3,10,34,09,335,37,36,13,286,,7*76
$GBGSV,3,1,09,05,16,124,41,07,22,063,41,09,05,071,28,10,26,076,42,1*78
$GBGSV,3,2,09,11,00,056,,12,02,008,,19,25,313,39,20,69,272,35,1*7C
$GBGSV,3,3,09,23,43,059,43,1*42
$GNRMC,060104.00,A,4843.26104,N,00920.55535,E,0.030,,080225,,,A,V*1B
$GNGGA,060104.00,4843.26104,N,00920.55535,E,1,12,0.53,250.8,M,47.6,M,,*4C
$GPGSV,4,1,13,05,43,218,44,07,09,071,44,08,06,026,,13,83,326,34,1*61
$GPGSV,4,2,13,14,60,102,41,15,46,299,35,17,06,124,,18,08,295,38,1*64
$GPGSV,4,3,13,20,16,192,,22,56,143,48,23,13,325,,24,12,259,,1*6B
$GPGSV,4,4,13,30,42,069,46,1*5E
$GLGSV,2,1,08,70,28,143,34,71,79,142,36,72,46,320,38,73,82,059,43,1*7D
$GLGSV,2,2,08,74,47,215,31,80,25,039,45,81,08,017,38,88,06,327,34,1*7B
$GAGSV,3,1,10,04,86,090,38,06,65,300,38,09,40,299,37,11,02,241,,7*7B
$GAGSV,3,2,10,19,26,115,36,21,34,052,47,23,60,128,43,31,26,187,38,7*77
$GAGSV,3,3,10,34,09,335,37,36,13,286,,7*76
$GBGSV,3,1,09,05,16,124,41,07,22,063,41,09,05,071,28,10,26,076,42,1*78
$GBGSV,3,2,09,11,00,056,,12,02,008,,19,25,313,40,20,69,272,35,1*72
$GBGSV,3,3,09,23,43,059,43,1*42
$GNRMC,060105.00,A,4843.26107,N,00920.55535,E,0.015,,080225,,,A,V*1E
$GNGGA,060105.00,4843.26107,N,00920.55535,E,1,12,0.53,251.0,M,47.6,M,,*47
$GPGSV,4,1,13,05,43,218,44,07,09,071,43,08,06,026,,13,83,326,35,1*67
$GPGSV,4,2,13,14,60,102,42,15,46,299,35,17,06,124,,18,08,295,38,1*67
$GPGSV,4,3,13,20,16,192,,22,56,143,48,23,13,325,,24,12,259,,1*6B
$GPGSV,4,4,13,30,42,069,46,1*5E
$GLGSV,2,1,08,70,28,143,35,71,79,142,35,72,46,320,38,73,82,059,43,1*7F
$GLGSV,2,2,08,74,47,215,31,80,25,039,45,81,08,017,39,88,06,327,35,1*7B
$GAGSV,3,1,10,04,86,090,38,06,65,300,38,09,40,299,37,11,02,241,,7*7B
$GAGSV,3,2,10,19,26,115,36,21,34,052,47,23,60,128,43,31,26,187,38,7*77
$GAGSV,3,3,10,34,09,335,37,36,13,286,,7*76
$GBGSV,3,1,09,05,16,124,41,07,22,063,41,09,05,071,28,10,26,076,42,1*78
$GBGSV,3,2,09,11,00,056,,12,02,008,,19,25,313,40,20,69,272,35,1*72
$GBGSV,3,3,09,23,43,059,43,1*42
$GNRMC,060106.00,A,4843.26109,N,00920.55535,E,0.013,,080225,,,A,V*15
$GNGGA,060106.00,4843.26109,N,00920.55535,E,1,12,0.53,251.1,M,47.6,M,,*4B
$GPGSV,4,1,13,05,43,218,44,07,09,071,43,08,06,026,,13,83,326,35,1*67
$GPGSV,4,2,13,14,60,102,42,15,46,299,35,17,06,124,,18,08,295,38,1*67
$GPGSV,4,3,13,20,16,192,,22,56,143,48,23,13,325,,24,12,259,,1*6B
$GPGSV,4,4,13,30,42,069,46,1*5E
$GLGSV,2,1,08,70,28,143,34,71,79,142,36,72,46,320,38,73,82,059,43,1*7D
$GLGSV,2,2,08,74,47,215,30,80,25,039,45,81,08,017,40,88,06,327,36,1*77
$GAGSV,3,1,10,04,86,090,38,06,65,300,38,09,40,299,37,11,02,241,,7*7B
$GAGSV,3,2,10,19,26,115,36,21,34,052,47,23,60,128,43,31,26,187,38,7*77
$GAGSV,3,3,10,34,09,335,37,36,13,286,,7*76
$GBGSV,3,1,09,05,16,124,41,07,22,063,41,09,05,071,28,10,26,076,42,1*78
$GBGSV,3,2,09,11,00,056,,12,02,008,,19,26,313,40,20,69,272,35,1*71
$GBGSV,3,3,09,23,43,059,43,1*42
$GNRMC,060107.00,A,4843.26111,N,00920.55535,E,0.002,,080225,,,A,V*1D
$GNGGA,060107.00,4843.26111,N,00920.55535,E,1,12,0.53,251.2,M,47.6,M,,*40
$GPGSV,4,1,13,05,43,218,44,07,09,071,43,08,06,026,,13,83,326,36,1*64
$GPGSV,4,2,13,14,60,102,42,15,46,299,35,17,06,124,,18,08,295,38,1*67
$GPGSV,4,3,13,20,16,192,,22,56,143,48,23,13,325,,24,12,259,,1*6B
$GPGSV,4,4,13,30,42,069,46,1*5E
$GLGSV,2,1,08,70,28,143,35,71,79,142,36,72,46,320,38,73,82,059,43,1*7C
$GLGSV,2,2,08,74,47,215,29,80,25,039,45,81,08,017,40,88,06,327,36,1*7F
$GAGSV,3,1,10,04,86,090,37,06,65,300,38,09,40,299,37,11,02,241,,7*74
$GAGSV,3,2,10,19,26,115,36,21,34,052,47,23,60,128,43,31,26,187,38,7*77
$GAGSV,3,3,10,34,09,335,37,36,13,286,,7*76
$GBGSV,3,1,09,05,16,124,41,07,22,063,41,09,05,071,28,10,26,076,42,1*78
$GBGSV,3,2,09,11,00,056,,12,02,008,,19,26,313,40,20,70,271,35,1*7A
$GBGSV,3,3,09,23,43,059,43,1*42
$GNRMC,060108.00,A,4843.26114,N,00920.55535,E,0.010,,080225,,,A,V*14
$GNGGA,060108.00,4843.26114,N,00920.55535,E,1,12,0.53,251.3,M,47.6,M,,*4B
$GPGSV,4,1,13,05,43,218,44,07,09,071,42,08,06,026,,13,83,326,36,1*65
$GPGSV,4,2,13,14,60,102,42,15,46,299,34,17,06,124,,18,08,295,38,1*66
$GPGSV,4,3,13,20,16,192,,22,56,143,48,23,13,325,,24,12,259,,1*6B
$GPGSV,4,4,13,30,42,069,46,1*5E
$GLGSV,2,1,08,70,28,143,34,71,79,142,36,72,46,320,38,73,82,059,43,1*7D
$GLGSV,2,2,08,74,48,216,29,80,25,039,45,81,08,017,40,88,06,327,36,1*73
$GAGSV,3,1,10,04,86,090,37,06,65,300,38,09,40,299,37,11,02,241,,7*74
$GAGSV,3,2,10,19,26,115,36,21,34,052,47,23,60,128,43,31,26,187,38,7*77
$GAGSV,3,3,10,34,09,335,37,36,13,286,,7*76
$GBGSV,3,1,09,05,16,124,41,07,22,063,41,09,05,071,26,10,26,076,42,1*76
$GBGSV,3,2,09,11,00,056,,12,02,008,,19,26,313,40,20,70,271,35,1*7A
$GBGSV,3,3,09,23,43,059,44,1*45
$GNRMC,060109.00,A,4843.26117,N,00920.55535,E,0.014,,080225,,,A,V*12
$GNGGA,060109.00,4843.26117,N,00920.55535,E,1,12,0.53,251.4,M,47.6,M,,*4E
$GPGSV,4,1,13,05,43,218,44,07,09,071,42,08,06,026,,13,83,326,37,1*64
$GPGSV,4,2,13,14,60,102,43,15,46,299,34,17,06,124,,18,08,295,38,1*67
$GPGSV,4,3,13,20,16,192,,22,56,143,48,23,13,325,,24,12,259,,1*6B
$GPGSV,4,4,13,30,42,069,47,1*5F
$GLGSV,2,1,08,70,28,143,34,71,79,142,35,72,46,320,38,73,82,059,43,1*7E
$GLGSV,2,2,08,74,48,216,28,80,25,039,45,81,08,017,40,88,06,327,36,1*72
$GAGSV,3,1,10,04,86,090,37,06,65,300,38,09,40,299,37,11,02,241,,7*74
$GAGSV,3,2,10,19,26,115,36,21,34,052,47,23,60,128,43,31,26,187,38,7*77
$GAGSV,3,3,10,34,09,335,37,36,13,286,,7*76
$GBGSV,3,1,09,05,16,124,41,07,22,063,41,09,05,071,26,10,26,076,42,1*76
$GBGSV,3,2,09,11,00,056,,12,02,008,,19,26,313,40,20,70,271,35,1*7A
$GBGSV,3,3,09,23,43,059,44,1*45
$GNRMC,060110.00,A,4843.26120,N,00920.55535,E,0.025,,080225,,,A,V*1C
$GNGGA,060110.00,4843.26120,N,00920.55535,E,1,12,0.53,251.5,M,47.6,M,,*43
$GPGSV,4,1,13,05,43,218,44,07,09,071,41,08,06,026,,13,83,326,37,1*67
$GPGSV,4,2,13,14,60,102,43,15,46,299,34,17,06,124,,18,08,295,38,1*67
$GPGSV,4,3,13,20,16,192,,22,56,143,48,23,13,325,,24,12,259,,1*6B
$GPGSV,4,4,13,30,42,069,47,1*5F
$GLGSV,2,1,08,70,28,143,34,71,79,142,34,72,46,320,38,73,82,059,42,1*7E
$GLGSV,2,2,08,74,48,216,29,80,25,039,45,81,08,017,39,88,06,327,35,1*7E
$GAGSV,3,1,10,04,86,090,37,06,65,300,38,09,40,299,37,11,02,241,,7*74
$GAGSV,3,2,10,19,26,115,35,21,34,052,47,23,60,128,43,31,26,187,37,7*7B
$GAGSV,3,3,10,34,09,335,37,36,13,286,,7*76
$GBGSV,3,1,09,05,16,124,41,07,22,063,40,09,05,071,25,10,26,076,42,1*74
$GBGSV,3,2,09,11,00,056,,12,02,008,,19,26,313,40,20,70,271,35,1*7A
$GBGSV,3,3,09,23,43,059,44,1*45
$GNRMC,060111.00,A,4843.26124,N,00920.55536,E,0.034,,080225,,,A,V*1A
