$GNRMC,150000.00,A,4843.26035,N,00920.55487,E,0.010,,070225,,,A,V*1A
$GNGGA,150000.00,4843.26035,N,00920.55487,E,1,12,0.50,247.4,M,47.6,M,,*49
$GPGSV,4,1,13,04,00,299,,05,23,053,47,09,00,325,,16,41,302,40,1*6E
$GPGSV,4,2,13,18,72,144,41,20,05,026,,23,13,147,43,25,12,134,46,1*6D
$GPGSV,4,3,13,26,69,277,34,27,14,267,,28,22,207,,29,42,072,47,1*68
$GPGSV,4,4,13,31,36,229,43,1*5F
$GLGSV,2,1,08,69,06,346,40,70,11,046,24,76,41,162,51,77,78,255,36,1*71
$GLGSV,2,2,08,78,24,324,40,86,51,040,46,87,75,252,34,88,15,231,37,1*7B
$GAGSV,3,1,10,02,01,128,,04,02,353,,13,13,207,29,15,61,178,41,7*7D
$GAGSV,3,2,10,19,04,301,,21,19,305,32,27,73,293,39,30,51,132,43,7*72
$GAGSV,3,3,10,34,53,060,42,36,06,039,19,7*72
$GBGSV,3,1,11,02,02,101,36,05,17,123,42,08,37,057,42,13,39,067,44,1*75
$GBGSV,3,2,11,19,06,089,40,20,09,045,,24,60,261,,25,20,316,34,1*75
$GBGSV,3,3,11,26,38,180,45,29,04,062,,35,61,061,44,1*4C
$GNGGA,150001.00,4843.26036,N,00920.55484,E,1,12,0.50,247.4,M,47.6,M,,*48
$GPGSV,4,1,13,04,00,299,,05,23,053,47,09,00,325,,16,41,302,40,1*6E
$GPGSV,4,2,13,18,72,144,41,20,05,026,,23,13,147,44,25,12,134,46,1*6A
$GPGSV,4,3,13,26,69,277,35,27,14,267,,28,22,207,,29,42,072,46,1*68
$GPGSV,4,4,13,31,36,229,42,1*5E
$GLGSV,2,1,08,69,06,346,39,70,11,046,25,76,41,162,51,77,78,255,36,1*7E
$GLGSV,2,2,08,78,24,324,40,86,51,040,46,87,75,252,33,88,15,231,36,1*7D
$GAGSV,3,1,10,02,01,128,,04,02,353,,13,13,207,29,15,61,178,41,7*7D
$GAGSV,3,2,10,19,04,301,,21,19,305,33,27,73,293,38,30,51,132,44,7*75
$GAGSV,3,3,10,34,53,060,42,36,06,039,20,7*78
$GBGSV,3,1,11,02,02,101,36,05,17,123,42,08,37,057,42,13,39,067,44,1*75
$GBGSV,3,2,11,19,06,089,41,20,09,045,,24,60,261,,25,20,316,35,1*75
$GBGSV,3,3,11,26,38,180,45,29,04,062,,35,61,061,44,1*4C
$GNGGA,150002.00,4843.26036,N,00920.55482,E,1,12,0.50,247.3,M,47.6,M,,*4A
$GPGSV,4,1,13,04,00,299,,05,23,053,47,09,00,325,,16,41,302,40,1*6E
$GPGSV,4,2,13,18,72,144,41,20,05,026,,23,13,147,44,25,12,134,46,1*6A
$GPGSV,4,3,13,26,69,277,35,27,14,267,,28,22,207,,29,42,072,47,1*69
$GPGSV,4,4,13,31,36,229,42,1*5E
$GLGSV,2,1,08,69,06,346,35,70,11,046,25,76,41,162,51,77,78,255,36,1*72
$GLGSV,2,2,08,78,24,324,40,86,51,040,45,87,75,252,34,88,15,231,36,1*79
$GAGSV,3,1,10,02,01,128,,04,02,353,,13,13,207,30,15,61,178,40,7*74
$GAGSV,3,2,10,19,04,301,,21,19,305,32,27,73,293,38,30,51,132,44,7*74
$GAGSV,3,3,10,34,53,060,40,36,06,039,20,7*7A
$GBGSV,3,1,11,02,02,101,36,05,17,123,42,08,37,057,42,13,39,067,44,1*75
$GBGSV,3,2,11,19,06,089,41,20,09,045,,24,60,261,,25,20,316,35,1*75
$GBGSV,3,3,11,26,38,180,45,29,04,062,,35,61,061,45,1*4D
$GNRMC,150003.00,A,4843.26037,N,00920.55480,E,0.020,,070225,,,A,V*1F
$GNGGA,150003.00,4843.2603,N,00920.55480,E,1,12,0.50,247.3,M,47.6,M,,*48
$GPGSV,4,1,13,04,00,299,,05,23,053,46,09,00,325,,16,41,302,40,1*6F
$GPGSV,4,2,13,18,72,144,41,20,05,026,,23,13,147,42,25,12,134,47,1*6D
$GPGSV,4,3,13,26,69,277,36,27,14,267,,28,22,207,,29,42,072,47,1*6A
$GPGSV,4,4,13,31,36,229,41,1*5D
$GLGSV,2,1,08,69,06,346,37,70,11,046,26,76,41,162,50,77,78,255,36,1*72
$GLGSV,2,2,08,78,24,324,41,86,51,040,46,87,75,252,34,88,15,231,31,1*7C
$GAGSV,3,1,10,02,01,128,,04,02,353,,13,13,207,32,15,61,178,40,7*76
$GAGSV,3,2,10,19,04,301,,21,19,305,31,27,73,293,38,30,51,132,44,7*77
$GAGSV,3,3,10,34,53,060,42,36,06,039,20,7*78
$GBGSV,3,1,11,02,02,101,35,05,17,123,41,08,37,057,42,13,39,067,45,1*74
$GBGSV,3,2,11,19,06,089,41,20,09,045,,24,60,261,,25,20,316,35,1*75
$GBGSV,3,3,11,26,38,180,46,29,04,062,,35,61,061,45,1*4E
$GNRMC,150004.00,A,4843.26039,N,00920.55476,E,0.068,,070225,,,A,V*13
$GNGGA,150004.00,4843.6039,N,00920.55476,E,1,12,0.50,247.3,M,47.6,M,,*48
$GPGSV,4,1,13,04,00,298,,05,23,053,46,09,00,325,,16,41,302,41,1*6F
$GPGSV,4,2,13,18,72,144,43,20,05,026,,23,13,147,43,25,12,134,47,1*6E
$GPGSV,4,3,13,26,69,277,36,27,14,267,,28,22,207,,29,42,072,46,1*6B
$GPGSV,4,4,13,31,36,229,39,1*52
$GLGSV,2,1,08,69,06,346,33,70,11,046,26,76,41,162,50,77,78,255,35,1*75
$GLGSV,2,2,08,78,24,324,38,86,51,040,46,87,75,252,33,88,15,231,31,1*75
$GAGSV,3,1,10,02,01,128,,04,02,353,,13,13,207,24,15,61,178,40,7*71
$GAGSV,3,2,10,19,04,301,,21,19,305,30,27,73,293,38,30,51,132,45,7*77
$GAGSV,3,3,10,34,53,060,43,36,06,039,19,7*73
$GBGSV,3,1,11,02,02,101,35,05,17,123,42,08,37,057,42,13,39,067,45,1*77
$GBGSV,3,2,11,19,06,089,41,20,09,045,,24,60,261,,25,20,316,35,1*75
$GBGSV,3,3,11,26,38,180,46,29,04,062,,35,61,061,45,1*4E
$GNRMC,150005.00,A,4843.26038,N,00920.55476,E,0.004,,070225,,,A,V*19
$GNGGA,150005.00,4843.26038,N,00920.55476,E,1,12,0.50,247.3,M,47.6,M,,*48
$GPGSV,4,1,13,04,00,298,,05,23,053,46,09,00,325,,16,41,302,36,1*6F
$GPGSV,4,2,13,18,72,144,41,20,05,026,,23,13,147,43,25,12,134,48,1*63
$GPGSV,4,3,13,26,69,277,35,27,14,267,,28,22,207,,29,42,072,45,1*6B
$GPGSV,4,4,13,31,36,229,42,1*5E
$GLGSV,2,1,08,69,06,346,33,70,11,046,26,76,41,162,51,77,78,255,35,1*74
$GLGSV,2,2,08,78,24,324,35,86,51,040,47,87,75,252,34,88,15,231,39,1*76
$GAGSV,3,1,10,02,01,128,,04,02,353,,13,13,207,25,15,61,178,40,7*70
$GAGSV,3,2,10,19,04,301,,21,19,305,29,27,73,293,39,30,51,132,45,7*7E
$GAGSV,3,3,10,34,53,060,42,36,06,039,18,7*73
$GBGSV,3,1,11,02,02,101,35,05,17,123,40,08,37,057,42,13,39,067,44,1*74
$GBGSV,3,2,11,19,06,089,43,20,09,045,,24,60,261,,25,20,316,29,1*7A
$GBGSV,3,3,11,26,38,180,46,29,04,062,,35,61,061,45,1*4E
$GNRMC,150006.00,A,4843.26039,N,00920.55476,E,0.010,,070225,,,A,V*1E
$GNGGA,150006.00,4843.26039,N,00920.55476,E,1,12,0.50,247.3,M,47.6,M,,*4A
$GPGSV,4,1,13,04,00,298,,05,23,053,46,09,00,325,,16,41,302,39,1*60
$GPGSV,4,2,13,18,72,144,44,20,05,026,,23,13,147,43,25,12,134,47,1*69
$GPGSV,4,3,13,26,69,277,36,27,14,267,,28,22,207,,29,42,072,46,1*6B
$GPGSV,4,4,13,31,36,229,42,1*5E
$GLGSV,2,1,08,69,06,346,35,70,11,046,26,76,41,162,50,77,78,255,35,1*73
$GLGSV,2,2,08,78,24,324,36,86,51,040,46,87,75,252,33,88,15,231,39,1*73
$GAGSV,3,1,10,02,01,128,,04,02,353,,13,13,207,27,15,61,178,40,7*72
$GAGSV,3,2,10,19,04,301,,21,19,305,27,27,73,293,38,30,51,132,45,7*71
$GAGSV,3,3,10,34,53,060,41,36,06,039,20,7*7B
$GBGSV,3,1,11,02,02,101,35,05,17,123,42,08,37,057,42,13,39,067,44,1*76
$GBGSV,3,2,11,19,06,089,42,20,09,045,,24,60,261,,25,20,316,34,1*77
$GBGSV,3,3,11,26,38,180,47,29,04,062,,35,61,061,45,1*4F
$GNRMC,150007.00,A,4843.26039,N,00920.55475,E,0.018,,070225,,,A,V*14
$GNGGA,150007.00,4843.26039,N,00920.55475,E,1,12,0.52,247.2,M,47.6,M,,*4B
$GPGSV,4,1,13,04,00,298,,05,23,053,46,09,00,325,,16,41,302,39,1*60
$GPGSV,4,2,13,18,72,144,42,20,05,026,,23,13,147,43,25,12,134,47,1*6F
$GPGSV,4,3,13,26,69,277,35,27,14,67,,28,22,207,,29,42,072,45,1*6B
$GPGSV,4,4,13,31,36,229,40,1*5C
$GLGSV,2,1,08,69,06,346,35,70,11,046,25,76,41,162,50,77,78,255,33,1*76
$GLGSV,2,2,08,78,24,324,39,86,51,040,46,87,75,252,33,88,15,231,38,1*7D
$GAGSV,3,1,10,02,01,128,,04,02,353,,13,13,20728,15,61,178,40,7*7D
$GAGSV,3,2,10,19,04,301,,21,19,305,34,27,73,293,37,30,51,132,44,7*7D
$GAGSV,3,3,10,34,53,060,43,36,06,039,22,7*7B
$GBGSV,3,1,11,02,02,101,35,05,17,123,41,08,37,057,42,13,39,067,45,1*74
$GBGSV,3,2,11,19,06,089,42,20,09,045,,24,60,261,,25,20,316,35,1*76
$GBGSV,3,3,11,26,38,180,47,29,04,062,,35,61,061,45,1*4F
$GNRMC,150008.00,A,4843.26040,N,00920.55475,E,0.013,,070225,,,A,V*1E
$GNGGA,150008.00,4843.26040,N,00920.55475,E,1,12,0.52,247.2,M,47.6,M,,*4A
$GPGSV,4,1,13,04,00,298,,05,23,053,46,09,00,325,,16,41,302,38,1*61
$GPGSV,4,2,13,18,72,144,40,20,05,026,,23,13,147,44,25,12,134,47,1*6A
$GPGSV,4,3,13,26,69,277,35,27,14,267,,28,22,207,,29,42,072,46,1*68
$GPGSV,4,4,13,31,36,229,39,1*52
$GLGSV,2,1,08,69,06,346,35,70,11,046,23,76,41,162,50,77,78,255,34,1*77
$GLGSV,2,2,08,78,24,324,39,86,51,040,45,87,75,252,32,88,15,231,37,1*70
$GAGSV,3,1,10,02,01,128,,04,02,353,,13,13,207,27,15,61,178,40,7*72
$GAGSV,3,2,10,19,04,301,,21,19,305,34,27,73,293,36,30,51,132,44,7*7C
$GAGSV,3,3,10,34,53,060,43,36,06,039,21,7*78
$GBGSV,3,1,11,02,02,101,35,05,17,123,41,08,37,057,42,13,39,067,45,1*74
$GBGSV,3,2,11,19,06,089,42,20,09,045,,24,60,261,,25,20,316,36,1*75
$GBGSV,3,3,11,26,38,180,48,29,04,062,,35,61,061,45,1*40
$GNRMC,150009.00,A,4843.26040,N,00920.55476,E,0.057,,070225,,,A,V*1C
$GNGGA,150009.00,4843.26040,N,00920.55476,E,1,12,0.52,247.2,M,47.6,M,,*48
$GPGSV,4,1,13,04,00,298,,05,23,053,46,09,00,325,,16,41,302,39,1*60
$GPGSV,4,2,13,18,72,144,44,20,05,026,,23,13,147,44,25,12,134,47,1*6E
$GPGSV,4,3,13,26,69,277,36,27,14,267,,28,22,207,,29,42,072,45,1*68
$GPGSV,4,4,13,31,36,229,40,1*5C
$GLGSV,2,1,08,69,06,346,36,70,11,046,24,76,41,162,50,77,78,255,35,1*72
$GLGSV,2,2,08,78,24,324,39,86,51,040,44,87,75,252,34,88,15,231,38,1*78
$GAGSV,3,1,10,02,01,128,,04,02,353,,13,13,207,27,15,61,178,40,7*72
$GAGSV,3,2,10,19,04,301,,21,19,305,34,27,73,293,35,30,51,132,44,7*7F
$GAGSV,3,3,10,34,53,060,43,36,06,039,21,7*78
$GBGSV,3,1,11,02,02,101,35,05,17,123,41,08,37,057,42,13,39,067,44,1*75
$GBGSV,3,2,11,19,06,089,43,20,09,045,,24,60,261,,25,20,316,36,1*74
$GBGSV,3,3,11,26,38,180,47,29,04,062,,35,61,061,45,1*4F
$GNGGA,150010.00,4843.26040,N,00920.55477,E,1,12,0.52,247.2,M,47.6,M,,*41
$GPGSV,4,1,13,04,00,298,,05,23,053,46,09,00,325,,16,41,302,39,1*60
$GPGSV,4,2,13,18,72,144,42,20,05,026,,23,13,147,44,25,12,134,47,1*68
$GPGSV,4,3,13,26,69,277,36,27,14,267,,28,22,207,,29,42,072,45,1*68
$GPGSV,4,4,13,31,36,229,42,1*5E
$GLGSV,2,1,08,69,06,346,36,70,11,046,23,76,41,162,49,77,78,254,35,1*7C
$GLGSV,2,2,08,78,24,324,39,86,51,040,46,87,75,252,35,88,15,231,37,1*74
$GAGSV,3,1,10,02,01,128,,04,02,353,,13,13,207,26,15,61,178,40,7*73
$GAGSV,3,2,10,19,04,301,,21,19,305,33,27,73,293,35,30,51,132,45,7*79
$GAGSV,3,3,10,34,53,060,42,36,06,039,21,7*79
$GBGSV,3,1,11,02,02,101,35,05,17,123,41,08,37,057,42,13,39,067,44,1*75
$GBGSV,3,2,11,19,06,089,43,20,09,045,,24,60,261,,25,20,316,36,1*74
$GBGSV,3,3,11,26,38,180,48,29,04,062,,35,61,061,46,1*43
$GNRMC,150011.00,A,4843.26041,N,00920.55476,E,0.011,,070225,,,A,V*16
$GNGGA,150011.00,4843.26041,N,00920.55476,E,1,12,0.52,247.2,M,47.6,M,,*40
$GPGSV,4,1,13,04,00,298,,05,23,053,46,09,00,325,,16,41,302,39,1*60
$GPGSV,4,2,13,18,72,144,43,20,05,026,,23,13,147,44,25,12,134,47,1*69
$GPGSV,4,3,13,26,69,277,35,27,14,267,,28,22,207,,29,42,072,45,1*6B
$GPGSV,4,4,13,31,36,229,41,1*5D
$GLGSV,2,1,08,69,06,346,35,70,11,046,23,76,41,162,49,77,78,254,34,1*7E
$GLGSV,2,2,08,78,24,324,38,86,51,040,45,87,75,252,34,88,15,231,36,1*76
$GAGSV,3,1,10,02,01,128,,04,02,353,,13,13,207,25,15,61,178,40,7*70
$GAGSV,3,2,10,19,04,301,,21,19,305,34,27,73,293,35,30,51,132,44,7*7F
$GAGSV,3,3,10,34,53,060,42,36,06,039,21,7*79
$GBGSV,3,1,11,02,02,101,35,05,17,123,42,08,37,057,42,13,39,067,44,1*76
$GBGSV,3,2,11,19,06,089,43,20,09,045,,24,60,261,,25,20,316,36,1*74
$GBGSV,3,3,11,26,38,180,48,29,04,062,,35,61,061,46,1*43
$GNRMC,150012.00,A,4843.26041,N,00920.55477,E,0.012,,070225,,,A,V*17
$GNGGA,150012.00,4843.26041,N,00920.55477,E,1,12,0.52,247.1,M,47.6,M,,*41
$GPGSV,4,1,13,04,00,298,,05,23,053,45,09,00,325,,16,41,302,40,1*6D
$GPGSV,4,2,13,18,72,144,42,20,05,026,,23,13,147,44,25,12,134,47,1*68
$GPGSV,4,3,13,26,69,277,36,27,14,267,,28,22,207,,29,42,072,45,1*68
$GPGSV,4,4,13,31,36,229,40,1*5C
$GLGSV,2,1,08,69,06,346,36,70,11,046,22,76,41,162,49,77,78,254,34,1*7C
$GLGSV,2,2,08,78,24,324,38,86,51,040,46,87,75,252,33,88,15,231,37,1*73
$GAGSV,3,1,10,02,01,128,,04,02,353,,13,13,207,24,15,61,178,41,7*70
$GAGSV,3,2,10,19,04,301,,21,19,305,34,27,73,293,34,30,51,132,44,7*7E
$GAGSV,3,3,10,34,53,060,42,36,06,039,21,7*79
$GBGSV,3,1,11,02,02,101,35,05,17,123,41,08,37,057,42,13,39,067,44,1*75
$GBGSV,3,2,11,19,06,089,44,20,09,045,,24,60,261,,25,20,316,36,1*73
$GBGSV,3,3,11,26,38,180,48,29,04,062,,35,61,061,46,1*43
$GNRMC,150013.00,A,4843.26042,N,00920.55479,E,0.013,,070225,,,A,V*1A
$GNGGA,150013.00,4843.26042,N,00920.55479,E,1,12,0.52,247.1,M,47.6,M,,*4D
$GPGSV,4,1,13,04,00,298,,05,23,053,46,09,00,325,,16,41,302,39,1*60
$GPGSV,4,2,13,18,72,144,42,20,05,026,,23,13,147,44,25,12,134,47,1*68
$GPGSV,4,3,13,26,69,277,36,27,14,267,,28,22,207,,29,42,072,46,1*6B
$GPGSV,4,4,13,31,36,229,41,1*5D
$GLGSV,2,1,08,69,06,346,36,70,11,046,22,76,41,162,49,77,78,254,33,1*7B
$GLGSV,2,2,08,78,24,324,39,86,51,040,45,87,75,252,33,88,15,231,38,1*7E
$GAGSV,3,1,10,02,01,128,,04,02,353,,13,13,207,23,15,61,178,40,7*76
$GAGSV,3,2,10,19,04,301,,21,19,305,35,27,73,293,33,30,51,132,44,7*78
$GAGSV,3,3,10,34,53,060,42,36,06,039,20,7*78
$GBGSV,3,1,11,02,02,101,35,05,17,123,41,08,37,057,42,13,39,067,44,1*75
$GBGSV,3,2,11,19,06,089,44,20,09,045,,24,60,261,,25,20,316,36,1*73
$GBGSV,3,3,11,26,38,180,48,29,04,062,,35,61,061,46,1*43
$GNRMC,150014.00,A,4843.26042,N,00920.55479,E,0.016,,070225,,,A,V*18
$GNGGA,150014.00,4843.26042,N,00920.55479,E,1,12,0.52,247.1,M,47.6,M,,*4A
$GPGSV,4,1,3,04,00,298,,05,23,053,46,09,00,325,,16,41,302,39,1*60
$GPGSV,4,2,13,18,72,144,42,20,05,026,,23,13,147,46,25,12,134,47,1*6A
$GPGSV,4,3,13,26,69,277,37,27,14,267,,28,22,207,,29,42,072,46,1*6A
$GPGSV,4,4,13,31,36,229,40,1*5C
$GLGSV,2,1,08,69,06,346,30,70,11,046,21,76,41,162,48,77,78,254,33,1*7F
$GLGSV,2,2,08,78,24,324,39,86,51,040,47,87,75,252,33,88,15,231,35,1*71
$GAGSV,3,1,10,02,01,128,,04,02,353,,13,13,207,22,15,61,178,40,7*77
$GAGSV,3,2,10,19,04,301,,21,19,305,34,27,73,293,35,30,51,132,44,7*7F
$GAGSV,3,3,10,34,53,060,43,36,06,039,20,7*79
$GBGSV,3,1,11,02,02,101,35,05,17,123,41,08,37,057,42,13,39,067,44,1*75
$GBGSV,3,2,11,19,06,089,44,20,09,045,,24,60,261,,25,20,316,35,1*70
$GBGSV,3,3,11,26,38,180,47,29,04,062,,35,61,061,46,1*4C
$GNRMC,150015.00,A,4843.26043,N,00920.55478,E,0.028,,070225,,,A,V*14
$GNGGA,150015.00,4843.26043,N,00920.55478,E,1,12,0.52,247.0,M,47.6,M,,*4A
$GPGSV,4,1,13,04,00,298,,05,23,053,46,09,00,325,,16,41,302,36,1*6F
$GPGSV,4,2,13,18,72,144,42,20,05,026,,23,13,147,44,25,12,134,46,1*69
$GPGSV,4,3,13,26,69,277,37,27,14,267,,28,22,207,,29,42,072,45,1*69
$GPGSV,4,4,13,31,36,229,40,1*5C
$GLGSV,2,1,08,69,06,346,30,70,11,046,21,76,41,162,49,77,78,254,33,1*7E
$GLGSV,2,2,08,78,24,324,41,86,51,040,45,87,75,252,33,88,15,231,35,1*7C
$GAGSV,3,1,10,02,01,128,,04,02,353,,13,13,207,22,15,61,178,38,7*78
$GAGSV,3,2,10,19,04,301,,21,19,305,30,27,73,293,35,30,51,132,45,7*7A
$GAGSV,3,3,10,34,53,060,43,36,06,039,19,7*73
$GBGSV,3,1,11,02,02,101,35,05,17,123,41,08,37,057,42,13,39,067,45,1*74
$GBGSV,3,2,11,19,06,089,44,20,09,045,,24,60,261,,25,20,316,37,1*72
$GBGSV,3,3,11,26,38,180,47,29,04,062,,35,61,061,46,1*4C
$GNRMC,150016.00,A,4843.26044,N,00920.55478,E,0.009,,070225,,,A,V*13
$GNGGA,150016.00,4843.26044,N,00920.55478,E,1,12,0.52,247.0,M,47.6,M,,*4E
$GPGSV,4,1,13,04,00,298,,05,23,053,46,09,00,325,,16,42,302,37,1*6D
$GPGSV,4,2,13,18,72,144,42,20,05,026,,23,13,147,44,25,12,134,47,1*68
$GPGSV,4,3,13,26,69,277,35,27,14,267,,28,22,207,,29,42,072,45,1*6B
$GPGSV,4,4,13,31,36,229,40,1*5C
$GLGSV,2,1,08,69,06,346,38,70,11,046,20,76,41,162,49,77,78,254,31,1*75
$GLGSV,2,2,08,78,24,324,42,86,51,040,46,87,75,252,32,88,15,231,37,1*7F
$GAGSV,3,1,10,02,01,128,,04,02,353,,13,13,207,22,15,61,178,41,7*76
$GAGSV,3,2,10,19,04,301,,21,19,305,30,27,73,293,35,30,51,132,44,7*7B
$GAGSV,3,3,10,34,53,060,43,36,06,039,18,7*72
$GBGSV,3,1,11,02,02,101,35,05,17,123,41,08,37,056,42,13,39,067,44,1*74
$GBGSV,3,2,11,19,06,089,44,20,09,045,,24,60,261,,25,20,316,37,1*72
$GBGSV,3,3,11,26,38,180,47,29,04,062,,35,61,061,46,1*4C
$GNRMC,150017.00,A,4843.26045,N,00920.55478,E,0.024,,070225,,,A,V*1C
$GNGGA,150017.00,4843.26045,N,00920.55478,E,1,12,0.52,246.9,M,47.6,M,,*46
$GPGSV,4,1,13,04,00,298,,05,23,053,46,09,00,325,,16,42,302,37,1*6D
$GPGSV,4,2,13,18,72,144,40,20,05,026,,23,13,147,44,25,12,134,46,1*6B
$GPGSV,4,3,13,26,69,277,39,27,14,67,,28,22,207,,29,42,072,45,1*67
$GPGSV,4,4,13,31,36,229,40,1*5C
$GLGSV,2,1,08,69,06,346,36,70,11,046,20,76,41,162,49,77,78,254,33,1*79
$GLGSV,2,2,08,78,24,324,41,86,51,040,46,87,75,252,33,88,15,231,42,1*7F
$GAGSV,3,1,10,02,01,128,,04,02,353,,13,13,207,20,15,61,178,41,7*74
$GAGSV,3,2,10,19,04,301,,21,19,305,37,27,73,293,38,30,51,132,44,7*71
$GAGSV,3,3,10,34,53,060,43,36,06,039,18,7*72
$GBGSV,3,1,11,02,02,101,35,05,17,123,41,08,37,056,41,13,39,067,44,1*77
$GBGSV,3,2,11,19,06,089,44,20,09,045,,24,60,261,,25,20,316,36,1*73
$GBGSV,3,3,11,26,38,180,47,29,04,062,,35,61,061,46,1*4C
$GNRMC,150018.00,A,4843.26045,N,00920.55478,E,0.020,,070225,,,A,V*17
$GNGGA,150018.00,4843.26045,N,00920.55478,E,1,12,0.52,246.9,M,47.6,M,,*49
$GPGSV,4,1,13,04,00,298,,05,23,053,45,09,00,325,,16,42,302,37,1*6E
$GPGSV,4,2,13,18,73,142,41,20,05,026,,23,13,147,44,25,12,134,46,1*6D
$GPGSV,4,3,13,26,69,277,38,27,14,267,,28,22,207,,29,42,072,45,1*66
$GPGSV,4,4,13,31,36,229,40,1*5C
$GLGSV,2,1,08,69,06,346,35,70,11,046,19,76,41,162,49,77,78,254,34,1*77
$GLGSV,2,2,08,78,24,324,41,86,51,040,47,87,75,252,32,88,15,231,40,1*7D
$GAGSV,3,1,10,02,01,128,,04,02,353,,13,13,207,19,15,61,178,41,7*7E
$GAGSV,3,2,10,19,04,301,,21,19,305,38,27,73,293,36,30,51,132,45,7*71
$GAGSV,3,3,10,34,53,060,43,36,06,039,18,7*72
$GBGSV,3,1,11,02,02,101,5,05,17,123,41,08,37,056,42,13,39,067,44,1*74
$GBGSV,3,2,11,19,06,089,44,20,09,045,,24,60,261,,25,20,316,38,1*7D
$GBGSV,3,3,11,26,38,180,47,29,04,062,,35,61,061,46,1*4C
$GNRMC,150019.00,A,4843.26045,N,00920.55479,E,0.011,,070225,,,A,V*15
$GNGGA,150019.00,4843.26045,N,00920.55479,E,1,12,0.52,246.9,M,47.6,M,,*49
$GPGSV,4,1,13,04,00,298,,05,23,053,45,09,00,325,,16,42,302,37,1*6E
$GPGSV,4,2,13,18,73,142,42,20,05,026,,23,13,147,44,25,12,134,46,1*6E
$GPGSV,4,3,13,26,69,277,38,27,14,267,,28,22,207,,29,42,072,46,1*65
$GPGSV,4,4,13,31,36,229,40,1*5C
$GLGSV,2,1,08,69,06,346,34,70,11,046,20,76,41,162,48,77,78,254,35,1*7C
$GLGSV,2,2,08,78,24,324,40,86,51,040,47,87,75,252,32,88,15,231,38,1*73
$GAGSV,3,1,10,02,01,128,,04,02,353,,13,13,207,18,15,61,178,40,7*7E
$GAGSV,3,2,10,19,04,301,,21,19,305,38,27,73,293,36,30,51,132,45,7*71
$GAGSV,3,3,10,34,53,060,42,36,06,039,17,7*7C
$GBGSV,3,1,11,02,02,101,34,05,17,123,41,08,37,056,42,13,39,067,44,1*75
$GBGSV,3,2,11,19,06,089,44,20,09,045,,24,60,261,,25,20,316,37,1*72
$GBGSV,3,3,11,26,38,180,47,29,04,062,,35,61,061,46,1*4C
$GNRMC,150020.00,A,4843.26045,N,00920.55480,E,0.022,,070225,,,A,V*19
$GNGGA,150020.00,4843.26045,N,00920.55480,E,1,12,0.52,246.8,M,47.6,M,,*44
$GPGSV,4,1,13,04,00,298,,05,23,053,45,09,00,325,,16,42,302,38,1*61
$GPGSV,4,2,13,18,73,142,40,20,04,025,,23,13,147,44,25,12,134,46,1*6E
$GPGSV,4,3,13,26,69,277,38,27,14,267,,28,22,207,,29,42,072,46,1*65
$GPGSV,4,4,13,31,36,229,40,1*5C
$GLGSV,2,1,08,69,06,346,34,70,11,046,21,76,41,162,48,77,78,254,34,1*7C
$GLGSV,2,2,08,78,24,324,40,86,51,040,47,87,75,252,32,88,15,231,40,1*7C
$GAGSV,3,1,10,02,01,128,,04,02,353,,13,13,207,18,15,61,178,40,7*7E
$GAGSV,3,2,10,19,04,301,,21,19,305,37,27,73,293,36,30,51,132,45,7*7E
$GAGSV,3,3,10,34,53,060,43,36,06,039,16,7*7C
$GBGSV,3,1,11,02,02,101,35,05,17,123,41,08,37,056,42,13,39,067,44,1*74
$GBGSV,3,2,11,19,06,089,43,20,09,045,,24,60,261,,25,20,316,37,1*75
$GBGSV,3,3,11,26,38,180,47,29,04,062,,35,61,061,46,1*4C
$GNRMC,150021.00,A,4843.26045,N,00920.55481,E,0.026,,070225,,,A,V*1D
$GNGGA,150021.00,4843.26045,N,00920.55481,E,1,12,0.52,246.8,M,47.6,M,,*44
$GPGSV,4,1,13,04,00,298,,05,23,053,45,09,00,325,,16,42,302,39,1*60
$GPGSV,4,2,13,18,73,142,42,20,04,025,,23,13,147,44,25,12,134,47,1*6D
$GPGSV,4,3,13,26,69,277,37,27,14,267,,28,22,207,,29,42,072,45,1*69
$GPGSV,4,4,13,31,36,229,40,1*5C
$GLGSV,2,1,08,69,06,346,35,70,11,046,22,76,41,162,48,77,78,254,34,1*7E
$GLGSV,2,2,08,78,24,324,40,86,51,040,47,87,75,252,32,88,15,231,39,1*72
$GAGSV,3,1,10,02,01,128,,04,02,353,,13,13,207,16,15,61,178,40,7*70
$GAGSV,3,2,10,19,04,301,,21,19,305,37,27,73,293,36,30,51,132,44,7*7F
$GAGSV,3,3,10,34,53,060,44,36,06,039,17,7*7A
$GBGSV,3,1,11,02,02,101,35,05,17,123,42,08,37,056,42,13,39,067,44,1*77
$GBGSV,3,2,11,19,06,089,43,20,09,045,,24,60,261,,25,20,316,37,1*75
$GBGSV,3,3,11,26,38,180,47,29,04,062,,35,61,061,45,1*4F
$GNRMC,150022.00,A,4843.26044,N,00920.55481,E,0.012,,070225,,,A,V*18
$GNGGA,150022.00,4843.26044,N,00920.55481,E,1,12,0.52,246.8,M,47.6,M,,*46
$GPGSV,4,1,13,04,00,298,,05,23,053,46,09,00,325,,16,42,302,39,1*63
$GPGSV,4,2,13,18,73,142,39,20,04,025,,23,13,146,44,25,12,134,47,1*60
$GPGSV,4,3,13,26,69,277,38,27,14,267,,28,22,207,,29,42,072,44,1*67
$GPGSV,4,4,13,31,36,229,41,1*5D
$GLGSV,2,1,08,69,06,346,35,70,11,046,22,76,41,162,48,77,78,254,33,1*79
$GLGSV,2,2,08,78,24,324,39,86,51,040,47,87,75,252,32,88,15,231,39,1*7C
$GAGSV,3,1,10,02,01,128,,04,02,353,,13,13,207,16,15,61,178,40,7*70
$GAGSV,3,2,10,19,04,301,,21,19,305,37,27,73,293,37,30,51,132,45,7*7F
$GAGSV,3,3,10,34,53,060,44,36,06,039,17,7*7A
$GBGSV,3,1,11,02,02,101,35,05,17,123,42,08,37,056,42,13,39,067,44,1*77
$GBGSV,3,2,11,19,06,089,43,20,09,045,,24,60,261,,25,20,316,38,1*7A
$GBGSV,3,3,11,26,38,180,47,29,04,062,,35,61,061,45,1*4F
$GNRMC,150023.00,A,4843.26044,N,00920.55481,E,0.003,,070225,,,A,V*19
$GNGGA,150023.00,4843.26044,N,00920.55481,E,1,12,0.52,246.8,M,47.6,M,,*47
$GPGSV,4,1,13,04,00,298,,05,23,053,46,09,00,325,,16,42,302,39,1*63
$GPGSV,4,2,13,18,73,142,41,20,04,025,,23,13,146,44,25,12,134,47,1*6F
$GPGSV,4,3,13,26,69,277,37,27,14,267,,28,22,207,,29,42,072,44,1*68
$GPGSV,4,4,13,31,36,229,41,1*5D
$GLGSV,2,1,08,69,06,346,34,70,11,046,23,76,41,162,48,77,78,254,31,1*7B
$GLGSV,2,2,08,78,24,324,39,86,51,040,46,87,75,252,32,88,15,231,39,1*7D
$GAGSV,3,1,10,02,01,128,,04,02,353,,13,13,207,17,15,61,178,40,7*71
$GAGSV,3,2,10,19,04,301,,21,19,305,37,27,73,293,37,30,51,132,45,7*7F
$GAGSV,3,3,10,34,53,060,44,36,06,039,17,7*7A
$GBGSV,3,1,11,02,02,101,35,05,17,123,42,08,37,056,42,13,39,067,44,1*77
$GBGSV,3,2,11,19,06,089,43,20,09,045,,24,60,261,,25,20,316,38,1*7A
$GBGSV,3,3,11,26,38,180,47,29,04,062,,35,61,061,45,1*4F
$GNRMC,150024.00,A,4843.26043,N,00920.55482,E,0.012,,070225,,,A,V*1A
$GNGGA,150024.00,4843.26043,N,00920.55482,E,1,12,0.52,246.7,M,47.6,M,,*4B
$GPGSV,4,1,13,04,00,298,,05,23,053,46,09,00,325,,16,42,302,40,1*6D
$GPGSV,4,2,13,18,73,142,41,20,04,025,,23,13,146,43,25,11,135,46,1*6B
$GPGSV,4,3,13,26,69,277,38,27,14,267,,28,22,207,,29,42,072,42,1*61
$GPGSV,4,4,13,31,36,229,41,1*5D
$GLGSV,2,1,08,69,06,346,33,70,11,046,24,76,41,162,49,77,78,254,31,1*7A
$GLGSV,2,2,08,78,24,324,39,86,51,040,47,87,75,252,32,88,15,231,39,1*7C
$GAGSV,3,1,10,02,01,128,,04,02,353,,13,13,207,16,15,61,178,40,7*70
$GAGSV,3,2,10,19,04,301,,21,19,305,36,27,73,293,37,30,51,132,45,7*7E
$GAGSV,3,3,10,34,53,060,43,36,06,039,17,7*7D
$GBGSV,3,1,11,02,02,101,35,05,17,123,42,08,37,056,42,13,39,067,45,1*76
$GBGSV,3,2,11,19,06,089,43,20,09,045,,24,60,261,,25,20,316,37,1*75
$GBGSV,3,3,11,26,38,180,46,29,04,062,,35,61,061,45,1*4E
$GNRMC,150025.00,A,4843.26042,N,00920.55482,E,0.005,,070225,,,A,V*1C
$GNGGA,150025.00,4843.26042,N,00920.55482,E,1,12,0.52,246.7,M,47.6,M,,*4B
$GPGSV,4,1,13,04,00,298,,05,23,053,46,09,00,325,,16,42,302,40,1*6D
$GPGSV,4,2,13,18,73,142,40,20,04,025,,23,13,146,43,25,11,135,47,1*6B
$GPGSV,4,4,13,31,36,229,42,1*5E
$GLGSV,2,1,08,69,06,346,32,70,11,046,25,76,41,162,49,77,78,254,32,1*79
$GLGSV,2,2,08,78,24,324,39,86,51,040,47,87,75,252,32,88,15,231,39,1*7C
$GAGSV,3,1,10,02,01,128,,04,02,353,,13,13,207,15,15,61,178,40,7*73
$GAGSV,3,2,10,19,04,301,,21,20,305,36,27,73,293,38,30,51,132,45,7*7B
$GAGSV,3,3,10,34,53,060,44,36,06,039,16,7*7B
$GBGSV,3,1,11,02,02,101,35,05,17,123,41,08,37,056,42,13,39,067,44,1*74
$GBGSV,3,2,11,19,06,089,43,20,09,045,,24,60,261,,25,20,316,37,1*75
$GBGSV,3,3,11,26,38,180,46,29,04,062,,35,61,061,45,1*4E
$GNRMC,150026.00,A,4843.26041,N,00920.55482,E,0.002,,070225,,,A,V*1B
$GNGGA,150026.00,4843.26041,N,00920.55482,E,1,12,0.52,246.7,M,47.6,M,,*4B
$GPGSV,4,1,13,04,00,298,,05,23,053,46,09,00,325,,16,42,302,39,1*63
$GPGSV,4,2,13,18,73,142,40,20,04,025,,23,13,146,43,25,11,135,47,1*6B
$GPGSV,4,3,13,26,70,275,38,27,14,268,,28,22,207,,29,42,072,42,1*64
$GPGSV,4,4,13,31,36,229,40,1*5C
$GLGSV,2,1,08,69,06,346,34,70,11,046,26,76,41,162,50,77,78,254,31,1*77
$GLGSV,2,2,08,78,24,324,39,86,51,040,47,87,75,252,32,88,15,231,39,1*7C
$GAGSV,3,1,10,02,01,128,,04,02,353,,13,13,207,12,15,61,178,39,7*7A
$GAGSV,3,2,10,19,04,301,,21,20,305,37,27,73,293,38,30,51,132,46,7*79
$GAGSV,3,3,10,34,53,060,44,36,06,039,17,7*7A
$GBGSV,3,1,11,02,02,101,35,05,17,123,41,08,37,056,42,13,39,067,44,1*74
$GBGSV,3,2,11,19,06,089,43,20,09,045,,24,60,261,,25,20,316,38,1*7A
$GBGSV,3,3,11,26,38,180,46,29,04,062,,35,61,061,45,1*4E
$GNRMC,150027.00,A,4843.26041,N,00920.55482,E,0.011,,070225,,,A,V*18
$GNGGA,150027.00,4843.26041,N,00920.55482,E,1,12,0.52,246.7,M,47.6,M,,*4A
$GPGSV,4,1,13,04,00,298,,05,23,053,46,09,00,325,,16,42,302,36,1*6C
$GPGSV,4,2,13,18,73,142,42,20,04,025,,23,13,146,43,25,11,135,46,1*68
$GPGSV,4,3,13,26,70,275,38,27,14,268,,28,21,207,,29,42,072,41,1*64
$GPGSV,4,4,13,31,36,229,40,1*5C
$GLGSV,2,1,08,69,06,346,37,70,11,046,26,76,41,162,51,77,78,254,30,1*74
$GLGSV,2,2,08,78,24,324,39,86,51,040,46,87,75,252,32,88,15,231,37,1*73
$GAGSV,3,1,10,02,01,128,,04,02,353,,13,13,207,13,15,61,178,39,7*7B
$GAGSV,3,2,10,19,04,301,,21,20,305,33,27,73,293,38,30,51,132,45,7*7E
$GAGSV,3,3,10,34,53,060,42,36,06,039,18,7*73
$GBGSV,3,1,11,02,02,101,35,05,17,123,41,08,37,056,42,13,39,067,44,1*74
$GBGSV,3,2,11,19,06,089,42,20,09,045,,24,60,261,,25,20,316,37,1*74
$GBGSV,3,3,11,26,38,180,46,29,04,062,,35,61,061,44,1*4F
$GNRMC,150028.00,A,4843.26039,N,00920.55484,E,0.005,,070225,,,A,V*1B
$GNGGA,150028.00,4843.26039,N,00920.55484,E,1,12,0.52,246.7,M,47.6,M,,*4C
$GPGSV,4,1,13,04,00,298,,05,23,053,46,09,00,325,,16,42,302,38,1*62
$GPGSV,4,2,13,18,73,142,42,20,04,025,,23,13,146,43,25,11,135,46,1*68
$GPGSV,4,3,13,26,70,275,35,27,14,268,,28,21,207,,29,41,073,41,1*6B
$GPGSV,4,4,13,31,36,229,40,1*5C
$GLGSV,2,1,08,69,06,346,36,70,11,046,26,76,41,162,50,77,78,254,31,1*75
$GLGSV,2,2,08,78,24,324,40,86,51,040,46,87,75,252,31,88,15,231,38,1*71
$GAGSV,3,1,10,02,01,128,,04,02,353,,13,13,207,,15,61,178,39,7*79
$GAGSV,3,2,10,19,04,301,,21,20,305,33,27,73,293,38,30,51,132,45,7*7E
$GAGSV,3,3,10,34,53,060,43,36,06,039,18,7*72
$GBGSV,3,1,11,02,02,101,35,05,17,123,41,08,37,056,42,13,39,067,44,1*74
$GBGSV,3,2,11,19,06,089,42,20,09,045,,24,60,261,,25,20,316,37,1*74
$GBGSV,3,3,11,26,38,180,45,29,04,062,,35,61,061,44,1*4C
$GNRMC,150029.00,A,4843.26038,N,00920.55484,E,0.032,,070225,,,A,V*1F
$GNGGA,150029.00,4843.26038,N,00920.55484,E,1,12,0.52,246.7,M,47.6,M,,*4C
$GPGSV,4,1,13,04,00,298,,05,23,053,46,09,00,325,,16,42,302,39,1*63
$GPGSV,4,2,13,18,73,142,42,20,04,025,,23,13,146,43,25,11,135,46,1*68
$GPGSV,4,3,13,26,70,275,35,27,14,268,,28,21,207,,29,41,073,43,1*69
$GPGSV,4,4,13,31,36,229,38,1*53
$GLGSV,2,1,08,69,06,346,34,70,11,046,26,76,41,162,50,77,78,254,31,1*77
$GLGSV,2,2,08,78,24,324,40,86,51,040,47,87,75,252,32,88,15,231,41,1*7D
$GAGSV,3,1,10,02,01,128,,04,02,353,,13,13,207,27,15,61,178,39,7*7C
$GAGSV,3,2,10,19,04,301,,21,20,305,32,27,73,293,41,30,51,132,46,7*72
$GAGSV,3,3,10,34,53,060,43,36,06,039,18,7*72
$GBGSV,3,1,11,02,02,101,36,05,17,123,41,08,37,056,41,13,39,067,44,1*74
$GBGSV,3,2,11,19,06,089,42,20,09,045,,24,60,261,,25,20,316,37,1*74
$GBGSV,3,3,11,26,38,180,45,29,04,062,,35,61,061,45,1*4D
$GNRMC,150030.00,A,4843.26037,N,00920.55485,E,0.005,,070225,,,A,V*1D
$GNGGA,150030.00,4843.26037,N,00920.55485,E,1,12,0.50,246.7,M,47.6,M,,*48
$GPGSV,4,1,13,04,00,298,,05,23,053,46,09,00,325,,16,42,302,39,1*63
$GPGSV,4,2,13,18,73,142,42,20,04,025,,23,13,146,41,25,11,135,46,1*6A
$GPGSV,4,3,13,26,70,275,35,27,14,268,,28,21,207,,29,41,073,41,1*6B
$GPGSV,4,4,13,31,35,228,42,1*5C
$GLGSV,2,1,08,69,06,346,27,70,11,046,28,76,41,162,50,77,78,254,31,1*7B
$GLGSV,2,2,08,78,24,324,41,86,51,040,46,87,75,252,32,88,15,231,43,1*7F
$GAGSV,3,1,10,02,01,128,,04,02,353,,13,13,207,29,15,61,178,39,7*72
$GAGSV,3,2,10,19,04,301,,21,20,305,30,27,73,293,41,30,51,132,46,7*70
$GAGSV,3,3,10,34,53,060,44,36,06,039,18,7*75
$GBGSV,3,1,11,02,02,101,35,05,17,123,42,08,37,056,41,13,39,067,44,1*74
$GBGSV,3,2,11,19,06,089,42,20,09,045,,24,60,261,,25,20,316,37,1*74
$GBGSV,3,3,11,26,38,180,44,29,04,062,,35,61,061,45,1*4C
$GNRMC,150031.00,A,4843.26036,N,00920.55487,E,0.014,,070225,,,A,V*1F
$GNGGA,150031.00,4843.26036,N,00920.55487,E,1,12,0.50,246.7,M,47.6,M,,*4A
$GPGSV,4,1,13,04,00,298,,05,23,053,46,09,00,325,,16,42,302,35,1*6F
$GPGSV,4,2,13,18,73,142,44,20,04,025,,23,13,146,42,25,11,135,46,1*6F
$GPGSV,4,3,13,26,70,275,34,27,14,268,,28,21,207,,29,41,073,41,1*6A
$GPGSV,4,4,13,31,35,228,42,1*5C
$GLGSV,2,1,08,69,06,346,28,70,11,046,28,76,41,162,50,77,78,24,32,1*77
$GLGSV,2,2,08,78,24,324,40,86,51,040,46,87,75,252,32,88,15,231,42,1*7F
$GAGSV,3,1,10,02,01,128,,04,02,353,,13,13,207,29,15,61,178,38,7*73
$GAGSV,3,2,10,19,04,301,,21,20,305,29,27,73,293,41,30,51,132,46,7*78
$GAGSV,3,3,10,34,53,060,44,36,06,039,16,7*7B
$GBGSV,3,1,11,02,02,101,35,05,17,123,42,08,37,056,41,13,39,067,45,1*75
$GBGSV,3,2,11,19,06,089,42,20,09,045,,24,60,261,,25,20,316,37,1*74
$GBGSV,3,3,11,26,38,180,44,29,04,062,,35,61,061,45,1*4C
$GNRMC,150032.00,A,4843.26036,N,00920.55489,E,0.019,,070225,,,A,V*1F
$GNGGA,150032.00,4843.26036,N,00920.55489,E,1,12,0.50,246.7,M,47.6,M,,*47
$GPGSV,4,1,13,04,00,298,,05,23,053,46,09,00,325,,16,42,302,34,1*6E
$GPGSV,4,2,13,18,73,142,42,20,04,025,,2,13,146,43,25,11,135,46,1*68
$GPGSV,4,3,13,26,70,275,30,27,14,268,,28,21,207,,29,41,073,40,1*6F
$GPGSV,4,4,13,31,35,228,42,1*5C
$GLGSV,2,1,08,69,06,346,30,70,11,046,27,76,41,162,50,77,78,254,34,1*77
$GLGSV,2,2,08,78,24,324,37,86,51,040,46,87,75,252,32,88,15,231,41,1*7C
$GAGSV,3,1,10,02,01,128,,04,02,353,,13,13,20730,15,61,178,38,7*7B
$GAGSV,3,2,10,19,04,301,,21,20,305,28,27,73,293,39,30,51,132,46,7*76
$GAGSV,3,3,10,34,53,060,44,36,06,039,13,7*7E
$GBGSV,3,1,11,02,02,101,35,05,17,123,41,08,37,056,42,13,39,067,45,1*75
$GBGSV,3,2,11,19,06,089,42,20,09,045,,24,60,261,,25,20,316,34,1*77
$GBGSV,3,3,11,26,38,180,43,29,04,062,,35,61,061,44,1*4A
$GNRMC,150033.00,A,4843.26034,N,00920.55492,E,0.024,,070225,,,A,V*18
$GNGGA,150033.00,4843.26034,N,00920.55492,E,1,12,0.50,246.7,M,47.6,M,,*4E
$GPGSV,4,1,13,04,00,298,,05,23,053,46,09,00,325,,16,42,302,34,1*6E
$GPGSV,4,2,13,18,73,142,41,20,04,025,,23,13,146,43,25,11,135,46,1*6B
$GPGSV,4,3,13,26,70,275,36,27,14,268,,28,21,207,,29,41,073,40,1*69
$GPGSV,4,4,13,31,35,228,42,1*5C
$GLGSV,2,1,08,69,06,346,33,70,11,046,27,76,41,162,50,77,78,254,34,1*74
$GLGSV,2,2,08,78,24,324,36,86,51,040,46,87,75,252,29,88,15,231,40,1*76
$GAGSV,3,1,10,02,01,128,,04,02,353,,13,13,207,29,15,61,178,39,7*72
$GAGSV,3,2,10,19,04,301,,21,20,305,25,27,73,293,40,30,51,132,46,7*75
$GAGSV,3,3,10,34,53,060,45,36,06,039,15,7*79
$GBGSV,3,1,11,02,02,101,35,05,17,123,41,08,37,056,42,13,39,067,44,1*74
$GBGSV,3,2,11,19,06,089,43,20,09,045,,24,60,261,,25,20,316,33,1*71
$GBGSV,3,3,11,26,38,180,43,29,04,062,,35,61,061,45,1*4B
$GNRMC,150034.00,A,4843.26033,N,00920.55494,E,0.010,,070225,,,A,V*19
$GNGGA,150034.00,4843.26033,N,00920.55494,E,1,12,0.50,246.7,M,47.6,M,,*48
$GPGSV,4,1,13,04,00,298,,05,23,053,45,09,00,325,,16,42,302,33,1*6A
$GPGSV,4,2,13,18,73,142,42,20,04,025,,23,13,146,43,25,11,135,46,1*68
$GPGSV,4,3,13,26,70,275,35,27,14,268,,28,21,207,,29,41,073,41,1*6B
$GPGSV,4,4,13,31,35,228,42,1*5C
$GLGSV,2,1,08,69,06,346,35,70,11,046,27,76,41,162,50,77,78,254,34,1*72
$GLGSV,2,2,08,78,24,324,36,86,51,040,46,87,75,252,28,88,15,231,41,1*76
$GAGSV,3,1,10,02,00,128,,04,02,353,,13,13,207,29,15,61,178,39,7*73
$GAGSV,3,2,10,19,04,301,,21,20,305,22,27,73,293,41,30,51,132,46,7*73
$GAGSV,3,3,10,34,53,060,45,36,06,039,18,7*74
$GBGSV,3,1,11,02,02,101,35,05,17,123,41,08,37,056,42,13,39,067,45,1*75
$GBGSV,3,2,11,19,06,089,43,20,09,045,,24,60,261,,25,20,316,32,1*70
$GBGSV,3,3,11,26,38,180,43,29,04,062,,35,61,061,45,1*4B
$GNRMC,150035.00,A,4843.26032,N,00920.55497,E,0.003,,070225,,,A,V*18
$GNGGA,150035.00,4843.26032,N,00920.55497,E,1,12,0.50,246.7,M,47.6,M,,*4B
$GPGSV,4,1,13,04,00,298,,05,23,053,45,09,00,325,,16,42,302,32,1*6B
$GPGSV,4,2,13,18,73,142,42,20,04,025,,23,13,146,44,25,11,135,46,1*6F
$GPGSV,4,3,13,26,70,275,34,27,14,268,,28,21,207,,29,41,073,40,1*6B
$GPGSV,4,4,13,31,35,228,43,1*5D
$GLGSV,2,1,08,69,06,346,35,70,11,046,27,76,41,162,50,77,78,254,34,1*72
$GLGSV,2,2,08,78,24,324,36,86,51,040,45,87,75,252,28,88,15,231,41,1*75
$GAGSV,3,1,10,02,00,128,,04,02,353,,13,13,207,30,15,61,178,39,7*7B
$GAGSV,3,2,10,19,04,301,,21,20,305,,27,73,293,40,30,51,132,47,7*73
$GAGSV,3,3,10,34,53,060,45,36,06,039,15,7*79
$GBGSV,3,1,11,02,02,101,35,05,17,123,41,08,37,056,42,13,39,067,44,1*74
$GBGSV,3,2,11,19,06,089,43,20,09,045,,24,60,261,,25,20,316,30,1*72
$GBGSV,3,3,11,26,38,180,42,29,04,062,,35,61,061,45,1*4A
$GNRMC,150036.00,A,4843.26030,N,00920.55500,E,0.011,,070225,,,A,V*15
$GNGGA,150036.00,4843.26030,N,00920.55500,E,1,12,0.52,246.7,M,47.6,M,,*47
$GPGSV,4,1,13,04,00,298,,05,23,053,46,09,00,325,,16,42,302,33,1*69
$GPGSV,4,2,13,18,73,142,42,20,04,025,,23,13,146,43,25,11,135,46,1*68
$GPGSV,4,3,13,26,70,275,34,27,14,268,,28,21,207,,29,41,073,39,1*65
$GPGSV,4,4,13,31,35,228,43,1*5D
$GLGSV,2,1,08,69,06,346,34,70,11,046,28,76,41,162,49,77,78,254,33,1*73
$GLGSV,2,2,08,78,24,324,37,86,51,040,44,87,75,252,28,88,15,231,42,1*76
$GAGSV,3,1,10,02,00,128,,04,02,352,,13,13,207,29,15,61,178,39,7*72
$GAGSV,3,2,10,19,04,301,,21,20,305,,27,73,293,41,30,51,132,45,7*70
$GAGSV,3,3,10,34,53,060,45,36,06,039,19,7*75
$GBGSV,3,1,11,02,02,101,35,05,17,123,41,08,37,056,42,13,39,067,44,1*74
$GBGSV,3,2,11,19,06,089,43,20,09,045,,24,60,261,,25,20,316,30,1*72
$GBGSV,3,3,11,26,38,180,41,29,04,062,,35,61,061,45,1*49
$GNRMC,150037.00,A,4843.26029,N,00920.55502,E,0.045,,070225,,,A,V*1F
$GNGGA,150037.00,4843.26029,N,00920.55502,E,1,12,0.52,246.7,M,47.6,M,,*4C
$GPGSV,4,1,13,04,00,298,,05,23,053,46,09,00,325,,16,42,302,33,1*69
$GPGSV,4,2,13,18,73,142,42,20,04,025,,23,13,146,43,25,11,135,45,1*6B
$GPGSV,4,3,13,26,70,275,34,27,14,268,,28,21,207,,29,41,073,38,1*64
$GPGSV,4,4,13,31,35,228,41,1*5F
$GLGSV,2,1,08,69,06,346,34,70,11,046,28,76,41,162,50,77,78,254,32,1*7A
$GLGSV,2,2,08,78,24,24,37,86,51,040,43,87,75,252,28,88,15,231,41,1*72
$GAGSV,3,1,10,02,00,128,,04,02,352,,13,13,207,29,15,61,178,39,7*72
$GAGSV,3,2,10,19,04,301,,21,20,305,,27,73,293,40,30,51,132,46,7*72
$GAGSV,3,3,10,34,53,060,45,36,06,039,19,7*75
$GBGSV,3,1,11,02,02,101,36,05,17,123,42,08,37,056,42,13,39,067,43,1*73
$GBGSV,3,2,11,19,06,089,43,20,09,045,,24,60,261,,25,20,316,29,1*7A
$GBGSV,3,3,11,26,38,180,42,29,04,062,,35,61,061,45,1*4A
$GNRMC,150038.00,A,4843.26027,N,00920.55504,E,0.003,,070225,,,A,V*1A
$GNGGA,150038.00,4843.26027,N,00920.55504,E,1,12,0.54,246.7,M,47.6,M,,*4D
$GPGSV,4,1,13,04,00,298,,05,23,053,47,09,00,325,,16,42,302,35,1*6E
$GPGSV,4,2,13,18,73,142,42,20,04,025,,23,13,146,44,25,11,135,45,1*6C
$GPGSV,4,3,13,26,70,275,35,27,14,268,,28,21,207,,29,41,073,37,1*6A
$GPGSV,4,4,13,31,35,228,42,1*5C
$GLGSV,2,1,08,69,06,346,37,70,11,046,28,76,41,162,50,77,78,254,32,1*79
$GLGSV,2,2,08,78,24,324,38,86,51,040,44,87,75,252,29,88,16,231,43,1*7A
$GAGSV,3,1,10,02,00,128,,04,02,352,,13,13,207,2915,61,178,39,7*72
$GAGSV,3,2,10,19,04,301,,21,20,305,,27,73,293,40,30,51,132,47,7*73
$GAGSV,3,3,10,34,53,060,46,36,06,039,15,7*7A
$GBGSV,3,1,11,02,02,101,36,05,17,123,41,08,37,056,42,13,39,067,43,1*70
$GBGSV,3,2,11,19,06,089,43,20,09,045,,24,60,261,,25,20,316,28,1*7B
$GBGSV,3,3,11,26,38,180,42,29,04,062,,35,61,061,46,1*49
$GNRMC,150039.00,A,4843.26025,N,00920.55508,E,0.027,,070225,,,A,V*13
$GNGGA,150039.00,4843.6025,N,00920.55508,E,1,12,0.52,246.7,M,47.6,M,,*44
$GPGSV,4,1,13,04,00,298,,05,23,053,47,09,00,325,,16,42,302,35,1*6E
$GPGSV,4,2,13,18,73,142,41,20,04,025,,23,13,146,44,25,11,135,44,1*6E
$GPGSV,4,3,13,26,70,275,35,27,14,268,,28,21,207,,29,41,073,38,1*65
$GPGSV,4,4,13,31,35,228,42,1*5C
$GLGSV,2,1,08,69,06,346,33,70,11,046,29,76,41,162,50,77,78,254,34,1*7A
$GLGSV,2,2,08,78,24,324,38,86,51,040,43,87,75,252,29,88,16,231,41,1*7F
$GAGSV,3,1,10,02,00,128,,04,02,352,,13,13,207,29,15,61,178,39,7*72
$GAGSV,3,2,10,19,04,301,,21,20,305,,27,73,293,40,30,51,132,46,7*72
$GAGSV,3,3,10,34,53,060,45,36,06,039,19,7*75
$GBGSV,3,1,11,02,02,101,36,05,17,123,41,08,37,056,42,13,39,067,43,1*70
$GBGSV,3,2,11,19,06,089,42,20,09,045,,24,60,261,,25,20,316,29,1*7B
$GBGSV,3,3,11,26,38,180,42,29,04,062,,35,61,061,45,1*4A
$GNRMC,150040.00,A,4843.26023,N,00920.55511,E,0.004,,070225,,,A,V*12
$GNGGA,150040.00,4843.26023,N,00920.55511,E,1,12,0.50,246.8,M,47.6,M,,*49
$GPGSV,4,1,13,04,00,298,,05,23,053,47,09,00,325,,16,42,302,36,1*6D
$GPGSV,4,2,13,18,73,142,41,20,04,025,,23,13,146,44,25,11,135,46,1*6C
$GPGSV,4,3,13,26,70,275,35,27,14,268,,28,21,207,,29,41,073,38,1*65
$GPGSV,4,4,13,31,35,228,42,1*5C
$GLGSV,2,1,08,69,06,346,32,70,11,046,29,76,41,162,51,77,78,254,34,1*7A
$GLGSV,2,2,08,78,24,324,39,86,51,040,42,87,75,252,30,88,16,231,39,1*78
$GAGSV,3,1,10,02,00,128,,04,02,352,,13,13,207,30,15,61,178,39,7*7A
$GAGSV,3,2,10,19,04,301,,21,20,305,,27,73,293,40,30,51,132,45,7*71
$GAGSV,3,3,10,34,53,060,45,36,06,039,21,7*7E
$GBGSV,3,1,11,02,02,101,36,05,17,123,42,08,37,056,42,13,39,067,43,1*73
$GBGSV,3,2,11,19,06,089,42,20,09,045,,24,60,261,,25,20,316,28,1*7A
$GBGSV,3,3,11,26,38,180,41,29,04,062,,35,61,061,45,1*49
$GNRMC,150041.00,A,4843.26021,N,00920.55515,E,0.016,,070225,,,A,V*16
$GNGGA,150041.00,4843.26021,N,00920.55515,E,1,12,0.50,246.8,M,47.6,M,,*4E
$GPGSV,4,1,13,04,00,298,,05,23,053,47,09,00,325,,16,42,302,36,1*6D
$GPGSV,4,2,13,18,73,142,41,20,04,025,,23,13,146,43,25,11,135,45,1*68
$GPGSV,4,3,13,26,70,275,35,27,14,268,,28,21,207,,29,41,073,38,1*65
$GPGSV,4,4,13,31,35,228,43,1*5D
$GLGSV,2,1,08,69,06,346,33,70,11,046,29,76,41,162,51,77,78,254,34,1*7B
$GLGSV,2,2,08,78,24,324,39,86,51,040,40,87,75,252,30,88,16,231,41,1*75
$GAGSV,3,1,10,02,00,128,,04,02,352,,13,13,207,31,15,61,178,39,7*7B
$GAGSV,3,2,10,19,04,301,,21,20,305,,27,73,293,40,30,51,132,45,7*71
$GAGSV,3,3,10,34,53,060,45,36,06,039,22,7*7D
$GBGSV,3,1,11,02,02,101,36,05,17,123,41,08,37,056,42,13,39,067,43,1*70
$GBGSV,3,2,11,9,06,089,43,20,09,045,,24,60,261,,25,20,316,29,1*7A
$GBGSV,3,3,11,26,38,180,41,29,04,062,,35,61,061,46,1*4A
$GNGGA,150042.00,4843.26019,N,00920.55518,E,1,12,0.52,246.8,M,47.6,M,,*49
$GPGSV,4,1,13,04,00,298,,05,23,053,47,09,00,325,,16,42,302,34,1*6F
$GPGSV,4,2,13,18,73,142,42,20,04,025,,23,13,146,44,25,11,135,45,1*6C
$GPGSV,4,3,13,26,70,275,35,27,14,268,,28,21,207,,29,41,073,38,1*65
$GPGSV,4,4,13,31,35,228,43,1*5D
$GLGSV,2,1,08,69,06,346,34,70,11,046,28,76,41,162,49,77,78,254,34,1*74
$GLGSV,2,2,08,78,24,324,39,86,51,040,41,87,75,252,30,88,16,231,41,1*74
$GAGSV,3,1,10,02,00,128,,04,02,352,,13,13,207,32,15,61,178,39,7*78
$GAGSV,3,2,10,19,04,301,,21,20,305,,27,73,293,40,30,51,132,46,7*72
$GBGSV,3,1,11,02,02,101,36,05,17,123,42,08,37,056,42,13,39,067,43,1*73
$GBGSV,3,2,11,19,06,089,43,20,09,045,,24,60,261,,25,20,316,28,1*7B
$GBGSV,3,3,11,26,38,180,41,29,04,062,,35,61,061,45,1*49
$GNRMC,150043.00,A,4843.26017,N,00920.55522,E,0.022,,070225,,,A,V*12
$GNGGA,150043.00,4843.26017,N,00920.55522,E,1,12,0.52,246.9,M,47.6,M,,*4E
$GPGSV,4,1,13,04,00,298,,05,23,053,47,09,00,325,,16,42,302,32,1*69
$GPGSV,4,2,13,18,73,142,42,20,04,025,,23,13,146,42,25,11,135,45,1*6A
$GPGSV,4,3,13,26,70,275,35,27,14,268,,28,21,207,,29,41,073,39,1*64
$GPGSV,4,4,13,31,35,228,43,1*5D
$GLGSV,2,1,08,69,06,346,34,70,11,046,28,76,41,162,51,77,78,254,34,1*7D
$GLGSV,2,2,08,78,24,324,38,86,51,040,41,87,75,252,30,88,16,231,42,1*76
$GAGSV,3,1,10,02,00,128,,04,02,352,,13,13,207,32,15,61,178,39,7*78
$GAGSV,3,2,10,19,04,301,,21,20,305,,27,73,293,39,30,51,132,46,7*7C
$GAGSV,3,3,10,34,53,060,45,36,06,039,23,7*7C
$GBGSV,3,1,11,02,02,101,36,05,17,123,42,08,37,056,42,13,39,067,44,1*74
$GBGSV,3,2,11,19,06,089,43,20,09,045,,24,60,261,,25,20,316,29,1*7A
$GBGSV,3,3,11,26,38,180,42,29,04,062,,35,61,061,46,1*49
$GNRMC,150044.00,A,4843.26015,N,00920.55525,E,0.003,,070225,,,A,V*13
$GNGGA,150044.00,4843.26015,N,00920.55525,E,1,12,0.52,246.9,M,47.6,M,,*4C
$GPGSV,4,1,13,04,00,298,,05,23,053,47,09,00,325,,16,42,302,32,1*69
$GPGSV,4,2,13,18,73,142,42,20,04,025,,23,13,146,43,25,11,135,44,1*6A
$GPGSV,4,3,13,26,70,275,36,27,14,268,,28,21,207,,29,41,073,39,1*67
$GPGSV,4,4,13,31,35,228,42,1*5C
$GLGSV,2,1,08,69,06,346,35,70,11,046,27,76,41,162,50,77,78,254,34,1*72
$GLGSV,2,2,08,78,24,324,38,86,51,040,41,87,75,252,30,88,16,231,42,1*76
$GAGSV,3,1,10,02,00,128,,04,02,352,,13,13,207,33,15,61,178,40,7*77
$GAGSV,3,2,1,19,04,301,,21,20,305,,27,73,293,39,30,51,132,46,7*7C
$GAGSV,3,3,10,34,53,060,45,36,06,039,24,7*7B
$GBGSV,3,1,11,02,02,101,36,05,17,123,42,08,37,056,42,13,39,067,44,1*74
$GBGSV,3,2,11,19,06,089,44,20,09,045,,24,60,261,,25,20,316,29,1*7D
$GBGSV,3,3,11,26,38,180,41,29,04,062,,35,61,061,46,1*4A
$GNRMC,150045.00,A,4843.26014,N,00920.55528,E,0.012,,070225,,,A,V*1E
$GNGGA,150045.00,4843.26014,N,00920.55528,E,1,12,0.52,246.9,M,47.6,M,,*41
$GPGSV,4,1,13,04,00,298,,05,23,053,47,09,00,325,,16,42,302,33,1*68
$GPGSV,4,2,13,18,73,142,43,20,04,025,,23,13,146,44,25,11,135,44,1*6C
$GPGSV,4,3,13,26,70,275,36,27,14,268,,28,21,207,,29,41,073,36,1*68
$GPGSV,4,4,13,31,35,228,42,1*5C
$GLGSV,2,1,08,69,06,346,31,70,11,046,25,76,41,162,50,77,78,254,34,1*74
$GLGSV,2,2,08,78,24,324,41,86,51,040,40,87,75,252,30,88,16,231,43,1*78
$GAGSV,3,1,10,02,00,128,,04,02,352,,13,14,207,31,15,61,178,39,7*7C
$GAGSV,3,2,10,19,04,301,,21,20,305,,27,73,293,38,30,51,132,46,7*7D
$GAGSV,3,3,10,34,53,060,45,36,06,039,25,7*7A
$GBGSV,3,1,11,02,02,10,36,05,17,123,41,08,37,056,43,13,39,067,44,1*76
$GBGSV,3,2,11,19,06,089,44,20,09,045,,24,60,261,,25,20,316,30,1*75
$GBGSV,3,3,11,26,38,180,41,29,04,062,,35,61,061,46,1*4A
$GNRMC,150046.00,A,4843.26011,N,00920.55532,E,0.035,,070225,,,A,V*16
$GNGGA,150046.00,4843.26011,N,00920.55532,E,1,12,0.52,246.9,M,47.6,M,,*4C
$GPGSV,4,1,13,04,00,298,,05,23,053,47,09,00,325,,16,42,302,35,1*6E
$GPGSV,4,2,13,18,73,142,43,20,04,025,,23,13,146,42,25,11,135,44,1*6A
$GPGSV,4,3,13,26,70,275,38,27,14,268,,28,21,207,,29,41,073,39,1*69
$GPGSV,4,4,13,31,35,228,41,1*5F
$GLGSV,2,1,08,69,06,346,31,70,11,046,25,76,41,162,50,77,78,254,33,1*73
$GLGSV,2,2,08,78,24,324,40,86,51,040,42,87,75,252,36,88,16,231,32,1*7B
$GAGSV,3,1,10,02,00,128,,04,02,352,,13,14,207,32,15,62,177,40,7*7D
$GAGSV,3,2,10,19,04,301,,21,20,305,,27,73,293,39,30,51,132,46,7*7C
$GAGSV,3,3,10,34,53,060,45,36,06,039,25,7*7A
$GBGSV,3,1,11,02,02,101,36,05,17,123,42,08,37,056,42,13,39,067,45,1*75
$GBGSV,3,2,11,19,06,089,45,20,09,045,,24,60,261,,25,20,316,34,1*70
$GBGSV,3,3,11,26,38,180,43,29,04,062,,35,61,061,46,1*48
$GNRMC,150047.00,A,4843.26010,N,00920.55535,E,0.028,,070225,,,A,V*1D
$GNGGA,150047.00,4843.26010,N,0090.55535,E,1,12,0.52,246.9,M,47.6,M,,*4B
$GPGSV,4,1,13,04,00,298,,05,23,053,48,09,00,325,,16,42,302,36,1*62
$GPGSV,4,2,13,18,73,142,43,20,04,025,,23,13,146,45,25,11,135,43,1*6A
$GPGSV,4,3,13,26,70,275,37,27,14,268,,28,21,207,,29,41,073,41,1*69
$GPGSV,4,4,13,31,35,228,40,1*5E
$GLGSV,2,1,08,69,06,346,31,70,11,046,24,76,41,162,50,77,78,254,34,1*75
$GLGSV,2,2,08,78,24,324,33,86,51,040,42,87,75,252,35,88,16,231,41,1*78
$GAGSV,3,1,10,02,00,128,,04,02,352,,13,14,207,32,15,62,177,40,7*7D
$GAGSV,3,2,10,19,04,301,,21,20,305,,27,73,293,39,30,51,132,47,7*7D
$GAGSV,3,3,10,34,53,060,45,36,06,039,25,7*7A
$GBGSV,3,1,11,02,02,101,35,05,17,123,43,08,37,056,40,13,39,067,45,1*75
$GBGSV,3,2,11,19,06,089,45,20,09,045,,24,60,261,,25,20,316,28,1*7D
$GBGSV,3,3,11,26,38,180,43,29,04,062,,35,61,061,44,1*4A
$GNRMC,150048.00,A,4843.26009,N,00920.55538,E,0.019,,070225,,,A,V*15
$GNGGA,50048.00,4843.2009,N,00920.55538,E,1,12,0.52,246.9,M,47.6,M,,*41
$GPGSV,4,1,13,04,00,298,,05,23,053,47,09,00,325,,16,42,302,37,1*6C
$GPGSV,4,2,13,18,73,142,43,20,04,025,,23,13,146,43,25,11,135,44,1*6B
$GPGSV,4,3,13,26,70,275,37,27,14,268,,28,21,207,,29,41,073,40,1*68
$GPGSV,4,4,13,31,35,228,42,1*5C
$GLGSV,2,1,08,69,06,346,25,70,11,046,24,76,41,162,51,77,78,254,36,1*73
$GLGSV,2,2,08,78,24,324,41,86,51,040,42,87,75,252,33,88,16,231,39,1*74
$GAGSV,3,1,10,02,00,128,,04,02,352,,13,14,207,33,15,62,177,39,7*72
$GAGSV,3,2,10,19,04,300,,21,20,305,29,27,73,293,39,30,51,132,46,7*76
$GAGSV,3,3,10,34,53,060,44,36,06,039,25,7*7B
$GBGSV,3,1,11,02,02,101,36,05,17,123,41,08,37,056,41,13,39,067,44,1*74
$GBGSV,3,2,11,19,06,089,45,20,09,045,,24,60,261,,25,20,316,35,1*71
$GBGSV,3,3,11,26,38,180,41,29,04,062,,35,61,061,45,1*49
$GNRMC,150049.00,A,4843.26008,N,00920.55541,E,0.025,,070225,,,A,V*14
$GNGGA,150049.00,4843.26008,N,00920.55541,E,1,12,0.50,246.9,M,47.6,M,,*4D
$GPGSV,4,1,13,04,00,298,,05,23,053,48,09,00,325,,16,42,302,37,1*63
$GPGSV,4,2,13,18,73,142,42,20,04,025,,23,13,146,45,25,11,135,44,1*6C
$GPGSV,4,3,13,26,70,275,37,27,14,268,,28,21,207,,29,41,073,41,1*69
$GPGSV,4,4,13,31,35,228,40,1*5E
$GLGSV,2,1,08,69,06,346,34,70,11,046,23,76,41,162,51,77,78,254,35,1*77
$GLGSV,2,2,08,78,24,324,39,86,51,040,41,87,75,252,33,88,16,231,39,1*78
$GAGSV,3,1,10,02,00,128,,04,02,352,,13,14,207,33,15,62,177,39,7*72
$GAGSV,3,2,10,19,04,300,,21,20,305,35,27,73,293,38,30,51,132,46,7*7A
$GAGSV,3,3,10,34,53,060,45,36,06,039,25,7*7A
$GBGSV,3,1,11,02,02,101,36,05,17,123,41,08,37,056,41,13,39,067,44,1*74
$GBGSV,3,2,11,19,06,089,45,20,09,045,,24,60,261,,25,20,316,31,1*75
$GBGSV,3,3,11,26,38,180,43,29,04,062,,35,61,061,46,1*48
$GNRMC,150050.00,A,4843.26007,N,00920.55542,E,0.016,,070225,,,A,V*10
$GNGGA,150050.00,4843.26007,N,00920.55542,E,1,12,0.50,246.8,M,47.6,M,,*48
$GPGSV,4,1,13,04,00,298,,05,23,053,48,09,00,325,,16,42,302,37,1*63
$GPGSV,4,2,13,18,73,142,43,20,04,025,,23,13,146,44,25,11,135,44,1*6C
$GPGSV,4,3,13,26,70,275,37,27,14,268,,28,21,207,,29,41,073,40,1*68
$GPGSV,4,4,13,31,35,228,40,1*5E
$GLGSV,2,1,08,69,06,346,26,70,11,046,23,76,41,162,51,77,78,254,35,1*74
$GLGSV,2,2,08,78,24,324,40,86,51,040,42,87,75,252,33,88,16,231,39,1*75
$GAGSV,3,1,10,02,00,128,,04,02,352,,13,14,207,33,15,62,177,40,7*7C
$GAGSV,3,2,10,19,04,300,,21,20,305,33,27,73,293,38,30,51,132,47,7*7D
$GAGSV,3,3,10,34,53,060,45,36,06,039,25,7*7A
$GBGSV,3,1,11,02,02,101,36,05,17,123,42,08,37,056,41,13,39,067,45,1*76
$GBGSV,3,2,11,19,06,089,45,20,09,045,,24,60,261,,25,20,316,35,1*71
$GBGSV,3,3,11,26,38,180,42,29,04,062,,35,61,061,45,1*4A
$GNRMC,150051.00,A,4843.26006,N,00920.55543,E,0.011,,070225,,,A,V*16
$GNGGA,150051.00,4843.26006,N,00920.55543,E,1,12,0.50,246.8,M,47.6,M,,*49
$GPGSV,4,1,13,04,00,298,,05,23,053,48,09,00,325,,16,42,302,38,1*6C
$GPGSV,4,2,13,18,73,142,42,20,04,025,,23,13,146,45,25,11,135,44,1*6C
$GPGSV,4,3,13,26,70,275,38,27,14,268,,28,21,207,,29,41,073,42,1*65
$GPGSV,4,4,13,31,35,228,40,1*5E
$GLGSV,2,1,08,69,06,346,28,70,11,046,22,76,41,162,51,77,78,254,34,1*7A
$GLGSV,2,2,08,78,24,324,41,86,51,040,42,87,75,252,33,88,16,231,38,1*75
$GAGSV,3,1,10,02,00,128,,04,02,352,,13,14,207,33,15,62,177,40,7*7C
$GAGSV,3,2,10,19,04,300,,21,20,305,33,27,73,293,38,30,51,132,46,7*7C
$GAGSV,3,3,10,34,53,060,45,36,06,039,25,7*7A
$GBGSV,3,1,11,02,02,101,36,05,17,123,41,08,37,056,40,13,39,067,45,1*74
$GBGSV,3,2,11,19,06,089,45,20,09,045,,24,60,261,,25,20,316,30,1*74
$GBGSV,3,3,11,26,38,180,42,29,04,062,,35,61,061,45,1*4A
$GNRMC,150052.00,A,4843.26006,N,00920.55543,E,0.022,,070225,,,A,V*15
$GNGGA,150052.00,4843.26006,N,00920.55543,E,1,12,0.50,246.8,M,47.6,M,,*4A
$GPGSV,4,1,13,04,00,298,,05,23,053,47,09,00,325,,16,42,302,37,1*6C
$GPGSV,4,2,13,18,73,142,44,20,04,025,,23,13,146,45,25,11,135,44,1*6A
$GPGSV,4,3,13,26,70,275,37,27,14,268,,28,21,207,,29,41,073,40,1*68
$GPGSV,4,4,13,31,35,228,40,1*5E
$GLGSV,2,1,08,69,06,346,27,70,11,046,22,76,41,162,52,77,78,254,34,1*76
$GLGSV,2,2,08,78,24,324,41,86,51,040,42,87,75,252,33,88,16,231,40,1*7A
$GAGSV,3,1,10,02,00,128,,04,02,352,,13,14,207,32,15,62,177,40,7*7D
$GAGSV,3,2,10,19,04,300,,21,20,305,32,27,73,293,38,30,51,132,47,7*7C
$GAGSV,3,3,10,34,53,060,45,36,06,039,25,7*7A
$GBGSV,3,1,11,02,02,101,36,05,17,123,41,08,37,056,40,13,39,067,45,1*74
$GBGSV,3,2,11,19,06,089,45,20,09,045,,24,60,261,,25,20,316,35,1*71
$GBGSV,3,3,11,26,38,180,42,29,04,062,,35,61,061,45,1*4A
$GNRMC,150053.00,A,4843.26005,N,00920.55543,E,0.005,,070225,,,A,V*12
$GNGGA,150053.00,4843.26005,N,00920.55543,E,1,12,0.50,246.8,M,47.6,M,,*48
$GPGSV,4,1,13,04,00,298,,05,23,053,47,09,00,325,,16,42,302,37,1*6C
$GPGSV,4,2,13,18,73,142,44,20,04,025,,23,13,146,45,25,11,135,44,1*6A
$GPGSV,4,3,13,26,70,275,37,27,14,268,,28,21,207,,29,41,073,40,1*68
$GPGSV,4,4,13,31,35,228,40,1*5E
$GLGSV,2,1,08,69,06,346,29,70,11,046,20,76,41,162,52,77,78,254,33,1*7D
$GLGSV,2,2,08,78,24,324,40,86,51,040,42,87,75,252,33,88,16,231,39,1*75
$GAGSV,3,1,10,02,00,128,,04,02,352,,13,14,207,32,15,62,177,40,7*7D
$GAGSV,3,2,10,19,04,300,,21,20,305,32,27,73,293,37,30,51,132,47,7*73
$GAGSV,3,3,10,34,53,060,44,36,06,039,26,7*78
$GBGSV,3,1,11,02,02,101,36,05,17,123,41,08,37,056,40,13,39,067,45,1*74
$GBGSV,3,2,11,19,06,089,45,20,09,045,,24,60,261,,25,20,316,35,1*71
$GBGSV,3,3,11,26,38,180,42,29,04,062,,35,61,061,45,1*4A
$GNRMC,150054.00,A,4843.26005,N,00920.55542,E,0.013,,070225,,,A,V*13
$GNGGA,150054.00,4843.26005,N,00920.55542,E,1,12,0.50,246.7,M,47.6,M,,*41
$GPGSV,4,1,13,04,00,298,,05,23,053,47,09,00,325,,16,42,302,37,1*6C
$GPGSV,4,2,13,18,73,142,42,20,04,025,,23,13,146,45,25,11,135,44,1*6C
$GPGSV,4,3,13,26,70,275,36,27,14,268,,28,21,207,,29,41,073,39,1*67
$GPGSV,4,4,13,31,35,228,40,1*5E
$GLGSV,2,1,08,69,06,346,29,70,11,046,20,76,41,162,52,77,78,254,32,1*7C
$GLGSV,2,2,08,78,24,324,40,86,51,040,42,87,75,252,34,88,16,231,39,1*72
$GAGSV,3,1,10,02,00,128,,04,02,352,,13,14,207,32,15,62,177,40,7*7D
$GAGSV,3,2,10,19,04,300,,21,20,305,32,27,73,292,37,30,51,132,47,7*72
$GAGSV,3,3,10,34,53,060,44,36,06,039,26,7*78
$GBGSV,3,1,11,02,02,101,36,05,17,123,41,08,37,056,40,13,39,067,45,1*74
$GBGSV,3,2,11,19,06,089,45,20,09,045,,24,60,261,,25,20,316,34,1*70
$GBGSV,3,3,11,26,38,180,42,29,04,062,,35,61,061,45,1*4A
$GNRMC,150055.00,A,4843.26004,N,00920.55542,E,0.017,,070225,,,A,V*17
$GNGGA,150055.00,4843.26004,N,00920.55542,E,1,12,0.50,246.7,M,47.6,M,,*41
$GPGSV,4,1,13,04,00,298,,05,23,053,47,09,00,325,,16,42,302,32,1*69
$GPGSV,4,2,13,18,73,142,44,20,04,025,,23,13,146,45,25,11,135,43,1*6D
$GPGSV,4,3,13,26,70,275,35,27,14,268,,28,21,207,,29,41,073,36,1*6B
$GPGSV,4,4,13,31,35,228,40,1*5E
$GLGSV,2,1,08,69,06,346,28,70,11,046,20,76,41,162,52,77,78,254,32,1*7D
$GLGSV,2,2,08,78,24,324,40,86,51,040,40,87,75,252,35,88,16,231,41,1*7E
$GAGSV,3,1,10,02,00,128,,04,02,352,,13,14,207,33,15,62,177,41,7*7D
$GAGSV,3,2,10,19,04,300,,21,20,305,31,27,73,292,37,30,51,132,47,7*71
$GBGSV,3,1,11,02,02,101,36,05,17,123,41,08,37,056,41,13,39,067,44,1*74
$GBGSV,3,2,11,19,06,089,45,20,09,045,,24,60,261,,25,20,316,33,1*77
$GBGSV,3,3,11,26,38,180,43,29,04,062,,35,61,061,46,1*48
$GNRMC,150056.00,A,4843.26003,N,00920.55542,E,0.015,,070225,,,A,V*11
$GNGGA,150056.00,4843.26003,N,00920.55542,E,1,12,0.50,246.7,M,47.6,M,,*45
$GPGSV,4,2,13,18,73,142,42,20,04,025,,23,13,146,45,25,11,135,45,1*6D
$GPGSV,4,3,13,26,70,275,36,27,14,268,,28,21,207,,29,41,073,36,1*68
$GPGSV,4,4,13,31,35,228,41,1*5F
$GLGSV,2,1,08,69,06,346,30,70,11,046,21,76,41,162,52,77,78,254,33,1*74
$GLGSV,2,2,08,78,24,324,39,86,51,040,40,87,75,252,35,88,16,231,40,1*71
$GAGSV,3,1,10,02,00,128,,04,02,352,,13,14,207,33,15,62,177,42,7*7E
$GAGSV,3,2,10,19,04,300,,21,20,305,29,27,73,292,36,30,50,133,45,7*7B
$GAGSV,3,3,10,34,53,060,47,36,06,039,26,7*7B
$GBGSV,3,1,11,02,02,101,37,05,17,123,40,08,37,056,41,13,39,067,44,1*74
$GBGSV,3,2,11,19,06,089,45,20,09,045,,24,60,261,,25,20,316,32,1*76
$GBGSV,3,3,11,26,38,180,43,29,04,062,,35,61,061,46,1*48
$GNRMC,150057.00,A,4843.26003,N,00920.55544,E,0.023,,070225,,,A,V*13
$GNGGA,150057.00,4843.26003,N,00920.55544,E,1,12,0.50,46.7,M,47.6,M,,*42
$GPGSV,4,1,13,04,00,298,,05,23,053,48,09,00,325,,16,42,302,35,1*61
$GPGSV,4,2,13,18,73,142,43,20,04,025,,23,13,146,45,25,11,135,43,1*6A
$GPGSV,4,3,13,26,70,275,35,27,14,268,,28,21,207,,29,41,073,35,1*68
$GPGSV,4,4,13,31,35,228,42,1*5C
$GLGSV,2,1,08,69,06,346,30,70,11,046,21,76,41,162,52,77,78,254,32,1*75
$GLGSV,2,2,08,78,24,324,39,86,51,040,37,87,75,252,35,88,16,231,41,1*70
$GAGSV,3,1,10,02,00,128,,04,02,352,,13,14,207,33,15,62,177,40,7*7C
$GAGSV,3,2,10,19,04,300,,21,20,305,31,27,73,292,35,30,50,133,46,7*72
$GAGSV,3,3,10,34,53,060,46,36,06,039,26,7*7A
$GBGSV,3,1,11,02,02,101,37,05,17,123,41,08,37,056,42,13,39,067,45,1*77
$GBGSV,3,2,11,19,06,089,45,20,09,045,,24,60,261,,25,20,316,31,1*75
$GBGSV,3,3,11,26,38,180,43,29,04,062,,35,61,061,46,1*48
$GNRMC,150058.00,A,4843.26002,N,00920.55545,E,0.012,,070225,,,A,V*1E
$GNGGA,150058.00,4843.26002,N,00920.55545,E,1,12,0.50,246.6,M,47.6,M,,*4C
$GPGSV,4,1,13,04,00,298,,05,23,053,48,09,00,325,,16,42,302,37,1*63
$GPGSV,4,2,13,18,73,142,43,20,04,025,,23,13,146,43,25,11,135,44,1*6B
$GPGSV,4,3,13,26,70,275,37,27,14,268,,28,21,207,,29,41,073,38,1*67
$GPGSV,4,4,13,31,35,228,42,1*5C
$GLGSV,2,1,08,69,06,346,34,70,11,046,20,76,41,162,52,77,78,254,32,1*70
$GLGSV,2,2,08,78,24,324,39,86,51,040,40,87,75,252,35,88,16,231,42,1*73
$GAGSV,3,1,10,02,00,128,,04,02,352,,13,14,207,33,15,62,177,42,7*7E
$GAGSV,3,2,10,19,04,300,,21,20,305,33,27,73,292,36,30,50,133,45,7*70
$GAGSV,3,3,10,34,53,060,46,36,06,039,26,7*7A
$GBGSV,3,1,11,02,02,101,36,05,17,123,41,08,37,056,42,13,39,067,44,1*77
$GBGSV,3,2,1,19,06,089,45,20,09,045,,24,60,261,,25,20,316,31,1*75
$GBGSV,3,3,11,26,38,180,43,29,04,062,,35,61,061,45,1*4B
$GNRMC,150059.00,A,4843.26002,N,00920.55546,E,0.022,,070225,,,A,V*1F
$GNGGA,150059.00,4843.26002,N,00920.55546,E,1,12,0.50,246.6,M,47.6,M,,*4E
$GPGSV,4,1,13,04,00,298,,05,23,053,47,09,00,325,,16,42,302,38,1*63
$GPGSV,4,2,13,18,73,142,43,20,04,025,,23,13,146,45,25,11,135,44,1*6D
$GPGSV,4,3,13,26,70,275,37,27,14,268,,28,21,207,,29,41,073,38,1*67
$GPGSV,4,4,13,31,35,228,41,1*5F
$GLGSV,2,1,08,69,06,346,29,7,11,046,18,76,41,162,52,77,78,254,31,1*74
$GLGSV,2,2,08,78,24,324,40,86,51,040,43,87,75,252,36,88,16,231,40,1*7F
$GAGSV,3,1,10,02,00,128,,04,02,352,,13,14,207,33,15,62,177,42,7*7E
$GAGSV,3,2,10,19,04,300,,21,20,305,34,27,73,292,36,30,50,133,46,7*74
$GAGSV,3,3,10,34,52,059,45,36,06,039,26,7*72
$GBGSV,3,1,11,02,02,101,36,05,17,123,41,08,37,056,42,13,39,067,46,1*75
$GBGSV,3,2,11,19,06,089,45,20,09,045,,24,60,261,,25,20,316,31,1*75
$GBGSV,3,3,11,26,38,180,42,29,04,062,,35,61,061,45,1*4A
$GNGGA,150100.00,4843.26003,N,00920.55546,E,1,12,0.50,246.5,M,47.6,M,,*41
$GPGSV,4,1,13,04,00,298,,05,23,053,48,09,00,325,,16,42,302,38,1*6C
$GPGSV,4,2,13,18,73,142,43,20,04,025,,23,13,146,44,25,11,135,44,1*6C
$GPGSV,4,3,13,26,70,275,37,27,14,268,,28,21,207,,29,41,073,40,1*68
$GPGSV,4,4,13,31,35,228,42,1*5C
$GLGSV,2,1,08,69,06,346,38,70,11,046,17,76,41,162,52,77,78,254,30,1*7A
$GLGSV,2,2,08,78,24,324,39,86,51,040,42,87,75,252,34,88,16,231,40,1*72
$GAGSV,3,1,10,02,00,128,,04,02,352,,13,14,207,33,15,62,177,42,7*7E
$GAGSV,3,2,10,19,04,300,,21,20,305,35,27,73,292,37,30,50,133,46,7*74
$GAGSV,3,3,10,34,52,059,46,36,05,039,26,7*72
$GBGSV,3,1,11,02,02,101,36,05,17,123,41,08,37,056,41,13,39,067,45,1*75
$GBGSV,3,2,11,19,06,089,44,20,09,045,,24,60,261,,25,20,316,33,1*76
$GBGSV,3,3,11,26,38,180,42,29,04,062,,35,61,061,46,1*49
$GNRMC,150101.00,A,4843.26004,N,00920.55547,E,0.011,,070225,,,A,V*14
$GNGGA,150101.00,4843.26004,N,00920.55547,E,1,12,0.50,246.4,M,47.6,M,,*47
$GPGSV,4,1,13,04,00,298,,05,23,053,47,09,00,325,,16,42,302,34,1*6F
$GPGSV,4,2,13,18,73,142,43,20,04,025,,23,13,146,45,25,11,135,43,1*6A
$GPGSV,4,3,13,26,70,275,37,27,14,268,,28,21,207,,29,41,073,40,1*68
$GPGSV,4,4,13,31,35,228,43,1*5D
$GLGSV,2,1,08,69,06,346,38,70,11,046,15,76,41,162,52,77,78,254,30,1*78
$GLGSV,2,2,08,78,24,324,36,86,51,040,42,87,75,252,34,88,16,231,41,1*7C
$GAGSV,3,1,10,02,00,128,,04,02,352,,13,14,207,32,15,62,177,41,7*7C
$GAGSV,3,2,10,19,04,300,,21,20,305,34,27,73,92,37,30,50,133,46,7*75
$GAGSV,3,3,10,34,52,059,46,36,05,039,27,7*73
$GBGSV,3,1,11,02,02,101,36,05,17,123,42,08,37,056,41,13,39,067,45,1*76
$GBGSV,3,2,11,19,06,089,44,20,09,045,,24,60,261,,25,20,316,35,1*70
$GBGSV,3,3,11,26,38,180,42,29,04,062,,35,61,061,46,1*49
$GNRMC,150102.00,A,4843.26004,N,00920.55549,E,0.003,,070225,,,A,V*1A
$GNGGA,150102.00,4843.26004,N,00920.55549,E,1,12,0.50,46.4,M,47.6,M,,*4A
$GPGSV,4,1,13,04,00,298,,05,23,053,47,09,00,325,,16,42,302,34,1*6F
$GPGSV,4,2,13,18,73,142,43,20,04,025,,23,13,146,46,25,11,135,43,1*69
$GPGSV,4,3,13,26,70,275,37,27,14,268,,28,21,207,,29,41,073,40,1*68
$GPGSV,4,4,13,31,35,228,43,1*5D
$GLGSV,2,1,08,69,06,346,38,70,11,046,15,76,41,162,52,77,78,254,30,1*78
$GLGSV,2,2,08,78,24,324,36,86,51,040,43,87,75,252,33,88,16,231,42,1*79
$GAGSV,3,1,10,02,00,128,,04,02,352,,13,14,207,32,15,62,177,41,7*7C
$GAGSV,3,2,10,19,04,300,,21,20,305,34,27,73,292,37,30,50,133,46,7*75
$GAGSV,3,3,10,34,52,059,45,36,05,039,27,7*70
$GBGSV,3,1,11,02,02,101,36,05,17,123,41,08,37,056,41,13,39,067,45,1*75
$GBGSV,3,2,11,19,06,089,43,20,09,045,,24,60,261,,25,20,316,35,1*77
$GBGSV,3,3,11,26,38,180,42,29,04,062,,35,61,061,46,1*49
$GNRMC,150103.00,A,4843.26004,N,00920.55550,E,0.012,,070225,,,A,V*13
$GNGGA,150103.00,4843.26004,N,00920.55550,E,1,12,0.50,246.4,M,47.6,M,,*43
$GPGSV,4,1,13,04,00,298,,05,23,053,47,09,00,325,,16,42,302,34,1*6F
$GPGSV,4,2,13,18,73,142,45,20,04,025,,23,13,146,45,25,11,135,43,1*6C
$GPGSV,4,3,13,26,70,275,36,27,14,268,,28,21,207,,29,41,073,40,1*69
$GPGSV,4,4,13,31,35,228,43,1*5D
$GLGSV,2,1,08,69,06,346,37,70,11,046,13,76,41,162,52,77,78,254,30,1*71
$GLGSV,2,2,08,78,24,324,37,86,51,040,42,87,75,252,32,88,16,231,42,1*78
$GAGSV,3,1,10,02,00,128,,04,02,352,,13,14,207,32,15,62,177,41,7*7C
$GAGSV,3,2,10,19,04,300,,21,20,305,34,27,73,292,37,30,50,133,46,7*75
$GAGSV,3,3,10,34,52,059,46,36,05,039,27,7*73
$GBGSV,3,1,11,02,02,101,36,05,17,123,42,08,37,056,41,13,39,067,45,1*76
$GBGSV,3,2,11,19,06,089,43,20,09,045,,24,60,261,,25,20,316,34,1*76
$GBGSV,3,3,11,26,38,180,43,29,04,062,,35,61,061,46,1*48
$GNRMC,150104.00,A,4843.26004,N,00920.55552,E,0.017,,070225,,,A,V*13
$GNGGA,150104.00,4843.26004,N,00920.55552,E,1,12,0.50,246.4,M,47.6,M,,*46
$GPGSV,4,1,13,04,00,298,,05,23,053,47,09,00,325,,16,42,302,34,1*6F
$GPGSV,4,2,13,18,73,142,45,20,04,025,,23,13,146,44,25,11,135,43,1*6D
$GPGSV,4,3,13,26,70,275,35,27,14,268,,28,21,207,,29,41,073,40,1*6A
$GPGSV,4,4,13,31,35,228,43,1*5D
$GLGSV,2,1,08,69,06,346,36,70,11,046,13,76,41,162,52,77,78,254,30,1*70
$GLGSV,2,2,08,78,24,324,37,86,51,040,40,87,75,252,32,88,16,231,42,1*7A
$GAGSV,3,1,10,02,00,128,,04,02,352,,13,14,207,33,15,62,177,42,7*7E
$GAGSV,3,2,10,19,04,300,,21,20,305,34,27,73,292,37,30,50,133,46,7*75
$GAGSV,3,3,10,34,52,059,47,36,05,039,28,7*7D
$GBGSV,3,1,11,02,02,101,37,05,17,123,42,08,37,056,41,13,39,067,5,1*77
$GBGSV,3,2,11,19,06,089,42,20,09,045,,24,60,261,,25,20,316,33,1*70
$GBGSV,3,3,11,26,38,180,43,29,04,062,,35,61,061,46,1*48
$GNRMC,150105.00,A,4843.26004,N,00920.55554,E,0.021,,070225,,,A,V*11
$GNGGA,150105.00,4843.26004,N,00920.55554,E,1,12,0.50,246.3,M,47.6,M,,*46
$GPGSV,4,1,13,04,00,298,,05,23,053,47,09,00,325,,16,42,302,35,1*6E
$GPGSV,,2,13,18,73,14244,20,04,025,,23,13,146,45,25,11,135,44,1*6A
$GPGSV,4,3,13,26,70,275,33,27,14,268,,28,21,207,,29,41,073,38,1*63
$GPGSV,4,4,13,31,35,228,43,1*5D
$GLGSV,2,1,08,69,06,346,36,70,11,046,16,76,41,162,52,77,78,254,31,1*74
$GLGSV,2,2,08,78,24,324,36,86,51,040,42,87,75,252,32,88,16,231,42,1*79
$GAGSV,3,1,10,02,00,128,,04,02,352,,13,14,207,33,15,62,177,41,7*7D
$GAGSV,3,2,10,19,04,300,,21,20,305,33,27,73,292,35,30,50,133,46,7*70
$GAGSV,3,3,10,34,52,059,46,36,05,039,28,7*7C
$GBGSV,3,1,11,02,02,101,36,05,17,123,41,08,37,056,41,13,39,067,45,1*75
$GBGSV,3,2,11,19,06,089,41,20,09,045,,24,60,261,,25,20,316,34,1*74
$GBGSV,3,3,11,26,38,180,43,29,04,062,,35,61,061,46,1*48
$GNRMC,150106.00,A,4843.26004,N,00920.55556,E,0.005,,070225,,,A,V*16
$GNGGA,150106.00,4843.26004,N,00920.55556,E,1,12,0.50,246.3,M,47.6,M,,*47
$GPGSV,4,1,13,04,00,298,,05,23,053,47,09,00,325,,16,42,302,35,1*6E
$GPGSV,4,2,13,18,73,142,45,20,04,025,,23,13,146,46,25,11,135,44,1*68
$GPGSV,4,3,13,26,70,275,33,27,14,268,,28,21,207,,29,41,073,38,1*63
$GPGSV,4,4,13,31,35,228,43,1*5D
$GLGSV,2,1,08,69,06,346,39,70,11,046,14,76,41,162,52,77,78,254,32,1*7A
$GLGSV,2,2,08,78,24,324,37,86,51,040,42,87,75,252,32,88,16,231,43,1*79
$GAGSV,3,1,10,02,00,128,,04,02,352,,13,14,207,32,15,62,177,41,7*7C
$GAGSV,3,2,10,19,04,300,,21,20,305,33,27,73,292,35,30,50,133,46,7*70
$GAGSV,3,3,10,34,52,059,46,36,05,039,28,7*7C
$GBGSV,3,1,11,02,02,101,36,05,17,123,41,08,37,056,42,13,39,067,45,1*76
$GBGSV,3,2,11,19,06,089,43,20,09,045,,24,60,261,,25,20,316,32,1*70
$GBGSV,3,3,11,26,38,180,43,29,04,062,,35,61,061,46,1*48
$GNRMC,150107.00,A,4843.26004,N,00920.55558,E,0.026,,070225,,,A,V*18
$GNGGA,150107.00,4843.26004,N,00920.55558,E,1,12,0.50,246.2,M,47.6,M,,*49
$GPGSV,4,1,13,04,00,298,,05,23,053,47,09,00,325,,16,42,302,36,1*6D
$GPGSV,4,2,13,18,73,142,45,20,04,025,,23,13,146,45,25,11,135,44,1*6B
$GPGSV,4,3,13,26,70,275,32,27,14,268,,28,21,207,,29,41,073,39,1*63
$GPGSV,4,4,13,31,35,228,44,1*5A
$GLGSV,2,1,08,69,06,346,37,70,11,046,19,76,41,162,52,77,78,254,33,1*78
$GLGSV,2,2,08,78,24,324,37,86,51,040,42,87,75,252,33,88,16,231,43,1*78
$GAGSV,3,1,10,02,00,128,,04,02,352,,13,14,207,31,15,62,177,41,7*7F
$GAGSV,3,2,10,19,04,300,,21,20,305,33,27,73,292,33,30,50,133,46,7*76
