$GNRMC,050000.00,A,4843.26124,N,00920.55301,E,0.010,,080225,,,A,V*1C
$GNGGA,050000.00,4843.26124,N,00920.55301,E,1,12,0.51,248.3,M,47.6,M,,*49
$GPGSV,3,1,12,05,60,261,,07,32,061,50,08,08,050,,09,00,109,,1*63
$GPGSV,3,2,12,13,55,294,40,14,44,144,44,15,20,296,36,18,13,320,34,1*68
$GPGSV,3,3,12,20,44,203,43,22,29,162,41,27,03,018,,30,68,065,46,1*6B
$GLGSV,3,1,10,70,58,117,35,71,66,330,45,72,17,313,,73,60,184,45,1*7B
$GLGSV,3,2,10,74,16,201,33,79,04,031,26,80,54,047,46,86,00,259,11,1*7B
$GLGSV,3,3,10,87,13,300,36,88,09,355,,1*78
$GAGSV,4,1,14,04,71,304,39,06,45,291,28,09,21,288,38,10,11,229,,7*70
$GAGSV,4,2,14,11,21,255,37,12,01,210,,19,45,097,37,21,44,076,45,7*74
$GAGSV,4,3,14,23,39,10,46,27,09,032,,29,01,103,,31,03,186,,7*77
$GAGSV,4,4,14,34,01,351,,36,21,307,38,7*7E
$GBGSV,3,1,09,02,00,103,,05,16,123,39,07,16,070,40,09,12,061,40,1*7F
$GBGSV,3,2,09,10,17,083,43,19,04,311,,20,50,304,38,23,64,079,46,1*7E
$GBGSV,3,3,09,25,16,048,43,1*44
$GNRMC,050001.00,A,4843.26124,N,00920.55302,E,0.005,,080225,,,A,V*1A
$GNGGA,050001.00,4843.26124,N,00920.55302,E,1,12,0.51,248.2,M,47.6,M,,*4A
$GPGSV,3,1,12,05,60,261,,07,32,061,50,08,08,050,,09,00,109,,1*63
$GPGSV,3,2,12,13,55,294,41,14,44,144,44,15,20,296,36,18,13,320,34,1*69
$GPGSV,3,3,12,20,44,203,43,22,29,162,39,27,03,018,,30,68,065,46,1*64
$GLGSV,3,1,10,70,58,117,35,71,66,330,44,72,17,313,,73,60,184,45,1*7A
$GLGSV,3,2,10,74,16,201,34,79,04,031,26,80,54,047,46,86,00,259,12,1*7F
$GLGSV,3,3,10,87,13,300,37,88,09,355,,1*79
$GAGSV,4,1,14,04,71,304,39,06,45,291,28,09,21,288,38,10,11,229,,7*70
$GAGSV,4,2,14,11,21,255,37,12,01,210,,19,45,097,37,21,44,076,45,7*74
$GAGSV,4,3,14,23,39,150,46,27,09,032,,29,01,103,,31,03,186,,7*77
$GAGSV,4,4,14,34,01,351,,36,21,307,38,7*7E
$GBGSV,3,1,09,02,00,103,,05,16,123,39,07,16,070,41,09,12,061,40,1*7E
$GBGSV,3,2,09,10,17,083,43,19,04,311,,20,50,304,38,23,64,079,46,1*7E
$GBGSV,3,3,09,25,16,048,43,1*44
$GNRMC,050002.00,A,4843.26124,N,00920.55303,E,0.016,,080225,,,A,V*1A
$GNGGA,050002.00,4843.26124,N,00920.55303,E,1,12,0.51,248.1,M,47.6,M,,*4B
$GPGSV,3,1,12,05,60,261,,07,32,061,50,08,08,050,,09,00,109,,1*63
$GPGSV,3,2,12,13,55,294,41,14,44,144,44,15,20,296,36,18,13,320,34,1*69
$GPGSV,3,3,12,20,44,203,43,22,29,162,39,27,03,018,,30,68,065,45,1*67
$GLGSV,3,1,10,70,58,117,34,71,66,330,44,72,17,313,,73,60,184,45,1*7B
$GLGSV,3,2,10,74,16,201,34,79,04,031,25,80,54,047,46,86,00,259,13,1*7D
$GLGSV,3,3,10,87,13,300,37,88,09,355,,1*79
$GAGSV,4,1,14,04,71,304,39,06,45,291,28,09,21,288,38,10,11,229,,7*70
$GAGSV,4,2,14,11,21,255,37,12,01,210,,19,45,097,37,21,44,076,45,7*74
$GAGSV,4,3,14,23,39,150,46,27,09,032,,29,01,103,,31,03,186,,7*77
$GAGSV,4,4,14,34,01,351,,36,21,307,37,7*71
$GBGSV,3,1,09,02,00,103,,05,16,123,39,07,16,070,41,09,12,061,40,1*7E
$GBGSV,3,2,09,10,17,083,43,19,04,311,,20,50,304,38,23,64,079,46,1*7E
$GBGSV,3,3,09,25,16,048,43,1*44
$GNRMC,050003.00,A,4843.26123,N,00920.55304,E,0.010,,080225,,,A,V*1D
$GNGGA,050003.00,4843.26123,N,00920.55304,E,1,12,0.51,247.9,M,47.6,M,,*4D
$GPGSV,3,1,12,05,60,261,,07,32,061,50,08,08,050,,09,00,109,,1*63
$GPGSV,3,2,12,13,55,294,41,14,44,144,44,15,20,296,37,18,13,320,33,1*6F
$GPGSV,3,3,12,20,44,203,43,22,29,162,39,27,03,018,,30,68,065,45,1*67
$GLGSV,3,1,10,70,58,117,35,71,66,330,44,72,17,313,,73,60,184,44,1*7B
$GLGSV,3,2,10,74,16,201,34,79,04,031,25,80,54,047,46,86,00,259,11,1*7F
$GLGSV,3,3,10,87,13,300,37,88,09,355,,1*79
$GAGSV,4,1,14,04,71,304,39,06,45,291,28,09,21,288,39,10,11,229,,7*71
$GAGSV,4,2,14,11,21,255,38,12,01,210,,19,45,097,37,21,44,076,45,7*7B
$GAGSV,4,3,14,23,39,150,46,27,09,032,,29,01,103,,31,03,186,,7*77
$GAGSV,4,4,14,34,01,351,,36,21,307,38,7*7E
$GBGSV,3,1,09,02,00,103,,05,16,123,39,07,16,070,41,09,12,061,40,1*7E
$GBGSV,3,2,09,10,17,083,43,19,04,311,,20,50,304,38,23,64,079,46,1*7E
$GBGSV,3,3,09,25,16,048,43,1*44
$GNRMC,050005.00,A,4843.26122,N,00920.55305,E,0.010,,080225,,,A,V*1B
$GNGGA,050005.00,4843.26122,N,00920.55305,E,1,12,0.51,247.6,M,47.6,M,,*44
$GPGSV,3,1,12,05,60,261,,07,32,061,50,08,08,050,,09,00,109,,1*63
$GPGSV,3,2,12,13,55,294,41,14,44,144,44,15,20,296,36,18,13,320,32,1*6F
$GPGSV,3,3,12,20,44,203,43,22,29,162,38,27,03,018,,30,68,065,45,1*66
$GLGSV,3,1,09,70,58,117,35,71,66,330,43,72,17,313,,73,60,184,43,1*73
$GLGSV,3,2,09,74,16,201,34,79,04,031,25,80,54,047,46,87,13,300,37,1*7D
$GLGSV,3,3,09,88,09,355,,1*4B
$GAGSV,4,1,14,04,71,304,39,06,45,291,28,09,21,288,38,10,11,229,,7*70
$GAGSV,4,2,14,11,21,255,38,12,01,210,,19,45,097,36,21,44,076,46,7*79
$GAGSV,4,3,14,23,39,150,46,27,09,032,,29,01,103,,31,03,186,,7*77
$GAGSV,4,4,14,34,01,351,,36,21,307,38,7*7E
$GBGSV,3,1,09,02,00,103,,05,16,123,39,07,16,070,40,09,12,061,40,1*7F
$GBGSV,3,2,09,10,17,083,43,19,04,311,,20,50,304,38,23,64,079,46,1*7E
$GBGSV,3,3,09,25,16,048,43,1*44
$GNRMC,050006.00,A,4843.26121,N,00920.55305,E,0.013,,080225,,,A,V*18
$GNGGA,050006.00,4843.26121,N,00920.55305,E,1,12,0.51,247.4,M,47.6,M,,*46
$GPGSV,3,1,12,05,60,261,,07,32,061,50,08,08,050,,09,00,109,,1*63
$GPGSV,3,2,12,13,55,294,41,14,44,144,44,15,20,296,36,18,13,320,32,1*6F
$GPGSV,3,3,12,20,44,203,43,22,29,62,38,27,03,018,,30,68,065,45,1*66
$GLGSV,3,1,09,70,58,117,35,71,66,330,43,72,17,313,31,73,60,184,43,1*71
$GLGSV,3,2,09,74,16,201,33,79,04,031,25,80,54,047,46,87,12,299,37,1*7A
$GLGSV,3,3,09,88,09,355,,1*4B
$GAGSV,4,1,14,04,71,304,39,06,45,291,27,09,21,288,38,10,11,229,,7*7F
$GAGSV,4,2,14,11,21,255,38,12,01,210,,19,45,097,36,21,44,076,46,7*79
$GAGSV,4,3,14,23,39,150,46,27,09,032,,29,01,103,,31,03,186,,7*77
$GAGSV,4,4,14,34,01,351,,36,21,307,38,7*7E
$GBGSV,3,1,09,02,00,103,,05,16,123,39,07,16,070,40,09,12,061,40,1*7F
$GBGSV,3,2,09,10,17,083,43,19,04,311,,20,50,304,38,23,64,079,46,1*7E
$GBGSV,3,3,09,25,16,048,43,1*44
$GNRMC,050007.00,A,4843.26120,N,00920.55306,E,0.009,,080225,,,A,V*10
$GNGGA,050007.00,4843.26120,N,00920.55306,E,1,12,0.50,247.3,M,47.6,M,,*43
$GPGSV,3,1,12,05,60,261,,07,32,061,49,08,08,050,,09,00,109,,1*6B
$GPGSV,3,2,12,13,55,294,41,14,44,144,45,15,20,296,36,18,13,320,32,1*6E
$GPGSV,3,3,12,20,44,203,43,22,29,162,38,27,03,018,,30,68,065,45,1*66
$GLGSV,3,1,09,70,58,117,35,71,66,330,43,72,17,313,31,73,60,184,43,1*71
$GLGSV,3,2,09,74,16,201,34,79,04,031,24,80,54,047,46,87,12,299,38,1*73
$GLGSV,3,3,09,88,09,355,,1*4B
$GAGSV,4,2,14,11,21,255,38,12,01,210,,19,45,097,36,21,44,076,45,7*7A
$GAGSV,4,3,14,23,39,150,46,27,09,032,,29,01,103,,31,03,186,,7*77
$GAGSV,4,4,14,34,01,351,,36,21,307,38,7*7E
$GBGSV,3,1,09,02,00,103,,05,16,123,39,07,16,070,40,09,12,061,40,1*7F
$GBGSV,3,2,09,10,17,083,43,19,04,311,,20,50,304,38,23,64,079,46,1*7E
$GBGSV,3,3,09,25,16,048,43,1*44
$GNRMC,050008.00,A,4843.26119,N,00920.55307,E,0.008,,080225,,,A,V*15
$GNGGA,050008.00,4843.26119,N,00920.55307,E,1,12,0.50,247.2,M,47.6,M,,*46
$GPGSV,3,1,12,05,60,261,,07,32,061,49,08,08,050,,09,00,109,,1*6B
$GPGSV,3,2,12,13,55,294,41,14,44,144,45,15,20,296,36,18,13,320,32,1*6E
$GPGSV,3,3,12,20,44,203,43,22,29,162,38,27,03,018,,30,68,065,45,1*66
$GLGSV,3,1,09,70,58,117,35,71,66,330,43,72,17,313,31,73,60,184,42,1*70
$GLGSV,3,2,09,74,16,201,33,79,04,031,23,80,54,047,46,87,12,299,37,1*7C
$GLGSV,3,3,09,88,09,355,,1*4B
$GAGSV,4,1,14,04,71,304,38,06,45,291,27,09,21,288,38,10,11,229,,7*7E
$GAGSV,4,2,14,11,21,255,37,12,01,210,,19,45,097,36,21,44,076,45,7*75
$GAGSV,4,3,14,23,39,150,46,27,09,032,,29,01,103,,31,03,186,,7*77
$GAGSV,4,4,14,34,01,351,,36,21,307,38,7*7E
$GBGSV,3,1,09,02,00,103,,05,16,123,39,07,16,070,40,09,12,061,40,1*7F
$GBGSV,3,2,09,10,17,083,43,19,04,311,,20,50,304,38,23,64,079,46,1*7E
$GBGSV,3,3,09,25,16,048,43,1*44
$GNRMC,050009.00,A,4843.26117,N,00920.55307,E,0.021,,080225,,,A,V*11
$GNGGA,050009.00,4843.26117,N,00920.55307,E,1,12,0.50,247.2,M,47.6,M,,*49
$GPGSV,3,1,12,05,60,261,,07,32,061,49,08,08,050,,09,00,109,,1*6B
$GPGSV,3,2,12,13,55,294,42,14,44,144,45,15,20,296,36,18,13,320,32,1*6D
$GPGSV,3,3,12,20,44,203,43,22,29,162,39,27,03,018,,30,68,065,45,1*67
$GLGSV,3,1,09,70,58,117,36,71,66,330,42,72,17,313,31,73,60,184,42,1*72
$GLGSV,3,2,09,74,16,201,34,79,04,031,23,80,54,047,46,87,12,299,38,1*74
$GLGSV,3,3,09,88,09,355,,1*4B
$GAGSV,4,1,14,04,71,304,39,06,45,291,27,09,21,288,38,10,11,229,,7*7F
$GAGSV,4,2,14,11,21,255,37,12,01,210,,19,45,097,36,21,44,076,45,7*75
$GAGSV,4,3,14,23,39,150,46,27,09,032,,29,01,103,,31,03,186,,7*77
$GAGSV,4,4,14,34,01,351,,36,21,307,38,7*7E
$GBGSV,3,1,09,02,00,103,,05,16,123,39,07,16,070,40,09,12,061,40,1*7F
$GBGSV,3,2,09,10,17,083,43,19,04,311,,20,50,304,38,23,64,079,46,1*7E
$GBGSV,3,3,09,25,16,048,43,1*44
$GNRMC,050010.00,A,4843.26114,N,00920.55308,E,0.015,,080225,,,A,V*12
$GNGGA,050010.00,4843.26114,N,00920.55308,E,1,12,0.50,247.2,M,47.6,M,,*4D
$GPGSV,3,1,12,05,60,261,,07,32,061,49,08,08,050,,09,00,109,,1*6B
$GPGSV,3,2,12,13,55,294,42,14,44,144,45,15,20,296,36,18,13,320,32,1*6D
$GPGSV,3,3,12,20,44,203,43,22,29,162,38,27,03,018,,30,68,065,45,1*66
$GLGSV,3,1,09,70,57,118,36,71,66,330,42,72,17,313,32,73,60,184,42,1*71
$GLGSV,3,2,09,74,16,202,34,79,04,031,24,80,54,047,46,87,12,299,38,1*70
$GLGSV,3,3,09,88,09,355,,1*4B
$GAGSV,4,1,14,04,71,304,38,06,45,291,27,09,21,288,38,10,11,229,,7*7E
$GAGSV,4,2,14,11,21,255,38,12,01,210,,19,45,097,36,21,44,076,45,7*7A
$GAGSV,4,3,14,23,39,150,46,27,09,032,,29,01,103,,31,03,186,,7*77
$GAGSV,4,4,14,34,01,351,,36,21,307,38,7*7E
$GBGSV,3,2,09,10,17,083,43,19,04,311,,20,50,304,38,23,64,079,46,1*7E
$GBGSV,3,3,09,25,16,048,43,1*44
$GNRMC,050011.00,A,4843.26111,N,00920.55309,E,0.006,,080225,,,A,V*15
$GNGGA,050011.00,4843.26111,N,00920.55309,E,1,12,0.50,247.1,M,47.6,M,,*4B
$GPGSV,3,1,12,05,60,261,,07,32,061,49,08,08,050,,09,00,109,,1*6B
$GPGSV,3,2,12,13,55,294,42,14,44,144,45,15,20,296,36,18,13,320,32,1*6D
$GPGSV,3,3,12,20,44,203,43,22,29,162,38,27,03,018,,30,68,065,45,1*66
$GLGSV,3,1,09,70,57,118,36,71,66,330,42,72,17,313,32,73,60,184,42,1*71
$GLGSV,3,2,09,74,16,202,34,79,04,031,24,80,54,047,46,87,12,299,37,1*7F
$GLGSV,3,3,09,88,09,355,,1*4B
$GAGSV,4,1,14,04,71,304,38,06,45,291,26,09,21,288,38,10,11,229,,7*7F
$GAGSV,4,2,14,11,21,255,38,12,01,210,,19,45,097,36,21,44,076,46,7*79
$GAGSV,4,3,14,23,39,150,46,27,09,032,,29,01,103,,31,03,186,,7*77
$GAGSV,4,4,14,34,01,351,,36,21,307,38,7*7E
$GBGSV,3,1,09,02,00,103,,05,16,123,39,07,16,070,40,09,12,061,40,1*7F
$GBGSV,3,2,09,10,17,083,43,19,04,311,,20,50,304,38,23,64,079,46,1*7E
$GBGSV,3,3,09,25,16,048,43,1*44
$GNRMC,050012.00,A,4843.26108,N,00920.55312,E,0.012,,080225,,,A,V*11
$GNGGA,050012.00,4843.26108,N,00920.55312,E1,12,0.50,247.0,M,47.6,M,,*4B
$GPGSV,3,1,12,05,60,261,,07,32,061,49,08,08,050,,09,00,109,,1*6B
$GPGSV,3,2,12,13,55,294,42,14,44,144,45,15,20,296,36,18,13,320,33,1*6C
$GPGSV,3,3,12,20,44,203,43,22,29,162,39,27,03,018,,30,68,065,44,1*66
$GLGSV,3,1,09,70,57,118,36,71,66,330,42,72,17,313,31,73,60,184,42,1*72
$GLGSV,3,2,09,74,16,202,34,79,04,031,23,80,54,047,45,87,12,299,37,1*7B
$GLGSV,3,3,09,88,09,355,,1*4B
$GAGSV,4,1,14,04,71,304,38,06,45,291,25,09,21,288,38,10,11,229,,7*7C
$GAGSV,4,2,14,11,21,255,38,12,01,210,,19,45,097,35,21,44,076,46,7*7A
$GAGSV,4,3,14,23,39,150,46,27,09,032,,29,01,103,,31,03,186,,7*77
$GAGSV,4,4,14,34,01,351,,36,21,307,38,7*7E
$GBGSV,3,1,09,02,00,103,,05,16,123,39,07,16,070,40,09,12,061,40,1*7F
$GBGSV,3,2,09,10,17,083,43,19,04,311,,20,50,304,38,23,64,079,46,1*7E
$GBGSV,3,3,09,25,16,048,43,1*44
$GNRMC,050013.00,A,4843.26105,N,00920.55314,E,0.009,,080225,,,A,V*11
$GNGGA,050013.00,4843.26105,N,00920.55314,E,1,12,0.50,247.0,M,47.6,M,,*41
$GPGSV,3,1,12,05,60,259,,07,32,061,49,08,08,050,,09,00,109,,1*60
$GPGSV,3,2,12,13,55,294,42,14,44,144,45,15,20,296,37,18,13,320,32,1*6C
$GPGSV,3,3,12,20,44,203,43,22,29,162,39,27,03,018,,30,68,065,44,1*66
$GLGSV,3,1,09,70,57,118,36,71,66,330,42,72,17,313,31,73,60,184,42,1*72
$GLGSV,3,2,09,74,16,202,34,79,04,031,23,80,54,047,45,87,12,299,36,1*7A
$GLGSV,3,3,09,88,09,355,,1*4B
$GAGSV,4,1,14,04,71,304,38,06,45,291,25,09,21,288,38,10,11,229,,7*7C
$GAGSV,4,2,14,11,21,255,38,12,01,210,,19,45,097,35,21,44,076,46,7*7A
$GAGSV,4,3,14,23,39,150,45,27,09,032,,29,01,103,,31,03,186,,7*74
$GAGSV,4,4,14,34,01,351,,36,21,307,38,7*7E
$GBGSV,3,1,09,02,00,103,,05,16,123,39,07,16,070,40,09,12,061,40,1*7F
$GBGSV,3,2,09,10,17,083,43,19,04,311,,20,50,304,38,23,64,079,46,1*7E
$GBGSV,3,3,09,25,16,048,43,1*44
$GNRMC,050014.00,A,4843.26103,N,00920.55318,E,0.014,,080225,,,A,V*10
$GNGGA,050014.00,4843.26103,N,00920.55318,E,1,12,0.50,247.0,M,47.6,M,,*4C
$GPGSV,3,1,12,05,60,259,,07,32,061,49,08,08,050,,09,00,109,,1*60
$GPGSV,3,2,12,13,55,294,42,14,44,144,45,15,20,296,37,18,13,320,32,1*6C
$GPGSV,3,3,12,20,44,203,43,22,29,162,38,27,03,018,,30,68,065,44,1*67
$GLGSV,3,1,09,70,57,118,36,71,66,330,41,72,17,313,31,73,60,184,41,1*72
$GLGSV,3,2,09,74,16,202,34,79,04,031,22,80,54,047,45,87,12,299,36,1*7B
$GLGSV,3,3,09,88,09,355,,1*4B
$GAGSV,4,1,14,04,71,304,38,06,45,291,26,09,21,28,38,10,11,229,,7*7F
$GAGSV,4,2,14,11,21,255,37,12,01,210,,19,45,097,35,21,44,076,46,7*75
$GAGSV,4,3,14,23,39,150,45,27,09,032,,29,01,103,,31,03,186,,7*74
$GAGSV,4,4,14,34,01,351,,36,21,307,38,7*7E
$GBGSV,3,1,09,02,00,103,,05,16,123,39,07,16,070,40,09,12,061,40,1*7F
$GBGSV,3,2,09,10,17,083,43,19,04,311,,20,50,304,38,23,64,079,46,1*7E
$GBGSV,3,3,09,25,16,048,43,1*44
$GNRMC,050015.00,A,4843.26101,N,00920.55322,E,0.029,,080225,,,A,V*14
$GNGGA,050015.00,4843.26101,N,00920.55322,E,1,12,0.50,247.0,M,47.6,M,,*46
$GPGSV,3,1,12,05,60,259,,07,31,061,49,08,08,050,,09,00,109,,1*63
$GPGSV,3,2,12,13,55,294,42,14,44,144,45,15,20,296,37,18,13,320,32,1*6C
$GPGSV,3,3,12,20,44,203,43,22,29,162,38,27,03,018,,30,68,065,44,1*67
$GLGSV,3,1,09,70,57,118,36,71,66,330,41,72,17,313,30,73,60,184,41,1*73
$GLGSV,3,2,09,74,16,202,34,79,04,031,21,80,54,047,44,87,12,299,35,1*7A
$GLGSV,3,3,09,88,09,355,,1*4B
$GAGSV,4,1,14,04,71,304,38,06,45,291,27,09,21,288,38,10,11,229,,7*7E
$GAGSV,4,2,14,11,21,255,37,12,01,210,,19,45,097,34,21,44,076,46,7*74
$GAGSV,4,3,14,23,39,150,45,27,09,032,,29,01,103,,31,03,186,,7*74
$GAGSV,4,4,14,34,01,351,,36,21,307,38,7*7E
$GBGSV,3,1,09,02,00,103,,05,16,123,39,07,16,070,40,09,12,061,40,1*7F
$GBGSV,3,2,09,10,17,083,43,19,04,311,,20,50,304,38,23,64,079,46,1*7E
$GBGSV,3,3,09,25,16,048,43,1*44
$GNRMC,050016.00,A,4843.26100,N,00920.55325,E,0.005,,080225,,,A,V*1F
$GNGGA,050016.00,4843.26100,N,00920.55325,E,1,12,0.51,247.0,M,47.6,M,,*42
$GPGSV,3,1,12,05,60,259,,07,31,061,49,08,08,049,,09,00,109,,1*6B
$GPGSV,3,2,12,13,55,294,42,14,44,144,45,15,20,296,37,18,13,320,32,1*6C
$GPGSV,3,3,12,20,44,203,43,22,29,162,38,27,03,018,,30,68,065,44,1*67
$GLGSV,3,1,09,70,57,118,35,71,66,330,41,72,17,313,31,73,60,184,41,1*71
$GLGSV,3,2,09,74,16,202,33,79,04,031,22,80,54,047,44,87,12,299,34,1*7F
$GLGSV,3,3,09,88,09,355,,1*4B
$GAGSV,4,1,14,04,71,304,38,06,45,291,27,09,21,288,38,10,11,229,,7*7E
$GAGSV,4,2,14,11,21,255,37,12,01,210,,19,45,097,33,21,44,076,45,7*70
$GAGSV,4,3,14,23,39,150,45,27,09,032,,29,01,103,,31,03,186,,7*74
$GAGSV,4,4,14,34,01,351,,36,21,307,38,7*7E
$GBGSV,3,1,09,02,00,103,,05,16,123,39,07,16,070,40,09,12,061,40,1*7F
$GBGSV,3,2,09,10,17,083,43,19,04,311,,20,50,304,38,23,64,079,46,1*7E
$GBGSV,3,3,09,25,16,048,43,1*44
$GNRMC,050017.00,A,4843.26097,N,00920.55327,E,0.016,,080225,,,A,V*11
$GNGGA,050017.00,4843.26097,N,00920.55327,E,1,12,0.50,246.9,M,47.6,M,,*47
$GPGSV,3,1,12,05,60,259,,07,31,061,49,08,08,049,,09,00,109,,1*6B
$GPGSV,3,2,12,13,55,294,42,14,44,144,45,15,20,296,37,18,13,320,32,1*6C
$GPGSV,3,3,12,20,44,203,43,22,29,162,39,27,03,018,,30,68,065,44,1*66
$GLGSV,3,1,09,70,57,118,35,71,66,330,41,72,17,313,30,73,60,184,42,1*73
$GLGSV,3,2,09,74,16,202,33,79,04,031,22,80,54,047,43,87,12,299,33,1*7F
$GLGSV,3,3,09,88,09,355,,1*4B
$GAGSV,4,1,14,04,71,304,38,06,45,291,27,09,21,288,38,10,11,229,,7*7E
$GAGSV,4,2,14,11,21,255,37,12,01,210,,19,45,097,33,21,44,076,45,7*70
$GAGSV,4,3,14,23,39,150,45,27,09,032,,29,01,103,,31,03,186,,7*74
$GAGSV,4,4,14,34,01,351,,36,21,307,38,7*7E
$GBGSV,3,1,09,02,00,103,,05,16,123,39,07,16,070,41,09,12,061,40,1*7E
$GBGSV,3,2,09,10,17,083,43,19,04,311,,20,50,304,38,23,64,079,46,1*7E
$GBGSV,3,3,09,25,16,048,43,1*44
$GNRMC,050018.00,A,4843.26094,N,00920.55330,E,0.014,,080225,,,A,V*19
$GNGGA,050018.00,4843.26094,N,00920.55330,E,1,12,0.50,247.0,M,47.6,M,,*45
$GPGSV,3,1,12,05,60,259,,07,31,061,49,08,08,049,,09,00,109,,1*6B
$GPGSV,3,2,12,13,55,294,42,14,44,144,45,15,20,296,37,18,13,320,32,1*6C
$GPGSV,3,3,12,20,44,203,43,22,29,162,39,27,03,018,,30,68,065,44,1*66
$GLGSV,3,1,09,70,57,118,35,71,66,330,41,72,17,313,30,73,60,184,42,1*73
$GLGSV,3,2,09,74,16,202,34,79,04,031,22,80,54,047,43,87,12,299,33,1*78
$GLGSV,3,3,09,88,09,355,,1*4B
$GAGSV,4,1,14,04,71,304,38,06,45,291,27,09,21,288,38,10,11,229,,7*7E
$GAGSV,4,2,14,11,21,255,37,12,01,210,,19,45,097,32,21,44,076,45,7*71
$GAGSV,4,3,14,23,39,150,45,27,09,032,,29,01,103,,31,03,186,,7*74
$GAGSV,4,4,14,34,01,351,,36,21,307,38,7*7E
$GBGSV,3,1,09,02,00,103,,05,16,123,39,07,16,070,41,09,12,061,40,1*7E
$GBGSV,3,2,09,10,17,083,43,19,04,311,,20,50,304,38,23,64,079,46,1*7E
$GBGSV,3,3,09,25,16,048,43,1*44
$GNRMC,050019.00,A,4843.26093,N,00920.55332,E,0.002,,080225,,,A,V*1A
$GNGGA,050019.00,4843.26093,N,00920.55332,E,1,12,0.50,247.0,M,47.6,M,,*41
$GPGSV,3,1,12,05,60,259,,07,31,061,49,08,08,049,,09,00,109,,1*6B
$GPGSV,3,2,12,13,55,294,42,14,44,144,45,15,20,296,37,18,13,320,31,1*6F
$GPGSV,3,3,12,20,44,203,43,22,29,162,39,27,03,018,,30,68,065,43,1*61
$GLGSV,3,1,09,70,57,118,36,71,66,330,41,72,17,313,29,73,60,184,42,1*78
$GLGSV,3,2,09,74,16,202,33,79,04,031,22,80,54,047,42,87,12,299,33,1*7E
$GLGSV,3,3,09,88,09,355,,1*4B
$GAGSV,4,1,14,04,71,304,38,06,45,291,26,09,21,288,38,10,11,229,,7*7F
$GAGSV,4,2,14,11,21,255,37,12,01,210,,19,45,097,32,21,44,076,46,7*72
$GAGSV,4,3,14,23,39,150,44,27,09,032,,29,01,103,,31,03,186,,7*75
$GAGSV,4,4,14,34,01,351,,36,21,307,38,7*7E
$GBGSV,3,1,09,02,00,103,,05,16,123,39,07,16,070,41,09,12,061,40,1*7E
$GBGSV,3,2,09,10,17,083,43,19,04,311,,20,50,304,38,23,64,079,46,1*7E
$GBGSV,3,3,09,25,16,048,43,1*44
$GNRMC,050020.00,A,4843.26093,N,00920.55333,E,0.022,,080225,,,A,V*13
$GNGGA,050020.00,4843.26093,N,00920.55333,E,1,12,0.51,247.1,M,47.6,M,,*4A
$GPGSV,3,1,12,0,60,259,,07,31,061,49,08,08,049,,09,00,109,,1*6B
$GPGSV,3,2,12,13,55,294,42,14,44,144,45,15,20,296,38,18,13,320,30,1*61
$GPGSV,3,3,12,20,44,203,44,22,29,162,40,27,03,018,,30,68,065,44,1*6F
$GLGSV,3,1,09,70,57,118,36,71,66,330,42,72,17,313,28,73,60,184,42,1*7A
$GLGSV,3,2,09,74,16,202,33,79,04,031,22,80,54,047,42,87,12,299,33,1*7E
$GLGSV,3,3,09,88,09,355,,1*4B
$GAGSV,4,1,14,04,71,304,38,06,45,291,25,09,21,288,38,10,11,229,,7*7C
$GAGSV,4,2,14,11,21,255,37,12,01,210,,19,45,097,31,21,44,076,46,7*71
$GAGSV,4,3,14,23,39,150,44,27,09,032,,29,01,103,,31,03,186,,7*75
$GAGSV,4,4,14,34,01,351,,36,21,307,38,7*7E
$GBGSV,3,1,09,02,00,103,,05,16,123,39,07,16,070,40,09,12,061,40,1*7F
$GBGSV,3,2,09,10,17,083,43,19,04,311,,20,50,304,38,23,64,079,46,1*7E
$GBGSV,3,3,09,25,16,048,43,1*44
$GNRMC,050021.00,A,4843.26092,N,00920.55334,E,0.016,,080225,,,A,V*13
$GNGGA,050021.00,4843.26092,N,00920.55334,E,1,12,0.51,247.1,M,47.6,M,,*4D
$GPGSV,3,1,12,05,60,259,,07,31,061,48,08,08,049,,09,00,109,,1*6A
$GPGSV,3,2,12,13,56,295,42,14,44,144,46,15,20,296,37,18,13,320,30,1*6F
$GPGSV,3,3,12,20,44,203,44,22,29,162,41,27,03,018,,30,68,065,43,1*69
$GLGSV,3,1,09,70,57,118,36,71,66,330,42,72,17,313,25,73,60,184,41,1*74
$GLGSV,3,2,09,74,16,202,33,79,04,031,22,80,54,047,42,87,12,299,34,1*79
$GLGSV,3,3,09,88,09,355,,1*4B
$GAGSV,4,1,14,04,71,304,38,06,45,291,25,09,21,288,38,10,11,229,,7*7C
$GAGSV,4,2,14,11,21,255,37,12,01,210,,19,45,097,30,21,44,076,46,7*70
$GAGSV,4,3,14,23,39,150,44,27,09,032,,29,01,103,,31,03,186,,7*75
$GAGSV,4,4,14,34,01,351,,36,21,307,38,7*7E
$GBGSV,3,1,09,02,00,103,,05,16,123,39,07,16,070,41,09,12,061,39,1*70
$GBGSV,3,2,09,10,17,083,43,19,04,311,,20,50,304,38,23,64,079,45,1*7D
$GBGSV,3,3,09,25,16,048,43,1*44
$GNRMC,050022.00,A,4843.26090,N,00920.55334,E,0.003,,080225,,,A,V*16
$GNGGA,050022.00,4843.26090,N,00920.55334,E,1,12,0.51,247.1,M,47.6,M,,*4C
$GPGSV,3,1,12,05,60,259,,07,31,061,48,08,08,049,,09,00,109,,1*6A
$GPGSV,3,2,12,13,56,295,42,14,45,143,46,15,20,296,38,18,13,320,29,1*6E
$GPGSV,3,3,12,20,44,203,44,22,29,162,41,27,03,018,,30,68,065,43,1*69
$GLGSV,3,1,09,70,57,118,36,71,66,330,43,72,17,313,23,73,60,184,41,1*73
$GLGSV,3,2,09,74,16,202,33,79,04,031,20,80,54,047,42,87,12,299,34,1*7B
$GLGSV,3,3,09,88,09,355,,1*4B
$GAGSV,4,1,14,04,71,304,38,06,45,291,24,09,21,288,38,10,11,229,,7*7D
$GAGSV,4,2,14,11,21,255,37,12,01,210,,19,45,097,29,21,44,076,46,7*78
$GAGSV,4,3,14,23,39,150,44,27,09,032,,29,01,103,,31,03,186,,7*75
$GAGSV,4,4,14,34,01,351,,36,21,307,38,7*7E
$GBGSV,3,1,09,02,00,103,,05,16,123,39,07,16,070,40,09,12,061,39,1*71
$GBGSV,3,2,09,10,17,083,43,19,04,311,,20,50,304,38,23,64,079,45,1*7D
$GBGSV,3,3,09,25,16,048,43,1*44
$GNRMC,050023.00,A,4843.26091,N,00920.55333,E,0.003,,080225,,,A,V*11
$GNGGA,050023.00,4843.26091,N,00920.55333,E,1,12,0.51,247.2,M,47.6,M,,*48
$GPGSV,3,1,12,05,60,259,,07,31,061,48,08,08,049,,09,00,109,,1*6A
$GPGSV,3,2,12,13,56,295,42,14,45,143,46,15,20,296,38,18,13,320,29,1*6E
$GPGSV,3,3,12,20,44,203,44,22,29,162,41,27,03,018,,30,68,065,43,1*69
$GLGSV,3,1,09,70,57,118,36,71,66,330,43,72,17,313,21,73,60,184,41,1*71
$GLGSV,3,2,09,74,16,202,33,79,04,031,20,80,54,047,42,87,12,299,35,1*7A
$GLGSV,3,3,09,88,09,355,,1*4B
$GAGSV,4,1,14,04,71,304,38,06,45,291,24,09,21,288,38,10,11,229,,7*7D
$GAGSV,4,2,14,11,21,255,36,12,01,210,,19,45,097,29,21,44,076,46,7*79
$GAGSV,4,3,14,23,39,150,43,27,09,032,,29,01,103,,31,03,186,,7*72
$GAGSV,4,4,14,34,01,351,,36,21,307,37,7*71
$GBGSV,3,1,09,02,00,103,,05,16,123,39,07,16,070,40,09,12,061,39,1*71
$GBGSV,3,2,09,10,17,083,43,19,04,311,,20,50,304,38,23,64,079,45,1*7D
$GBGSV,3,3,09,25,16,048,43,1*44
$GNRMC,050024.00,A,4843.26094,N,00920.55332,E,0.013,,080225,,,A,V*13
$GNGGA,050024.00,4843.26094,N,00920.55332,E,1,12,0.51,247.3,M,47.6,M,,*4A
$GPGSV,3,1,12,05,60,259,,07,31,061,48,08,08,049,,09,00,109,,1*6A
$GPGSV,3,2,12,13,56,295,42,14,45,143,46,15,20,296,38,18,13,320,29,1*6E
$GPGSV,3,3,12,20,44,203,44,22,29,162,41,27,03,018,,30,68,065,43,1*69
$GLGSV,3,1,09,70,57,118,36,71,66,330,44,72,17,313,19,73,60,184,41,1*7D
$GLGSV,3,2,09,74,16,202,33,79,04,031,18,80,54,047,42,87,12,299,35,1*71
$GLGSV,3,3,09,88,09,355,,1*4B
$GAGSV,4,1,14,04,71,304,38,06,45,291,25,09,21,288,38,10,11,229,,7*7C
$GAGSV,4,2,14,11,21,255,37,12,01,210,,19,45,097,28,21,44,076,46,7*79
$GAGSV,4,3,14,23,39,150,43,27,09,032,,29,01,103,,31,03,186,,7*72
$GAGSV,4,4,14,34,01,351,,36,21,307,37,7*71
$GBGSV,3,1,09,02,00,103,,05,16,123,39,07,16,070,40,09,12,061,39,1*71
$GBGSV,3,2,09,10,17,083,43,19,04,311,,20,50,304,38,23,64,079,45,1*7D
$GBGSV,3,3,09,25,16,048,43,1*44
$GNRMC,050025.00,A,4843.26097,N,00920.55332,E,0.019,,080225,,,A,V*1B
$GNGGA,050025.00,4843.26097,N,00920.55332,E,1,12,0.52,247.5,M,47.6,M,,*4D
$GPGSV,3,1,12,05,60,259,,07,31,061,48,08,08,049,,09,00,109,,1*6A
$GPGSV,3,2,12,13,56,295,42,14,45,143,46,15,20,296,38,18,13,320,30,1*66
$GPGSV,3,3,12,20,44,203,44,22,29,162,41,27,03,018,,30,68,065,43,1*69
$GLGSV,3,1,09,70,57,118,36,71,66,330,44,72,17,313,17,73,60,184,41,1*73
$GLGSV,3,2,09,74,16,202,33,79,04,031,19,80,54,047,42,87,12,299,35,1*70
$GLGSV,3,3,09,88,09,355,,1*4B
$GAGSV,4,1,14,04,71,304,38,06,45,291,26,09,21,288,38,10,11,229,,7*7F
$GAGSV,4,2,14,11,21,255,36,12,01,210,,19,45,097,28,21,44,075,46,7*7B
$GAGSV,4,3,14,23,39,150,43,27,09,032,,29,01,103,,31,03,186,,7*72
$GAGSV,4,4,14,34,01,351,,36,21,307,37,7*71
$GBGSV,3,1,09,02,00,103,,05,16,123,39,07,16,070,40,09,12,061,39,1*71
$GBGSV,3,2,09,10,17,083,43,19,04,311,,20,50,304,38,23,64,079,45,1*7D
$GBGSV,3,3,09,25,16,048,43,1*44
$GNRMC,050026.00,A,4843.26096,N,00920.55331,E,0.007,,080225,,,A,V*15
$GNGGA,050026.00,4843.26096,N,00920.55331,E,1,12,0.51,247.5,M,47.6,M,,*4F
$GPGSV,3,1,12,05,60,259,,07,31,061,48,08,08,049,,09,00,109,,1*6A
$GPGSV,3,2,12,13,56,295,42,14,45,143,46,15,20,296,38,18,13,320,30,1*66
$GPGSV,3,3,12,20,44,203,44,22,29,162,42,27,03,018,,30,68,065,43,1*6A
$GLGSV,3,1,09,70,57,118,36,71,66,330,44,72,17,313,18,73,60,184,41,1*7C
$GLGSV,3,2,09,74,16,202,33,79,04,031,19,80,54,047,42,87,12,299,35,1*70
$GLGSV,3,3,09,88,09,355,,1*4B
$GAGSV,4,1,14,04,71,304,38,06,45,291,27,09,21,288,38,10,11,229,,7*7E
$GAGSV,4,2,14,11,21,255,36,12,01,210,,19,45,097,28,21,44,075,46,7*7B
$GAGSV,4,3,14,23,39,150,43,27,09,032,,29,01,103,,31,03,186,,7*72
$GAGSV,4,4,14,34,01,351,,36,21,307,37,7*71
$GBGSV,3,1,09,02,00,103,,05,16,123,39,07,16,070,40,09,12,061,39,1*71
$GBGSV,3,2,09,10,17,083,43,19,04,311,,20,50,304,38,23,64,079,45,1*7D
$GBGSV,3,3,09,25,16,048,43,1*44
$GNRMC,050027.00,A,4843.26092,N,00920.55329,E,0.009,,080225,,,A,V*17
$GNGGA,050027.00,4843.26092,N,00920.55329,E,1,12,0.51,247.6,M,47.6,M,,*40
$GPGSV,3,1,12,05,60,259,,07,31,061,48,08,08,049,,09,00,109,,1*6A
$GPGSV,3,2,12,13,56,295,42,14,45,143,46,15,20,296,38,18,13,320,31,1*67
$GPGSV,3,3,12,20,44,203,44,22,29,162,43,27,03,018,,30,68,065,43,1*6B
$GLGSV,3,1,09,70,57,118,36,71,66,330,44,72,17,313,21,73,60,184,40,1*77
$GLGSV,3,2,09,74,16,202,33,79,04,031,19,80,54,047,43,87,12,299,35,1*71
$GLGSV,3,3,09,88,09,355,,1*4B
$GAGSV,4,1,14,04,71,304,38,06,45,291,28,09,21,288,38,10,11,229,,7*71
$GAGSV,4,2,14,11,21,255,36,12,01,210,,19,45,097,28,21,44,075,46,7*7B
$GAGSV,4,3,14,23,39,150,43,27,09,032,,29,01,103,,31,03,186,,7*72
$GAGSV,4,4,14,34,01,351,,36,21,307,37,7*71
$GBGSV,3,1,09,02,00,103,,05,16,123,40,07,16,070,40,09,12,061,39,1*7F
$GBGSV,3,2,0910,17,083,43,19,04,311,,20,50,304,38,23,64,079,45,1*7D
$GBGSV,3,3,09,25,16,048,43,1*44
$GNRMC,050028.00,A,4843.26089,N,00920.55328,E,0.016,,080225,,,A,V*1D
$GNGGA,050028.00,4843.26089,N,00920.55328,E,1,12,0.51,247.6,M,47.6,M,,*44
$GPGSV,3,1,12,05,60,259,,07,31,061,48,08,08,049,,09,00,109,,1*6A
$GPGSV,3,2,12,13,56,295,41,14,45,143,46,15,20,296,38,18,13,320,31,1*64
$GPGSV,3,3,12,20,43,202,44,22,29,162,43,27,03,018,,30,68,065,43,1*6D
$GLGSV,3,1,09,70,57,118,36,71,66,330,44,72,17,313,23,73,60,184,40,1*75
$GLGSV,3,2,09,74,16,202,33,79,04,031,19,80,54,047,43,87,12,299,35,1*71
$GLGSV,3,3,09,88,09,355,,1*4B
$GAGSV,4,1,14,04,71,304,38,06,45,291,28,09,21,288,38,10,11,229,,7*71
$GAGSV,4,2,14,11,21,255,36,12,01,210,,19,45,097,28,21,44,075,46,7*7B
$GAGSV,4,3,14,23,39,150,43,27,09,032,,29,01,103,,31,03,186,,7*72
$GAGSV,4,4,14,34,01,351,,36,21,307,37,7*71
$GBGSV,3,1,09,02,00,103,,05,16,123,39,07,16,070,40,09,12,061,39,1*71
$GBGSV,3,2,09,10,17,083,43,19,04,311,,20,50,304,38,23,64,079,45,1*7D
$GBGSV,3,3,09,25,16,048,43,1*44
$GNRMC,050029.00,A,4843.26090,N,00920.55328,E,0.015,,080225,,,A,V*17
$GNGGA,050029.00,4843.26090,N,00920.55328,E,1,12,0.51,247.7,M,47.6,M,,*4C
$GPGSV,3,1,12,05,60,259,,07,31,061,48,08,08,049,,09,00,109,,1*6A
$GPGSV,3,2,1213,56,295,41,14,45,143,46,15,20,296,39,18,13,320,31,1*65
$GPGSV,3,3,12,20,43,202,44,22,30,162,43,27,03,018,,30,68,065,43,1*65
$GLGSV,3,1,09,70,57,118,37,71,66,330,44,72,17,313,25,73,60,184,40,1*72
$GLGSV,3,2,09,74,16,202,33,79,04,031,18,80,54,047,43,87,12,299,35,1*70
$GLGSV,3,3,09,88,09,355,,1*4B
$GAGSV,4,1,14,04,71,304,38,06,45,291,29,09,21,288,38,10,11,229,,7*70
$GAGSV,4,2,14,11,21,255,36,12,01,210,,19,45,097,28,21,44,075,46,7*7B
$GAGSV,4,3,14,23,39,150,43,27,09,032,,29,01,103,,31,03,186,,7*72
$GAGSV,4,4,14,34,01,351,,36,21,307,37,7*71
$GBGSV,3,1,09,02,00,103,,05,16,123,39,07,16,070,40,09,12,061,39,1*71
$GBGSV,3,2,09,10,17,083,43,19,04,311,,20,50,304,38,23,64,079,45,1*7D
$GBGSV,3,3,09,25,16,048,43,1*44
$GNRMC,050030.00,A,4843.26091,N,00920.55328,E,0.012,,080225,,,A,V*19
$GNGGA,050030.00,4843.26091,N,00920.55328,E,1,12,0.51,247.8,M,47.6,M,,*4A
$GPGSV,3,1,12,05,60,259,,07,31,061,48,08,08,049,,09,00,109,,1*6A
$GPGSV,3,2,12,13,56,295,41,14,45,143,46,15,20,296,39,18,13,320,32,1*66
$GPGSV,3,3,12,20,43,202,44,22,30,162,44,27,03,018,,30,68,065,43,1*62
$GLGSV,3,1,09,70,57,118,37,71,66,330,44,72,17,313,25,73,60,184,40,1*72
$GLGSV,3,2,09,74,16,202,32,79,04,031,19,80,54,047,42,87,12,299,36,1*72
$GLGSV,3,3,09,88,09,355,,1*4B
$GAGSV,4,1,14,04,71,304,38,06,45,291,29,09,21,288,38,10,11,229,,7*70
$GAGSV,4,2,14,11,21,255,36,12,01,210,,19,45,097,28,21,44,075,46,7*7B
$GAGSV,4,3,14,23,39,150,43,27,09,032,,29,01,103,,31,03,186,,7*72
$GAGSV,4,4,14,34,01,351,,36,21,307,37,7*71
$GBGSV,3,1,09,02,00,103,,05,16,123,40,07,16,070,40,09,12,061,39,1*7F
$GBGSV,3,2,09,10,17,083,43,19,04,311,,20,50,304,38,23,64,079,45,1*7D
$GBGSV,3,3,09,25,16,048,43,1*44
$GNRMC,050031.00,A,4843.26092,N,00920.55331,E,0.007,,080225,,,A,V*17
$GNGGA,050031.00,4843.26092,N,00920.55331,E,1,12,0.51,247.8,M,47.6,M,,*40
$GPGSV,3,1,12,05,60,259,,07,31,061,48,08,08,049,,09,00,109,,1*6A
$GPGSV,3,2,12,13,56,295,41,14,45,143,45,15,20,296,39,18,13,320,32,1*65
$GPGSV,3,3,12,20,43,202,44,22,30,162,44,27,03,018,,30,68,065,43,1*62
$GLGSV,3,1,09,70,57,118,37,71,66,330,44,72,17,313,25,73,60,184,39,1*7C
$GLGSV,3,2,09,74,16,202,32,79,04,031,18,80,54,047,42,87,12,299,37,1*72
$GLGSV,3,3,09,88,09,355,,1*4B
$GAGSV,4,1,14,04,71,304,38,06,45,291,29,09,21,288,38,10,11,229,,7*70
$GAGSV,4,2,14,11,21,255,36,12,01,210,,19,45,097,28,21,44,075,46,7*7B
$GAGSV,4,3,14,23,39,150,42,27,09,032,,29,01,103,,31,03,186,,7*73
$GAGSV,4,4,14,34,01,351,,36,21,307,37,7*71
$GBGSV,3,1,09,02,00,103,,05,16,123,39,07,16,070,40,09,12,061,38,1*70
$GBGSV,3,2,09,10,17,083,42,19,04,311,,20,50,304,38,23,64,079,45,1*7C
$GBGSV,3,3,09,25,16,048,43,1*44
$GNRMC,050032.00,A,4843.26094,N,00920.55331,E,0.008,,080225,,,A,V*1D
$GNGGA,050032.00,4843.26094,N,00920.55331,E,1,12,0.51,247.9,M,47.6,M,,*44
$GPGSV,3,1,12,05,60,259,,07,31,061,48,08,08,049,,09,00,109,,1*6A
$GPGSV,3,2,12,13,56,295,41,14,45,143,45,15,20,296,39,18,13,320,32,1*65
$GPGSV,3,3,12,20,43,202,44,22,30,162,44,27,03,018,,30,68,065,43,1*62
$GLGSV,3,1,09,70,57,118,37,71,66,330,44,72,17,313,24,73,60,184,39,1*7D
$GLGSV,3,2,09,74,16,202,32,79,04,031,17,80,54,047,42,87,12,299,37,1*7D
$GLGSV,3,3,09,88,09,355,,1*4B
$GAGSV,4,1,14,04,71,304,38,06,45,291,29,09,21,288,38,10,11,229,,7*70
$GAGSV,4,2,14,11,21,255,37,12,01,210,,19,45,097,28,21,44,075,46,7*7A
$GAGSV,4,3,14,23,39,150,42,27,09,032,,29,01,103,,31,03,186,,7*73
$GAGSV,4,4,14,34,01,351,,36,21,307,38,7*7E
$GBGSV,3,1,09,02,00,103,,05,16,123,39,07,16,070,40,09,12,061,38,1*70
$GBGSV,3,2,09,10,17,083,43,19,04,311,,20,50,304,38,23,64,079,45,1*7D
$GBGSV,3,3,09,25,16,048,43,1*44
$GNRMC,050033.00,A,4843.26093,N,00920.55332,E,0.012,,080225,,,A,V*13
$GNGGA,050033.00,4843.26093,N,00920.55332,E,1,12,0.51,248.0,M,47.6,M,,*47
$GPGSV,3,1,12,05,60,259,,07,31,061,48,08,08,049,,09,00,109,,1*6A
$GPGSV,3,2,12,13,56,295,41,14,45,143,45,15,20,296,39,18,13,320,32,1*65
$GPGSV,3,3,12,20,43,202,44,22,30,162,44,27,03,018,,30,68,065,43,1*62
$GLGSV,3,1,09,70,57,118,37,71,66,330,44,72,17,313,24,73,60,184,39,1*7D
$GLGSV,3,2,09,74,16,202,32,79,04,031,17,80,54,047,42,87,12,299,38,1*72
$GLGSV,3,3,09,88,09,355,,1*4B
$GAGSV,4,1,14,04,71,304,38,06,45,291,29,09,21,288,38,10,11,229,,7*70
$GAGSV,4,2,14,11,21,255,36,12,01,210,,19,45,097,29,21,44,075,46,7*7A
$GAGSV,4,3,14,23,39,150,43,27,09,032,,29,01,103,,31,03,186,,7*72
$GAGSV,4,4,14,34,01,351,,36,21,307,37,7*71
$GBGSV,3,1,09,02,00,103,,05,16,123,40,07,16,070,40,09,12,061,38,1*7E
$GBGSV,3,2,09,10,17,083,42,19,04,311,,20,50,304,38,23,64,079,44,1*7D
$GBGSV,3,3,09,25,16,048,43,1*44
$GNRMC,050034.00,A,4843.26093,N,00920.55335,E,0.004,,080225,,,A,V*14
$GNGGA,050034.00,4843.26093,N,00920.55335,E,1,12,0.51,248.0,M,47.6,M,,*47
$GPGSV,3,1,12,05,60,259,,07,31,061,48,08,08,049,,09,00,109,,1*6A
$GPGSV,3,2,12,13,56,295,41,14,45,143,45,15,20,296,39,18,13,320,33,1*64
$GPGSV,3,3,12,20,43,202,44,22,30,162,45,27,02,017,,30,68,065,43,1*6D
$GLGSV,3,1,09,70,57,118,38,71,66,330,45,72,17,313,24,73,60,184,38,1*72
$GLGSV,3,2,09,74,16,202,31,79,04,031,16,80,54,047,42,87,12,299,38,1*70
$GLGSV,3,3,09,88,09,355,,1*4B
$GAGSV,4,1,14,04,71,304,38,06,45,291,29,09,21,288,38,10,11,229,,7*70
$GAGSV,4,2,14,11,21,255,36,12,01,210,,19,45,097,29,21,44,075,46,7*7A
$GAGSV,4,3,14,23,39,150,43,27,09,032,,29,01,103,,31,03,186,,7*72
$GAGSV,4,4,14,34,01,351,,36,21,307,37,7*71
$GBGSV,3,1,09,02,00,103,,05,16,123,39,07,16,070,40,09,12,061,38,1*70
$GBGSV,3,2,09,10,17,083,42,19,04,311,,20,50,304,38,23,64,079,44,1*7D
$GBGSV,3,3,09,25,16,048,43,1*44
$GNRMC,050035.00,A,4843.26094,N,00920.55339,E,0.007,,080225,,,A,V*1D
$GNGGA,050035.00,4843.26094,N,00920.55339,E,1,12,0.51,248.1,M,47.6,M,,*4C
$GPGSV,3,1,12,05,60,259,,07,31,061,48,08,08,049,,09,00,109,,1*6A
$GPGSV,3,2,12,13,56,295,40,14,45,143,45,15,20,296,39,18,13,320,33,1*65
$GPGSV,3,3,12,20,43,202,44,22,30,162,45,27,02,017,,30,68,065,43,1*6D
$GLGSV,3,1,09,70,57,118,38,71,66,330,45,72,17,313,24,73,60,184,38,1*72
$GLGSV,3,2,09,74,16,202,32,79,04,031,14,80,54,047,2,87,12,299,38,1*71
$GLGSV,3,3,09,88,09,355,,1*4B
$GAGSV,4,1,14,04,71,304,38,06,45,291,29,09,21,288,38,10,11,229,,7*70
$GAGSV,4,2,14,11,21,255,36,12,01,210,,19,45,097,30,21,44,075,46,7*72
$GAGSV,4,3,14,23,39,150,43,27,09,032,,29,01,103,,31,03,186,,7*72
$GAGSV,4,4,14,34,01,351,,36,21,307,37,7*71
$GBGSV,3,1,09,02,00,103,,05,16,123,40,07,16,070,40,09,12,061,38,1*7E
$GBGSV,3,2,09,10,17,083,42,19,04,311,,20,50,304,38,23,64,079,45,1*7C
$GBGSV,3,3,09,25,16,048,42,1*45
$GNRMC,050036.00,A,4843.26094,N,00920.55342,E,0.012,,080225,,,A,V*16
$GNGGA,050036.00,4843.26094,N,00920.55342,E,1,12,0.51,248.2,M,47.6,M,,*40
$GPGSV,3,1,12,05,60,259,,07,31,061,48,08,08,049,,09,00,109,,1*6A
$GPGSV,3,2,12,13,56,295,40,14,45,143,45,15,20,296,40,18,13,320,33,1*6B
$GPGSV,3,3,12,20,43,202,44,22,30,162,45,27,02,017,,30,68,065,43,1*6D
$GLGSV,3,1,09,70,57,118,38,71,66,330,45,72,17,313,25,73,60,184,38,1*73
$GLGSV,3,2,09,74,16,202,32,79,04,031,10,80,54,047,41,87,12,299,38,1*76
$GLGSV,3,3,09,88,09,355,,1*4B
$GAGSV,4,1,14,04,71,304,38,06,45,291,28,09,21,288,38,10,11,229,,7*71
$GAGSV,4,2,14,11,21,255,36,12,01,210,,19,45,097,30,21,44,075,46,7*72
$GAGSV,4,3,14,23,39,150,43,27,09,032,,29,01,103,,31,03,186,,7*72
$GAGSV,4,4,14,34,01,351,,36,21,307,37,7*71
$GBGSV,3,1,09,02,00,103,,05,16,123,40,07,16,070,40,09,12,061,37,1*71
$GBGSV,3,2,09,10,17,083,42,19,04,311,,20,50,304,38,23,64,079,45,1*7C
$GBGSV,3,3,09,25,16,048,42,1*45
$GNRMC,050037.00,A,4843.26094,N,00920.55346,E,0.008,,080225,,,A,V*18
$GNGGA,050037.00,4843.26094,N,00920.55346,E,1,12,0.51,248.2,M,47.6,M,,*45
$GPGSV,3,1,2,05,60,259,,07,31,061,48,08,08,049,,09,00,109,,1*6A
$GPGSV,3,2,12,13,56,295,40,14,45,143,44,15,20,296,40,18,13,320,33,1*6A
$GPGSV,3,3,12,20,43,202,44,22,30,162,45,27,02,017,,30,67,065,43,1*62
$GLGSV,3,1,09,70,57,118,38,71,66,330,45,72,17,313,25,73,60,184,38,1*73
$GLGSV,3,2,09,74,16,202,32,79,04,031,13,80,54,047,41,87,12,299,38,1*75
$GLGSV,3,3,09,88,09,355,,1*4B
$GAGSV,4,1,14,04,71,304,38,06,45,291,29,09,21,288,38,10,11,229,,7*70
$GAGSV,4,2,14,11,21,255,37,12,01,210,,19,45,097,30,21,44,075,46,7*73
$GAGSV,4,3,14,23,39,150,43,27,09,032,,29,01,103,,31,03,186,,7*72
$GAGSV,4,4,14,34,01,351,,36,21,307,37,7*71
$GBGSV,3,1,09,02,00,103,,05,16,123,40,07,16,070,40,09,12,061,37,1*71
$GBGSV,3,2,09,10,17,083,42,19,04,311,,20,50,304,37,23,64,079,45,1*73
$GBGSV,3,3,09,25,16,048,42,1*45
$GNRMC,050038.00,A,4843.26095,N,00920.55349,E,0.007,,080225,,,A,V*16
$GNGGA,050038.00,4843.26095,N,00920.55349,E,1,12,0.51,248.3,M,47.6,M,,*45
$GPGSV,3,1,12,05,60,259,,07,31,061,48,08,08,049,,09,00,109,,1*6A
$GPGSV,3,2,12,13,56,295,39,14,45,143,44,15,20,296,40,18,13,320,33,1*64
$GPGSV,3,3,12,20,43,202,44,22,30,162,45,27,02,017,,30,67,065,43,1*62
$GLGSV,3,1,09,70,57,118,39,71,66,330,45,72,17,313,25,73,60,184,37,1*7D
$GLGSV,3,2,09,74,16,202,32,79,04,031,14,80,54,047,40,87,12,299,38,1*73
$GLGSV,3,3,09,88,09,355,,1*4B
$GAGSV,4,1,14,04,71,304,38,06,45,291,29,09,21,288,38,10,11,229,,7*70
$GAGSV,4,2,14,11,21,255,37,12,01,210,,19,45,097,30,21,44,075,46,7*73
$GAGSV,4,3,14,23,39,150,43,27,09,032,,29,01,103,,31,03,186,,7*72
$GAGSV,4,4,14,34,01,351,,36,21,307,37,7*71
$GBGSV,3,1,09,02,00,103,,05,16,123,40,07,16,070,40,09,12,061,37,1*71
$GBGSV,3,2,09,10,17,083,42,19,04,311,,20,50,304,37,23,64,079,45,1*73
$GBGSV,3,3,09,25,16,048,42,1*45
$GNRMC,050039.00,A,4843.26093,N,00920.55352,E,0.015,,080225,,,A,V*18
$GNGGA,050039.00,4843.26093,N,00920.55352,E,1,12,0.51,248.4,M,47.6,M,,*4F
$GPGSV,3,1,12,05,60,259,,07,31,061,48,08,08,049,,09,00,109,,1*6A
$GPGSV,3,2,12,13,56,295,39,14,45,143,44,15,20,296,40,18,13,320,34,1*63
$GPGSV,3,3,12,20,43,202,44,22,30,162,46,27,02,017,,30,67,065,43,1*61
$GLGSV,3,1,09,70,57,118,39,71,66,330,44,72,17,313,25,73,60,184,36,1*7D
$GLGSV,3,2,09,74,16,202,31,79,04,031,15,80,54,047,40,87,12,299,38,1*71
$GLGSV,3,3,09,88,09,355,,1*4B
$GAGSV,4,1,14,04,71,304,38,06,45,291,29,09,21,288,38,10,11,229,,7*70
$GAGSV,4,2,14,11,21,255,37,12,01,210,,19,45,097,31,21,44,075,45,7*71
$GAGSV,4,3,14,23,39,150,43,27,09,032,,29,01,103,,31,03,186,,7*72
$GAGSV,4,4,14,34,01,351,,36,21,307,37,7*71
$GBGSV,3,1,09,02,00,103,,05,16,123,40,07,16,070,40,09,12,061,37,1*71
$GBGSV,3,2,09,10,17,083,43,19,04,311,,20,50,304,38,23,64,079,45,1*7D
$GBGSV,3,3,09,25,16,048,42,1*45
$GNRMC,050040.00,A,4843.26090,N,00920.55355,E,0.001,,080225,,,A,V*17
$GNGGA,050040.00,4843.26090,N,00920.55355,E,1,12,0.51,248.4,M,47.6,M,,*45
$GPGSV,3,1,12,05,60,259,,07,31,061,48,08,08,049,,09,00,109,,1*6A
$GPGSV,3,2,12,13,56,295,39,14,45,143,44,15,20,296,40,18,13,320,33,1*64
$GPGSV,3,3,12,20,43,202,45,22,30,162,46,27,02,017,,30,67,065,44,1*67
$GLGSV,3,1,09,70,57,118,39,71,66,330,44,72,17,313,24,73,60,184,35,1*7F
$GLGSV,3,2,09,74,16,202,32,79,04,031,11,80,54,047,39,87,12,299,38,1*78
$GLGSV,3,3,09,88,09,355,,1*4B
$GAGSV,4,1,14,04,71,304,38,06,45,291,29,09,21,288,38,10,11,229,,7*70
$GAGSV,4,2,14,11,21,255,37,12,01,210,,19,45,097,31,21,44,075,45,7*71
$GAGSV,4,3,14,23,39,150,43,27,09,032,,29,01,103,,31,03,186,,7*72
$GAGSV,4,4,14,34,01,351,,36,21,307,37,7*71
$GBGSV,3,1,09,02,00,103,,05,16,123,40,07,16,070,40,09,12,061,36,1*70
$GBGSV,3,2,09,10,17,083,43,19,04,311,,20,50,304,38,23,64,079,45,1*7D
$GBGSV,3,3,09,25,16,048,42,1*45
$GNRMC,050041.00,A,4843.26088,N,00920.55359,E,0.016,,080225,,,A,V*15
$GNGGA,050041.00,4843.26088,N,00920.55359,E,1,12,0.51,248.5,M,47.6,M,,*40
$GPGSV,3,1,12,05,60,259,,07,31,061,48,08,08,049,,09,00,109,,1*6A
$GPGSV,3,2,12,13,56,295,38,14,45,143,45,15,20,296,40,18,13,320,33,1*64
$GPGSV,3,3,12,20,43,202,45,22,30,162,46,27,02,017,,30,67,065,44,1*67
$GLGSV,3,1,09,70,57,118,39,71,66,330,44,72,17,313,21,73,60,184,35,1*7A
$GLGSV,3,2,09,74,16,202,32,79,04,031,18,80,54,047,38,87,12,299,38,1*70
$GLGSV,3,3,09,88,09,355,,1*4B
$GAGSV,4,1,14,04,71,304,38,06,45,291,29,09,21,288,38,10,11,229,,7*70
$GAGSV,4,2,14,11,21,255,37,12,01,210,,19,45,097,31,21,44,075,45,7*71
$GAGSV,4,3,14,23,39,150,43,27,09,032,,29,01,103,,31,03,186,,7*72
$GAGSV,4,4,14,34,01,351,,36,21,307,37,7*71
$GBGSV,3,1,09,02,00,103,,05,16,123,40,07,16,070,40,09,12,061,36,1*70
$GBGSV,3,2,09,10,17,083,42,19,04,311,,20,50,304,38,23,64,079,45,1*7C
$GBGSV,3,3,09,25,16,048,42,1*45
$GNRMC,050042.00,A,4843.26086,N,00920.55363,E,0.011,,080225,,,A,V*16
$GNGGA,050042.00,4843.26086,N,00920.55363,E,1,12,0.51,248.5,M,47.6,M,,*44
$GPGSV,3,1,12,05,60,259,,07,31,061,48,08,08,049,,09,00,109,,1*6A
$GPGSV,3,2,12,13,56,295,38,14,45,143,45,15,20,296,40,18,13,320,33,1*64
$GPGSV,3,3,12,20,43,202,44,22,30,162,46,27,02,017,,30,67,065,44,1*66
$GLGSV,3,1,09,70,57,118,39,71,66,330,44,72,17,313,18,73,60,184,35,1*70
$GLGSV,3,2,09,74,16,202,32,79,04,031,13,80,54,047,38,87,12,299,38,1*7B
$GLGSV,3,3,09,88,09,355,,1*4B
$GAGSV,4,1,14,04,71,304,38,06,45,291,29,09,21,288,38,10,11,229,,7*70
$GAGSV,4,2,14,11,21,255,37,12,01,210,,19,45,097,32,21,44,075,45,7*72
$GAGSV,4,3,14,23,39,150,43,27,09,032,,29,01,103,,31,03,186,,7*72
$GAGSV,4,4,14,34,01,351,,36,21,307,37,7*71
$GBGSV,3,1,09,02,00,103,,05,16,123,40,07,16,070,40,09,12,061,36,1*70
$GBGSV,3,2,09,10,17,083,43,19,04,311,,20,50,304,37,23,64,079,45,1*72
$GBGSV,3,3,09,25,16,048,42,1*45
$GNRMC,050043.00,A,4843.26083,N,00920.55366,E,0.015,,080225,,,A,V*13
$GNGGA,050043.00,4843.26083,N,00920.55366,E,1,12,0.51,248.5,M,47.6,M,,*45
$GPGSV,3,1,12,05,60,259,,07,31,061,47,08,08,049,,09,00,109,,1*65
$GPGSV,3,2,12,13,56,295,38,14,45,143,45,15,20,296,40,18,13,320,33,1*64
$GPGSV,3,3,12,20,43,202,45,22,30,162,46,27,02,017,,30,67,065,44,1*67
$GLGSV,3,1,09,70,57,118,39,71,66,330,44,72,17,313,15,73,60,184,34,1*7C
$GLGSV,3,2,09,74,16,202,32,79,04,031,11,80,54,047,37,87,12,299,38,1*76
$GLGSV,3,3,09,88,09,355,,1*4B
$GAGSV,4,1,14,04,71,304,38,06,45,291,29,09,21,288,38,10,11,229,,7*70
$GAGSV,4,2,14,11,21,255,37,12,01,210,,19,45,097,32,21,44,075,45,7*72
$GAGSV,4,3,14,23,39,150,43,27,09,032,,29,01,103,,31,03,186,,7*72
$GAGSV,4,4,14,34,01,351,,36,21,307,37,7*71
$GBGSV,3,1,09,02,00,103,,05,16,123,40,07,16,070,40,09,12,061,36,1*70
$GBGSV,3,2,0,10,17,083,43,19,04,311,,20,50,304,37,23,64,079,45,1*72
$GBGSV,3,3,09,25,16,048,42,1*45
$GNRMC,050044.00,A,4843.26081,N,00920.55369,E,0.003,,080225,,,A,V*1E
$GNGGA,050044.00,4843.26081,N,00920.55369,E,1,12,0.51,248.5,M,47.6,M,,*4F
$GPGSV,3,1,12,05,60,259,,07,31,061,47,08,08,049,,09,00,109,,1*65
$GPGSV,3,2,12,13,56,295,38,14,45,143,45,15,20,296,40,18,13,320,33,1*64
$GPGSV,3,3,12,20,43,202,45,22,30,162,46,27,02,017,,30,67,065,44,1*67
$GLGSV,3,1,09,70,57,118,39,71,66,330,44,72,17,313,21,73,60,184,34,1*7B
$GLGSV,3,2,09,74,16,202,32,79,04,031,12,80,54,047,36,87,12,299,38,1*74
$GLGSV,3,3,09,88,09,355,,1*4B
$GAGSV,4,1,14,04,72,305,38,06,45,291,29,09,21,288,38,10,11,229,,7*72
$GAGSV,4,2,14,11,21,255,37,12,01,210,,19,45,097,32,21,44,075,45,7*72
$GAGSV,4,3,14,23,39,150,43,27,09,032,,29,01,103,,31,03,186,,7*72
$GAGSV,4,4,14,34,01,351,,36,21,307,37,7*71
$GBGSV,3,1,09,02,00,103,,05,16,123,40,07,16,070,40,9,12,061,36,1*70
$GBGSV,3,2,09,10,17,083,43,19,04,311,,20,50,304,37,23,64,079,45,1*72
$GBGSV,3,3,09,25,16,048,42,1*45
$GNRMC,050045.00,A,4843.26079,N,00920.55371,E,0.005,,080225,,,A,V*17
$GNGGA,050045.00,4843.26079,N,00920.55371,E,1,12,0.51,248.6,M,47.6,M,,*43
$GPGSV,3,1,12,05,60,259,,07,31,061,47,08,08,049,,09,00,109,,1*65
$GPGSV,3,2,12,13,56,295,38,14,45,143,45,15,20,296,40,18,13,320,33,1*64
$GPGSV,3,3,12,20,43,202,45,22,30,162,46,27,02,017,,30,67,065,44,1*67
$GLGSV,3,1,09,70,57,118,38,71,66,330,43,72,17,313,22,73,60,184,34,1*7E
$GLGSV,3,2,09,74,16,202,32,79,04,031,10,80,54,047,35,87,12,299,38,1*75
$GLGSV,3,3,09,88,09,355,,1*4B
$GAGSV,4,1,14,04,72,305,38,06,45,291,29,09,21,288,38,10,11,229,,7*72
$GAGSV,4,2,14,11,21,255,37,12,01,210,,19,45,097,32,21,44,075,45,7*72
$GAGSV,4,3,14,23,39,150,43,27,09,032,,29,01,103,,31,03,186,,7*72
$GAGSV,4,4,14,34,01,351,,36,21,307,37,7*71
$GBGSV,3,1,09,02,00,103,,05,16,123,40,07,16,070,40,09,12,061,35,1*73
$GBGSV,3,2,09,10,17,083,43,19,04,311,,20,50,304,37,23,64,079,45,1*72
$GBGSV,3,3,09,25,16,048,42,1*45
$GNRMC,050046.00,A,4843.26077,N,00920.55372,E,0.013,,080225,,,A,V*1E
$GNGGA,050046.00,4843.26077,N,00920.55372,E,1,12,0.51,248.6,M,47.6,M,,*4D
$GPGSV,3,1,12,05,60,259,,07,31,061,47,08,08,049,,09,00,109,,1*65
$GPGSV,3,2,12,13,56,295,38,14,45,143,45,15,20,296,40,18,13,320,33,1*64
$GPGSV,3,3,12,20,43,202,45,22,30,162,46,27,02,017,,30,67,065,44,1*67
$GLGSV,3,1,09,70,57,118,39,71,66,330,43,72,17,313,27,73,60,184,35,1*7B
$GLGSV,3,2,09,74,16,202,32,79,04,031,15,80,54,047,34,87,12,299,38,1*71
$GLGSV,3,3,09,88,09,355,,1*4B
$GAGSV,4,1,14,04,72,305,38,06,45,291,29,09,21,288,38,10,11,229,,7*72
$GAGSV,4,2,14,11,21,255,37,12,01,210,,19,45,097,33,21,44,075,45,7*73
$GAGSV,4,3,14,23,39,150,43,27,09,032,,29,01,103,,31,03,186,,7*72
$GAGSV,4,4,14,34,01,351,,36,21,307,37,7*71
$GBGSV,3,1,09,02,00,103,,05,16,123,40,07,16,070,40,09,12,061,35,1*73
$GBGSV,3,2,09,10,17,083,43,19,04,311,,20,50,304,37,23,64,079,45,1*72
$GBGSV,3,3,09,25,16,048,42,1*45
$GNRMC,050047.00,A,4843.26075,N,00920.55372,E,0.009,,080225,,,A,V*16
$GNGGA,050047.00,4843.26075,N,00920.55372,E,1,12,0.51,248.7,M,47.6,M,,*4F
$GPGSV,3,1,12,05,60,259,,07,31,061,47,08,08,049,,09,00,109,,1*65
$GPGSV,3,2,12,13,56,295,38,14,45,143,45,15,20,296,40,18,13,320,32,1*65
$GPGSV,3,3,12,20,43,202,45,22,30,162,46,27,02,017,,30,67,065,44,1*67
$GLGSV,3,1,09,70,57,118,39,71,66,330,43,72,17,313,28,73,60,184,35,1*74
$GLGSV,3,2,09,74,16,202,32,79,04,031,14,80,54,047,34,87,12,299,38,1*70
$GLGSV,3,3,09,88,09,355,,1*4B
$GAGSV,4,1,14,04,72,305,38,06,45,291,29,09,21,288,38,10,11,229,,7*72
$GAGSV,4,2,14,11,21,255,37,12,01,210,,19,45,097,33,21,44,075,45,7*73
$GAGSV,4,3,14,23,39,150,43,27,09,032,,29,01,103,,31,03,186,,7*72
$GAGSV,4,4,14,34,01,351,,36,21,307,37,7*71
$GBGSV,3,1,09,02,00,103,,05,16,123,40,07,16,070,40,09,12,061,35,1*73
$GBGSV,3,2,09,10,17,083,43,19,04,311,,20,50,304,37,23,64,079,45,1*72
$GBGSV,3,3,09,25,16,048,42,1*45
$GNRMC,050048.00,A,4843.26073,N,00920.55372,E,0.006,,080225,,,A,V*10
$GNGGA,050048.00,4843.26073,N,00920.55372,E,1,12,0.51,248.7,M,47.6,M,,*46
$GPGSV,3,1,12,05,60,259,,07,31,061,47,08,08,049,,09,00,109,,1*65
$GPGSV,3,2,12,13,56,295,38,14,45,143,45,15,20,296,40,18,13,320,32,1*65
$GPGSV,3,3,12,20,43,202,45,22,30,162,6,27,02,017,,30,67,065,44,1*67
$GLGSV,3,1,09,70,57,118,39,71,66,330,43,72,17,313,29,73,60,184,35,1*75
$GLGSV,3,2,09,74,16,202,32,79,04,031,12,80,54,047,34,87,12,299,38,1*76
$GLGSV,3,3,09,88,09,355,,1*4B
$GAGSV,4,1,14,04,72,305,38,06,45,291,29,09,21,288,38,10,11,229,,7*72
$GAGSV,4,2,14,11,21,255,37,12,01,210,,19,45,097,33,21,44,075,45,7*73
$GAGSV,4,3,14,23,39,150,43,27,09,032,,29,01,103,,31,03,186,,7*72
$GAGSV,4,4,14,34,01,351,,36,21,307,37,7*71
$GBGSV,3,1,09,02,00,103,,05,16,123,40,07,16,070,40,09,12,061,35,1*73
$GBGSV,3,2,09,10,17,083,43,19,04,311,,20,50,304,37,23,64,079,45,1*72
$GBGSV,3,3,09,25,16,048,42,1*45
$GNRMC,050049.00,A,4843.26072,N,00920.55371,E,0.008,,080225,,,A,V*1D
$GNGGA,050049.00,4843.26072,N,00920.55371,E,1,12,0.51,248.8,M,47.6,M,,*4A
$GPGSV,3,1,12,05,60,259,,07,31,061,47,08,08,049,,09,00,109,,1*65
$GPGSV,3,2,12,13,56,295,38,14,45,143,45,15,20,296,40,18,13,320,32,1*65
$GPGSV,3,3,12,20,43,202,45,22,30,162,46,27,02,017,,30,67,065,44,1*67
$GLGSV,3,1,09,70,57,118,39,71,66,330,43,72,17,313,30,73,60,184,35,1*7D
$GLGSV,3,2,09,74,16,202,32,79,04,031,11,80,54,047,34,87,12,299,38,1*75
$GLGSV,3,3,09,88,09,355,,1*4B
$GAGSV,4,1,14,04,72,305,38,06,45,291,29,09,22,289,38,10,11,229,,7*70
$GAGSV,4,2,14,11,21,255,37,12,01,210,,19,45,097,33,21,44,075,45,7*73
$GAGSV,4,3,14,23,39,15042,27,09,032,,29,01,103,,31,03,186,,7*73
$GAGSV,4,4,14,34,01,351,,36,21,307,37,7*71
$GBGSV,3,1,09,02,00,103,,05,16,123,40,07,16,070,40,09,12,061,35,1*73
$GBGSV,3,2,09,10,17,083,43,19,04,311,,20,50,304,37,23,64,079,45,1*72
$GBGSV,3,3,09,25,16,048,42,1*45
$GNRMC,050050.00,A,4843.26071,N,00920.55369,E,0.009,,080225,,,A,V*1E
$GNGGA,050050.00,4843.26071,N,00920.55369,E,1,12,0.51,248.8,M,47.6,M,,*48
$GPGSV,3,1,12,05,60,259,,07,31,061,47,08,08,049,,09,00,109,,1*65
$GPGSV,3,2,12,13,56,295,38,14,45,143,45,15,20,296,40,18,13,320,32,1*65
$GPGSV,3,3,12,20,43,202,46,22,30,162,47,27,02,017,,30,67,065,44,1*65
$GLGSV,3,1,09,70,57,118,39,71,66,330,42,72,17,313,30,73,60,184,35,1*7C
$GLGSV,3,2,09,74,16,202,32,79,04,031,13,80,54,047,34,87,12,299,38,1*77
$GLGSV,3,3,09,88,09,355,,1*4B
$GAGSV,4,1,14,04,72,305,38,06,45,291,29,09,22,289,38,10,11,229,,7*70
$GAGSV,4,2,14,11,21,255,37,12,01,210,,19,45,097,34,21,44,075,45,7*74
$GAGSV,4,3,14,23,39,150,42,27,09,032,,29,01,103,,31,03,186,,7*73
$GAGSV,4,4,14,34,01,351,,36,21,307,37,7*71
$GBGSV,3,1,09,02,00,103,,05,16,123,40,07,16,070,40,09,12,061,35,1*73
$GBGSV,3,2,09,10,17,083,43,19,04,311,,20,50,304,37,23,64,079,45,1*72
$GBGSV,3,3,09,25,16,048,42,1*45
$GNRMC,050051.00,A,4843.26071,N,00920.55368,E,0.006,,080225,,,A,V*11
$GNGGA,050051.00,4843.26071,N,00920.55368,E,1,12,0.50,248.9,M,47.6,M,,*48
$GPGSV,3,1,12,05,60,259,,07,31,061,47,08,08,049,,09,00,109,,1*65
$GPGSV,3,2,12,13,56,295,38,14,45,143,45,15,20,296,40,18,13,320,32,1*65
$GPGSV,3,3,12,20,43,202,46,22,30,162,47,27,02,017,,30,67,065,44,1*65
$GLGSV,3,1,09,70,57,118,38,71,66,330,43,72,17,313,31,73,60,184,36,1*7E
$GLGSV,3,2,09,74,16,202,33,79,04,031,13,80,54,047,34,87,12,299,38,1*76
$GLGSV,3,3,09,88,09,355,,1*4B
$GAGSV,4,1,14,04,72,305,38,06,45,291,29,09,22,289,38,10,11,229,,7*70
$GAGSV,4,2,14,11,20,255,37,12,01,210,,19,45,097,33,21,44,075,45,7*72
$GAGSV,4,3,14,23,39,150,42,27,09,032,,29,01,103,,31,03,186,,7*73
$GAGSV,4,4,14,34,01,351,,36,21,307,37,7*71
$GBGSV,3,1,09,02,00,103,,05,16,123,40,07,16,070,40,09,12,061,35,1*73
$GBGSV,3,2,09,10,17,083,43,19,04,311,,20,50,304,37,23,64,079,45,1*72
$GBGSV,3,3,09,25,16,048,42,1*45
$GNRMC,050052.00,A,4843.26071,N,00920.55367,E,0.009,,080225,,,A,V*12
$GNGGA,050052.00,4843.26071,N,00920.55367,E,1,12,0.50,248.9,M,47.6,M,,*44
$GPGSV,3,1,12,05,60,259,,07,31,061,47,08,08,049,,09,00,109,,1*65
$GPGSV,3,2,12,13,56,295,38,14,45,143,45,15,20,296,40,18,13,320,32,1*65
$GPGSV,3,3,12,20,43,202,45,22,30,162,47,27,02,017,,30,67,065,44,1*66
$GLGSV,3,1,09,70,57,118,39,71,66,330,43,72,17,313,31,73,60,184,36,1*7F
$GLGSV,3,2,09,74,16,202,33,79,04,031,11,80,54,047,34,87,12,299,38,1*74
$GLGSV,3,3,09,88,09,355,,1*4B
$GAGSV,4,1,14,04,72,305,38,06,45,291,29,09,22,289,38,10,11,229,,7*70
$GAGSV,4,2,14,11,20,255,37,12,00,210,,19,45,097,33,21,44,075,45,7*73
$GAGSV,4,3,14,23,39,150,42,27,09,032,,29,01,103,,31,03,186,,7*73
$GAGSV,4,4,14,34,01,351,,36,21,307,37,7*71
$GBGSV,3,1,09,02,00,103,,05,16,123,40,07,16,070,40,09,12,061,35,1*73
$GBGSV,3,2,09,10,17,083,43,19,04,311,,20,50,304,37,23,64,079,45,1*72
$GBGSV,3,3,09,25,16,048,41,1*46
$GNRMC,050053.00,A,4843.26072,N,00920.55366,E,0.004,,080225,,,A,V*1C
$GNGGA,050053.00,4843.26072,N,00920.55366,E,1,12,0.51,249.0,M,47.6,M,,*4E
$GPGSV,3,1,12,05,60,259,,07,31,061,47,08,08,049,,09,00,109,,1*65
$GPGSV,3,2,12,13,56,295,37,14,45,143,45,15,20,296,40,18,13,320,32,1*6A
$GPGSV,3,3,12,20,43,202,45,22,30,162,47,27,02,017,,30,67,065,44,1*66
$GLGSV,3,1,09,70,57,118,39,71,66,330,43,72,17,313,32,73,60,184,35,1*7F
$GLGSV,3,2,09,74,16,202,33,79,04,031,13,80,54,047,33,87,12,299,38,1*71
$GLGSV,3,3,09,88,09,355,,1*4B
$GAGSV,4,1,14,04,72,305,38,06,45,291,29,09,22,289,38,10,11,229,,7*70
$GAGSV,4,2,14,11,20,255,37,12,00,210,,19,45,097,33,21,44,075,45,7*73
$GAGSV,4,3,14,23,39,150,42,27,09,032,,29,01,103,,31,03,186,,7*73
$GAGSV,4,4,14,34,01,351,,36,21,307,37,7*71
$GBGSV,3,1,09,02,00,103,,05,16,123,40,07,16,070,40,09,12,061,36,1*70
$GBGSV,3,2,09,10,17,083,43,19,04,311,,20,50,304,37,23,64,079,45,1*72
$GBGSV,3,3,09,25,16,048,41,1*46
$GNRMC,050054.00,A,4843.26073,N,00920.55365,E,0.006,,080225,,,A,V*1B
$GNGGA,050054.00,4843.26073,N,00920.55365,E,1,12,0.50,249.1,M,47.6,M,,*4B
$GPGSV,3,1,12,05,60,259,,07,31,061,47,08,08,049,,09,00,109,,1*65
$GPGSV,3,2,12,13,56,295,37,14,45,143,45,15,20,296,40,18,13,320,32,1*6A
$GPGSV,3,3,12,20,43,202,45,22,30,162,47,27,02,017,,30,67,065,44,1*66
$GLGSV,3,1,09,70,57,118,39,71,66,330,43,72,17,313,31,73,60,184,34,1*7D
$GLGSV,3,2,09,74,16,202,32,79,04,031,14,80,54,047,32,87,12,299,38,1*76
$GLGSV,3,3,09,88,09,355,,1*4B
$GAGSV,4,1,14,04,72,305,38,06,45,291,29,09,22,289,38,10,11,229,,7*70
$GAGSV,4,2,14,11,20,255,37,12,00,210,,19,45,097,33,21,44,075,45,7*73
$GAGSV,4,3,14,23,39,150,42,27,09,032,29,01,103,,31,03,186,,7*73
$GAGSV,4,4,14,34,01,351,,36,21,307,37,7*71
$GBGSV,3,1,09,02,00,103,,05,16,123,40,07,16,070,40,09,12,061,36,1*70
$GBGSV,3,2,09,10,17,083,43,19,04,311,,20,50,304,37,23,64,079,45,1*72
$GBGSV,3,3,9,25,16,048,41,1*46
$GNRMC,050055.00,A,4843.26075,N,00920.55364,E,0.007,,080225,,,A,V*1C
$GNGGA,050055.00,4843.26075,N,00920.55364,E,1,12,0.50,249.2,M,47.6,M,,*4E
$GPGSV,3,1,12,05,60,259,,07,31,061,47,08,08,049,,09,00,109,,1*65
$GPGSV,3,2,12,13,56,295,36,14,45,143,45,15,20,296,40,18,13,320,32,1*6B
$GPGSV,3,3,12,20,43,202,45,22,30,162,47,27,02,017,,30,67,065,44,1*66
$GLGSV,3,1,09,70,57,118,39,71,66,330,43,72,17,313,32,73,60,184,35,1*7F
$GLGSV,3,2,09,74,16,202,33,79,04,031,11,80,54,047,31,87,12,299,39,1*70
$GLGSV,3,3,09,88,09,355,,1*4B
$GAGSV,4,1,14,04,72,305,38,06,45,291,29,09,22,289,38,10,11,229,,7*70
$GAGSV,4,2,14,11,20,255,37,12,00,210,,19,45,097,33,21,44,075,45,7*73
$GAGSV,4,3,14,23,39,150,41,27,09,032,,29,01,103,,31,03,186,,7*70
$GAGSV,4,4,14,34,01,351,,36,21,307,37,7*71
$GBGSV,3,1,09,02,00,103,,05,16,123,40,07,16,070,40,09,12,061,36,1*70
$GBGSV,3,2,09,10,17,083,43,19,04,311,,20,50,304,37,23,64,079,45,1*72
$GBGSV,3,3,09,25,16,048,41,1*46
$GNRMC,050056.00,A,4843.26077,N,00920.55364,E,0.002,,080225,,,A,V*18
$GNGGA,050056.00,4843.26077,N,00920.55364,E,1,12,0.50,249.3,M,47.6,M,,*4E
$GPGSV,3,1,12,05,60,259,,07,31,061,48,08,08,049,,09,00,109,,1*6A
$GPGSV,3,2,12,13,56,295,36,14,45,143,45,15,20,296,40,18,13,320,33,1*6A
$GPGSV,3,3,12,20,43,202,45,22,30,162,47,27,02,017,,30,67,065,44,1*66
$GLGSV,3,1,09,70,57,118,39,71,66,330,42,72,17,313,32,73,60,184,35,1*7E
$GLGSV,3,2,09,74,16,202,33,79,04,031,16,80,54,047,31,87,12,299,39,1*77
$GLGSV,3,3,09,88,09,355,,1*4B
$GAGSV,4,1,14,04,72,305,38,06,45,291,29,09,22,289,38,10,11,229,,7*70
$GAGSV,4,2,14,11,20,255,37,12,00,210,,19,44,098,33,21,44,075,45,7*7D
$GAGSV,4,3,14,23,39,150,41,27,09,032,,29,01,103,,31,03,186,,7*70
$GAGSV,4,4,14,34,01,351,,36,21,307,37,7*71
$GBGSV,3,1,09,02,00,103,,05,16,123,40,07,16,070,40,09,12,061,36,1*70
$GBGSV,3,2,09,10,17,083,43,19,04,311,,20,50,304,37,23,64,079,45,1*72
$GBGSV,3,3,09,25,16,048,41,1*46
$GNRMC,050057.00,A,4843.26079,N,00920.55364,E,0.002,,080225,,,A,V*17
$GNGGA,050057.00,4843.26079,N,00920.55364,E,1,12,0.50,249.3,M,47.6,M,,*41
$GPGSV,3,1,12,05,60,259,,07,31,061,48,08,08,049,,09,00,109,,1*6A
$GPGSV,3,2,12,13,56,295,36,14,45,143,45,15,20,296,40,18,13,320,33,1*6A
$GPGSV,3,3,12,20,43,202,45,22,30,162,47,27,02,017,,30,67,065,44,1*66
$GLGSV,3,1,09,70,57,118,39,71,66,330,42,72,17,313,32,73,60,184,35,1*7E
$GLGSV,3,2,09,74,16,202,33,79,04,031,14,80,54,047,31,87,12,299,39,1*75
$GLGSV,3,3,09,88,09,355,,1*4B
$GAGSV,4,1,14,04,72,305,39,06,45,291,29,09,22,289,38,10,11,229,,7*71
$GAGSV,4,2,14,11,20,255,37,12,00,210,,9,44,098,33,21,44,075,45,7*7D
$GAGSV,4,3,14,23,39,150,41,27,09,032,,29,01,103,,31,03,186,,7*70
$GAGSV,4,4,14,34,01,351,,36,21,307,37,7*71
$GBGSV,3,1,09,02,00,103,,05,16,123,40,07,16,070,40,09,12,061,36,1*70
$GBGSV,3,2,09,10,17,083,43,19,04,311,,20,50,304,37,23,64,079,45,1*72
$GBGSV,3,3,09,25,16,048,41,1*46
$GNRMC,050058.00,A,4843.26080,N,00920.55364,E,0.004,,080225,,,A,V*18
$GNGGA,050058.00,4843.26080,N,00920.55364,E,1,12,0.50,249.4,M,47.6,M,,*4F
$GPGSV,3,1,12,05,60,259,,07,31,061,48,08,08,049,,09,00,109,,1*6A
$GPGSV,3,2,12,13,56,295,36,14,45,143,45,15,20,296,40,18,13,320,33,1*6A
$GPGSV,3,3,12,20,43,202,45,22,30,162,47,27,02,017,,30,67,065,43,1*61
$GLGSV,3,1,09,70,57,118,39,71,66,330,42,72,17,313,33,73,60,184,35,1*7F
$GLGSV,3,2,09,74,16,202,32,79,04,031,12,80,54,047,31,87,12,299,39,1*72
$GLGSV,3,3,09,88,09,355,,1*4B
$GAGSV,4,1,14,04,72,305,39,06,45,291,29,09,22,289,39,10,11,229,,7*70
$GAGSV,4,2,14,11,20,255,37,12,00,210,,19,44,098,33,21,44,075,45,7*7D
$GAGSV,4,3,14,23,40,149,41,27,09,032,,29,01,103,,31,03,186,,7*76
$GAGSV,4,4,14,34,01,351,,36,21,307,37,7*71
$GBGSV,3,1,09,02,00,103,,05,16,123,40,07,16,070,40,09,12,061,36,1*70
$GBGSV,3,2,09,10,17,083,43,19,04,311,,20,50,304,37,23,64,079,45,1*72
$GBGSV,3,3,09,25,16,048,41,1*46
$GNRMC,050059.00,A,4843.26083,N,00920.55364,E,0.014,,080225,,,A,V*1B
$GNGGA,050059.00,4843.26083,N,00920.55364,E,1,12,0.50,249.5,M,47.6,M,,*4C
$GPGSV,3,1,12,05,60,259,,07,31,061,48,08,08,049,,09,00,109,,1*6A
$GPGSV,3,2,12,13,56,295,35,14,45,143,45,15,20,296,40,18,13,320,33,1*69
$GPGSV,3,3,12,20,43,202,45,22,30,162,47,27,02,017,,30,67,065,43,1*61
$GLGSV,3,1,09,70,57,118,39,71,66,330,42,72,17,313,32,73,60,184,35,1*7E
$GLGSV,3,2,09,74,16,202,32,79,04,031,12,80,54,047,32,87,12,299,40,1*7F
$GLGSV,3,3,09,88,09,355,,1*4B
$GAGSV,4,1,14,04,72,305,39,06,45,291,29,09,22,289,39,10,11,229,,7*70
$GAGSV,4,2,14,11,20,255,37,12,00,210,,19,44,098,33,21,44,075,44,7*7C
$GAGSV,4,3,14,23,40,149,41,27,09,032,,29,01,103,,31,03,186,,7*76
$GAGSV,4,4,14,34,01,351,,36,21,307,37,7*71
$GBGSV,3,1,09,02,00,103,,05,16,123,40,07,16,070,40,09,12,061,36,1*70
$GBGSV,3,2,09,10,17,083,43,19,04,311,,20,50,304,37,23,64,079,45,1*72
$GBGSV,3,3,09,25,16,048,41,1*46
$GNRMC,050100.00,A,4843.26085,N,00920.55363,E,0.007,,080225,,,A,V*15
$GNGGA,050100.00,4843.2608,N,00920.55363,E,1,12,0.50,249.6,M,47.6,M,,*43
$GPGSV,3,1,12,05,60,259,,07,31,061,48,08,08,049,,09,00,109,,1*6A
$GPGSV,3,2,12,13,56,295,35,14,45,143,45,15,20,296,40,18,13,320,33,1*69
$GPGSV,3,3,12,20,43,202,45,22,30,162,47,27,02,017,,30,67,065,43,1*61
$GLGSV,3,1,09,70,57,118,40,71,66,330,43,72,17,313,32,73,60,184,35,1*71
$GLGSV,3,2,09,74,16,202,32,79,04,031,12,80,54,047,32,87,12,299,40,1*7F
$GLGSV,3,3,09,88,09,355,,1*4B
$GAGSV,4,1,14,04,72,305,39,06,45,291,29,09,22,289,39,10,11,229,,7*70
$GAGSV,4,2,14,11,20,255,37,12,00,210,,19,44,098,34,21,44,075,44,7*7B
$GAGSV,4,4,14,34,01,351,,36,21,307,37,7*71
$GBGSV,3,1,09,02,00,103,,05,16,123,40,07,16,070,39,09,12,061,36,1*7E
$GBGSV,3,2,09,10,17,083,43,19,04,311,,20,50,304,37,23,64,079,45,1*72
$GBGSV,3,3,09,25,16,048,41,1*46
$GNRMC,050101.00,A,4843.26089,N,00920.55363,E,0.009,,080225,,,A,V*16
$GNGGA,050101.00,4843.26089,N,00920.55363,E,1,12,0.50,249.8,M,47.6,M,,*40
$GPGSV,3,1,12,05,60,259,,07,31,061,48,08,08,049,,09,00,109,,1*6A
$GPGSV,3,2,12,13,56,295,35,14,45,143,45,15,20,296,40,18,13,320,33,1*69
$GPGSV,3,3,12,20,43,202,44,22,30,162,47,27,02,017,,30,67,065,43,1*60
$GLGSV,3,1,09,70,57,118,40,71,66,330,43,72,17,313,32,73,60,184,36,1*72
$GLGSV,3,2,09,74,16,202,32,79,04,031,11,80,54,047,32,87,12,299,40,1*7C
$GLGSV,3,3,09,88,09,355,,1*4B
$GAGSV,4,1,14,04,72,305,39,06,45,291,29,09,22,289,39,10,11,229,,7*70
$GAGSV,4,2,14,11,20,255,37,12,00,210,,19,44,098,34,21,44,075,44,7*7B
$GAGSV,4,3,14,23,40,149,41,27,09,032,,29,01,103,,31,03,186,,7*76
$GAGSV,4,4,14,34,01,351,,36,21,307,38,7*7E
$GBGSV,3,1,09,02,00,103,,05,16,123,40,07,16,070,39,09,12,061,36,1*7E
$GBGSV,3,2,09,10,17,083,43,19,04,311,,20,50,304,37,23,64,079,44,1*73
$GNRMC,050102.00,A,4843.26091,N,00920.55363,E,0.003,,080225,,,A,V*16
$GNGGA,050102.00,4843.26091,N,00920.55363,E,1,12,0.50,249.9,M,47.6,M,,*4B
$GPGSV,3,1,12,05,60,259,,07,31,061,48,08,08,049,,09,00,109,,1*6A
$GPGSV,3,2,12,13,56,295,35,14,45,143,45,15,20,296,40,18,13,320,34,1*6E
$GPGSV,3,3,12,20,43,202,44,22,30,162,47,27,02,017,,30,67,065,43,1*60
$GLGSV,3,1,09,70,57,118,40,71,6,330,43,72,17,313,32,73,60,184,36,1*72
$GLGSV,3,2,09,74,16,202,32,79,04,031,12,80,54,047,32,87,12,299,41,1*7E
$GLGSV,3,3,09,88,09,355,,1*4B
$GAGSV,4,1,14,04,72,305,39,06,45,291,29,09,22,289,39,10,11,229,,7*70
$GAGSV,4,2,14,11,20,255,37,12,00,210,,19,44,098,34,21,44,075,44,7*7B
$GAGSV,4,3,14,23,40,149,41,27,09,032,,29,01,103,,31,03,186,,7*76
$GAGSV,4,4,14,34,01,351,,36,21,307,38,7*7E
$GBGSV,3,1,09,02,00,103,,05,16,123,40,07,16,070,39,09,12,061,37,1*7F
$GBGSV,3,2,09,10,17,083,43,19,04,311,,20,50,304,37,23,64,079,44,1*73
$GBGSV,3,3,09,25,16,048,41,1*46
$GNRMC,050103.00,A,4843.26094,N,00920.55363,E,0.012,,080225,,,A,*12
$GNGGA,050103.00,4843.26094,N,00920.55363,E,1,12,0.50,250.0,M,47.6,M,,*4E
$GPGSV,3,1,12,05,60,259,,07,31,061,48,08,08,049,,09,00,109,,1*6A
$GPGSV,3,2,12,13,56,295,35,14,45,143,45,15,20,296,40,18,13,320,33,1*69
$GPGSV,3,3,12,20,43,202,44,22,30,162,47,27,02,017,,30,67,065,43,1*60
$GLGSV,3,1,09,70,57,118,40,71,66,330,43,72,17,313,33,73,60,184,37,1*72
$GLGSV,3,2,09,74,16,202,32,79,04,031,13,80,54,047,32,87,12,299,41,1*7F
$GLGSV,3,3,09,88,09,355,,1*4B
$GAGSV,4,1,14,04,72,305,39,06,45,291,29,09,22,289,39,10,11,229,,7*70
$GAGSV,4,2,14,11,20,255,37,12,00,210,,19,44,098,35,21,44,075,44,7*7A
$GAGSV,4,3,14,23,40,149,41,27,09,032,,29,01,104,,31,03,186,,7*71
$GAGSV,4,4,14,34,01,351,,36,21,307,38,7*7E
$GBGSV,3,1,09,02,00,103,,05,16,123,40,07,16,070,39,09,12,061,37,1*7F
$GBGSV,3,2,09,10,17,083,43,19,04,311,,20,50,304,37,23,64,079,44,1*73
$GBGSV,3,3,09,25,16,048,41,1*46
$GNRMC,050104.00,A,4843.26095,N,00920.55362,E,0.010,,080225,,,A,V*17
$GNGGA,050104.00,4843.26095,N,00920.55362,E,1,12,0.50,250.1,M,47.6,M,,*48
$GPGSV,3,1,12,05,60,259,,07,31,061,48,08,08,049,,09,00,109,,1*6A
$GPGSV,3,2,12,13,56,295,35,14,45,143,45,15,20,296,40,18,13,320,33,1*69
$GPGSV,3,3,12,20,43,202,44,22,30,162,47,27,02,017,,30,67,65,43,1*60
$GLGSV,3,1,09,70,57,118,39,71,66,330,43,72,17,313,33,73,60,184,37,1*7C
$GLGSV,3,2,09,74,16,202,32,79,04,031,12,80,54,047,32,87,12,299,41,1*7E
$GLGSV,3,3,09,88,09,355,,1*4B
$GAGSV,4,1,14,04,72,305,39,06,45,291,9,09,22,289,39,0,11,229,,7*70
$GAGSV,4,2,14,11,20,255,37,12,00,210,,19,44,098,35,21,44,075,44,7*7A
$GAGSV,4,3,14,23,40,149,41,27,09,032,,29,01,104,,31,03,186,,7*71
$GAGSV,4,4,14,34,01,351,,36,21,307,38,7*7E
$GBGSV,3,1,09,02,00,103,,05,16,123,40,07,16,070,39,09,12,061,37,1*7F
$GBGSV,3,2,09,10,17,083,43,19,04,311,,20,50,304,38,23,64,079,44,1*7C
$GBGSV,3,3,09,25,16,048,41,1*46
$GNRMC,050105.00,A,4843.26097,N,00920.55362,E,0.009,,080225,,,A,V*1C
$GNGGA,050105.00,4843.26097,N,00920.55362,E,1,12,0.50,250.3,M,47.6,M,,*49
$GPGSV,3,1,12,05,60,259,,07,31,061,48,08,08,049,,09,00,109,,1*6A
$GPGSV,3,2,12,13,56,295,35,14,45,143,45,15,20,296,40,18,13,320,33,1*69
