$GNRMC,070000.00,A,4843.26005,N,00920.55353,E,0.016,,080225,,,A,V*1D
$GNGGA,070000.00,4843.26005,N,00920.55353,E,1,12,0.53,252.9,M,47.6,M,,*4D
$GPGSV,3,1,12,05,17,204,,10,03,338,,12,02,213,,13,68,133,45,1*67
$GPGSV,3,2,1214,47,061,40,15,70,270,,17,25,104,48,19,14,134,49,1*6B
$GPGSV,3,3,12,22,64,085,44,23,28,306,41,24,35,274,40,30,19,081,45,1*65
$GLGSV,3,1,10,65,19,326,,70,00,155,11,71,45,163,49,72,74,288,22,1*7B
$GLGSV,3,2,10,73,50,042,46,74,77,261,29,75,24,233,44,81,07,350,37,1*7A
$GLGSV,3,3,10,82,12,034,37,83,03,072,,1*7E
$GAGSV,3,1,11,04,65,138,46,05,08,306,36,06,84,256,32,09,60,300,,7*75
$GAGSV,3,2,11,15,02,003,,19,08,129,40,21,17,045,40,23,63,081,42,7*72
$GAGSV,3,3,11,24,02,212,,31,49,191,37,34,06,317,24,7*46
$GBGSV,3,1,10,05,16,124,44,07,24,055,41,09,00,083,,10,31,068,43,1*7C
$GBGSV,3,2,10,11,08,036,27,19,45,300,38,20,60,211,40,22,00,327,,1*7B
$GBGSV,3,3,10,23,22,062,47,28,00,113,,1*78
$GNRMC,070001.00,A,4843.26006,N,00920.55351,E,0.024,,080225,,,A,V*1C
$GNGGA,070001.00,4843.26006,N,00920.55351,E,1,12,0.53,252.8,M,47.6,M,,*4C
$GPGSV,3,1,12,05,17,204,,10,03,338,,12,02,213,,13,68,133,46,1*64
$GPGSV,3,2,12,14,47,061,39,15,70,270,,17,25,104,48,19,14,134,49,1*65
$GPGSV,3,3,12,22,64,085,44,23,28,306,41,24,35,274,40,30,19,081,45,1*65
$GLGSV,3,1,10,65,19,326,,70,00,155,13,71,45,163,48,72,74,288,22,1*78
$GLGSV,3,2,10,73,50,042,45,74,77,261,29,75,24,233,44,81,07,350,36,1*78
$GLGSV,3,3,10,82,12,034,37,83,03,072,,1*7E
$GAGSV,3,1,11,04,65,138,45,05,08,306,36,06,84,256,32,09,60,300,,7*76
$GAGSV,3,2,11,15,02,003,,19,08,129,40,21,17,045,40,23,63,081,42,7*72
$GAGSV,3,3,11,24,02,212,,31,49,191,35,34,06,317,24,7*44
$GBGSV,3,1,10,05,16,124,44,07,24,055,41,09,00,083,,10,31,068,43,1*7C
$GBGSV,3,2,10,11,08,036,27,19,45,300,38,20,60,211,40,22,00,327,,1*7B
$GBGSV,3,3,10,23,22,062,47,28,00,113,,1*78
$GNRMC,070002.00,A,4843.26008,N,00920.55349,E,0.011,,080225,,A,V*1E
$GNGGA,070002.00,4843.26008,N,00920.55349,E,1,12,0.53,252.8,M,47.6,M,,*48
$GPGSV,3,1,12,05,17,204,,10,03,338,,12,02,213,,13,68,133,46,1*64
$GPGSV,3,2,12,14,47,061,40,15,70,270,,17,25,104,48,19,14,134,48,1*6A
$GPGSV,3,3,12,22,64,085,44,23,28,306,41,24,35,274,41,30,19,081,45,1*64
$GLGSV,3,1,10,65,19,326,,70,00,155,09,71,45,163,47,72,74,288,22,1*7C
$GLGSV,3,2,10,73,50,042,47,74,77,261,30,75,24,233,46,81,07,350,36,1*70
$GLGSV,3,3,10,82,12,034,37,83,03,072,,1*7E
$GAGSV,3,1,11,04,65,138,45,05,08,306,36,06,84,256,32,09,60,300,,7*76
$GAGSV,3,2,11,15,02,003,,19,08,129,39,21,17,045,40,23,63,081,42,7*7C
$GAGSV,3,3,11,24,02,212,,31,49,191,38,34,06,317,24,7*49
$GBGSV,3,1,10,05,16,124,44,07,24,055,41,09,00,083,,10,31,068,43,1*7C
$GBGSV,3,2,10,11,08,036,26,19,45,300,38,20,60,211,40,22,00,327,,1*7A
$GBGSV,3,3,10,23,22,062,47,28,00,113,,1*78
$GNRMC,070003.00,A,4843.26009,N,00920.55346,E,0.005,,080225,,,A,V*14
$GNGGA,070003.00,4843.26009,N,00920.55346,E,1,12,0.53,252.7,M,47.6,M,,*48
$GPGSV,3,1,12,05,17,204,,10,03,338,,12,02,213,,13,68,133,45,1*67
$GPGSV,3,2,12,14,47,061,38,15,70,270,,17,25,104,48,19,14,134,48,1*65
$GPGSV,3,3,12,22,64,085,44,23,28,306,41,24,35,274,41,30,19,081,45,1*64
$GLGSV,3,1,10,65,19,326,,70,00,155,13,71,45,163,47,72,74,288,24,1*71
$GLGSV,3,2,10,73,50,042,46,74,77,261,30,75,24,233,46,81,07,350,35,1*72
$GLGSV,3,3,10,82,12,034,38,83,03,072,,1*71
$GAGSV,3,1,11,04,65,138,45,05,08,306,36,06,84,256,32,09,60,300,,7*76
$GAGSV,3,2,11,15,02,003,,19,08,129,39,21,17,045,40,23,63,081,40,7*7E
$GAGSV,3,3,11,24,02,212,,31,49,191,37,34,06,317,24,7*46
$GBGSV,3,1,10,05,16,124,44,07,24,055,41,09,00,083,,10,31,068,43,1*7C
$GBGSV,3,2,10,11,08,036,27,19,45,300,38,20,60,211,39,22,00,327,,1*75
$GBGSV,3,3,10,23,22,062,46,28,00,113,,1*79
$GNRMC,070004.00,A,4843.26009,N,00920.55344,E,0.013,,080225,,,A,V*16
$GNGGA,070004.00,4843.26009,N,00920.55344,E,1,12,0.57,252.7,M,47.6,M,,*49
$GPGSV,3,1,12,05,17,204,,10,03,338,,12,02,213,,13,68,133,45,1*67
$GPGSV,3,2,12,14,47,061,40,15,70,270,,17,25,104,48,19,14,134,48,1*6A
$GPGSV,3,3,12,22,64,085,44,23,28,306,41,24,35,274,40,30,18,082,45,1*67
$GLGSV,3,1,10,65,19,326,,70,00,155,14,71,45,163,47,72,74,288,25,1*77
$GLGSV,3,2,10,73,50,042,46,74,77,261,30,75,24,233,46,81,07,350,35,1*72
$GLGSV,3,3,10,82,12,034,38,83,03,072,,1*71
$GAGSV,3,1,11,04,65,138,46,05,08,306,36,06,84,256,32,09,60,300,,7*75
$GAGSV,3,2,11,15,02,003,,19,08,129,39,21,17,045,40,23,63,081,41,7*7F
$GAGSV,3,3,11,24,02,212,,31,49,191,37,34,06,317,24,7*46
$GBGSV,3,1,10,05,16,124,44,07,24,055,41,09,00,083,,10,31,068,43,1*7C
$GBGSV,3,2,10,11,08,036,27,19,45,300,38,20,60,211,39,22,00,327,,1*75
$GBGSV,3,3,10,23,22,062,46,28,00,113,,1*79
$GNRMC,070005.00,A,4843.26009,N,00920.55341,E,0.026,,080225,,,A,V*14
$GNGGA,070005.00,4843.26009,N,00920.55341,E,1,12,0.53,252.6,M,47.6,M,,*48
$GPGSV,3,1,12,05,17,204,,10,03,338,,12,02,213,,13,68,133,44,1*66
$GPGSV,3,2,12,14,47,061,40,15,70,270,,17,25,104,48,19,14,134,49,1*6B
$GPGSV,3,3,12,22,64,085,45,23,28,306,41,24,35,274,41,30,18,082,45,1*67
$GLGSV,3,1,10,65,19,326,,70,00,155,12,71,45,163,46,72,74,288,26,1*73
$GLGSV,3,2,10,73,50,042,47,74,77,261,29,75,24,233,47,81,07,350,34,1*7B
$GLGSV,3,3,10,82,12,034,38,83,03,072,,1*71
$GAGSV,3,1,11,04,65,138,46,05,08,306,36,06,84,256,32,09,60,300,,7*75
$GAGSV,3,2,11,15,02,003,,1908,129,39,21,17,045,40,23,63,081,41,7*7F
$GAGSV,3,3,11,24,02,212,,31,49,191,37,34,06,317,23,7*41
$GBGSV,3,1,10,05,16,124,44,07,24,055,41,09,00,083,,10,31,068,43,1*7C
$GBGSV,3,2,10,11,08,036,27,19,45,300,38,20,60,211,39,22,00,327,,1*75
$GBGSV,3,3,10,23,22,062,46,28,00,113,,1*79
$GNRMC,070006.00,A,4843.26010,N,00920.55340,E,0.018,,080225,,,A,V*13
$GNGGA,070006.00,4843.26010,N,00920.55340,E,1,12,0.53,252.6,M,47.6,M,,*42
$GPGSV,3,1,12,05,17,204,,10,03,338,,12,02,213,,13,68,133,44,1*66
$GPGSV,3,2,12,14,47,061,41,15,70,270,,17,25,104,48,19,14,134,49,1*6A
$GPGSV,3,3,12,22,64,085,45,23,28,306,41,24,35,274,40,30,18,082,46,1*65
$GLGSV,3,1,10,65,19,326,,70,00,155,13,71,45,163,46,72,74,288,26,1*72
$GLGSV,3,2,10,73,50,042,47,74,77,261,29,75,24,233,45,81,07,350,33,1*7E
$GLGSV,3,3,10,82,12,034,37,83,03,072,,1*7E
$GAGSV,3,1,11,04,65,138,46,05,08,306,36,06,84,256,32,09,60,300,,7*75
$GAGSV,3,2,11,15,02,003,,19,08,129,39,21,17,045,40,23,63,081,41,7*7F
$GAGSV,3,3,11,24,02,212,,31,49,191,37,34,06,317,23,7*41
$GBGSV,3,1,10,05,16,124,44,07,24,055,41,09,00,083,,10,31,068,43,1*7C
$GBGSV,3,2,10,11,08,036,27,19,45,300,38,20,60,211,39,22,00,327,,1*75
$GBGSV,3,3,10,23,22,062,46,28,00,113,,1*79
$GNRMC,070007.00,A,4843.26010,N,0920.55339,E,0.013,,080225,,,A,V*17
$GNGGA,070007.00,4843.26010,N,00920.55339,E,1,12,0.53,252.6,M,47.6,M,,*4D
$GPGSV,3,1,12,05,17,204,,10,03,338,,12,02,213,,13,68,133,45,1*67
$GPGSV,3,2,12,14,47,061,41,15,70,270,,17,25,104,47,19,14,134,49,1*65
$GPGSV,3,3,12,22,64,085,44,23,28,306,41,24,35,274,40,30,18,082,46,1*64
$GLGSV,3,1,10,65,19,326,,70,00,155,13,71,45,163,46,72,74,288,26,1*72
$GLGSV,3,2,10,73,50,042,47,74,77,261,29,75,24,233,46,81,07,350,33,1*7D
$GLGSV,3,3,10,82,12,034,36,83,03,072,,1*7F
$GAGSV,3,1,11,04,65,138,45,05,08,306,36,06,84,256,32,09,60,300,,7*76
$GAGSV,3,2,11,15,02,003,,19,08,129,39,21,17,045,39,23,63,081,41,7*71
$GAGSV,3,3,11,24,02,212,,31,49,191,37,34,06,317,23,7*41
$GBGSV,3,1,10,05,16,124,44,07,24,055,41,09,00,083,,10,31,068,43,1*7C
$GBGSV,3,2,10,11,08,036,28,19,45,300,38,20,60,211,39,22,00,327,,1*7A
$GBGSV,3,3,10,23,22,062,46,28,00,113,,1*79
$GNRMC,070008.00,A,4843.26011,N,00920.55336,E,0.026,,080225,,,A,V*10
$GNGGA,070008.00,4843.26011,N,00920.55336,E,1,12,0.53,252.5,M,47.6,M,,*4F
$GPGSV,3,1,12,05,17,204,,10,03,338,,12,02,213,,13,68,133,45,1*67
$GPGSV,3,2,12,14,47,061,41,15,70,270,,17,25,104,47,19,14,134,49,1*65
$GPGSV,3,3,12,22,64,085,45,23,28,306,42,24,35,274,40,30,18,082,46,1*66
$GLGSV,3,1,10,65,19,326,,70,00,155,11,71,45,163,48,72,74,288,28,1*70
$GLGSV,3,2,10,73,50,042,47,74,77,261,29,75,24,233,45,81,07,350,32,1*7F
$GLGSV,3,3,10,82,12,034,37,83,03,072,,1*7E
$GAGSV,3,1,11,04,65,138,45,05,08,306,36,06,84,256,31,09,60,300,,7*75
$GAGSV,3,2,11,15,02,003,,19,08,129,40,21,17,045,39,23,63,081,41,7*7F
$GAGSV,3,3,11,24,02,212,,31,49,191,37,34,06,317,24,7*46
$GBGSV,3,1,10,05,16,124,44,07,24,055,41,09,00,083,,10,31,068,43,1*7C
$GBGSV,3,2,10,11,08,036,28,19,45,300,38,20,60,211,39,22,00,327,,1*7A
$GBGSV,3,3,10,23,22,062,46,28,00,113,,1*79
$GNRMC,070009.00,A,4843.26013,N,00920.55338,E,0.024,,080225,,,A,V*1F
$GNGGA,070009.00,4843.26013,N,00920.55338,E,1,12,0.53,252.6,M,47.6,M,,*41
$GPGSV,3,1,12,05,17,204,,10,03,338,,12,02,213,,13,68,133,45,1*67
$GPGSV,3,2,12,14,47,061,42,15,70,270,,17,25,104,48,19,14,134,49,1*69
$GPGSV,3,3,12,22,64,085,45,23,28,306,41,24,35,274,40,30,18,082,46,1*65
$GLGSV,3,1,10,65,19,326,,70,00,155,11,71,45,163,49,72,74,288,28,1*71
$GLGSV,3,2,10,73,50,042,46,74,77,261,29,75,24,233,46,81,07,350,31,1*7E
$GLGSV,3,3,0,82,12,034,37,83,03,072,,1*7E
$GAGSV,3,1,11,04,65,138,46,05,08,306,37,06,84,256,31,09,60,300,,7*77
$GAGSV,3,2,11,15,02,003,,19,08,129,40,21,17,045,39,23,63,081,41,7*7F
$GAGSV,3,3,11,24,02,212,,31,49,191,37,34,06,317,24,7*46
$GBGSV,3,1,10,05,16,124,45,07,24,055,41,09,00,083,,10,31,068,43,1*7D
$GBGSV,3,2,10,11,08,036,28,19,45,300,38,20,60,211,38,22,00,327,,1*7B
$GBGSV,3,3,10,23,22,062,46,28,00,113,,1*79
$GNRMC,070010.00,A,4843.26010,N,00920.55335,E,0.011,,080225,,,A,V*1F
$GNGGA,070010.00,4843.26010,N,00920.55335,E,1,12,0.57,252.5,M,47.6,M,,*40
$GPGSV,3,1,12,05,17,204,,10,03,338,,12,02,213,,13,68,133,45,1*67
$GPGSV,3,2,12,14,47,061,41,15,70,270,,17,25,104,48,19,14,134,50,1*62
$GPGSV,3,3,12,22,64,085,45,23,28,306,41,24,35,274,40,30,18,082,46,1*65
$GLGSV,3,1,10,65,19,326,,70,00,155,13,71,44,163,50,72,74,288,27,1*75
$GLGSV,3,2,10,73,50,042,46,74,77,261,29,75,24,233,47,81,07,349,31,1*77
$GLGSV,3,3,10,82,12,034,38,83,03,072,,1*71
$GAGSV,3,1,11,04,65,138,47,05,08,306,36,06,84,256,30,09,60,300,,7*76
$GAGSV,3,2,11,15,02,003,,19,08,129,40,21,17,045,39,23,63,081,41,7*7F
$GAGSV,3,3,11,24,02,212,,31,49,191,37,34,06,317,24,7*46
$GBGSV,3,1,10,05,16,124,45,07,24,055,41,09,00,083,,10,31,068,43,1*7D
$GBGSV,3,2,10,11,08,036,28,19,45,300,38,20,60,211,38,22,00,327,,1*7B
$GBGSV,3,3,10,23,2,062,47,28,00,113,,1*78
$GNRMC,070011.00,A,4843.26010,N,00920.55332,E,0.036,,080225,,,A,V*1C
$GNGGA,070011.00,4843.26010,N,00920.55332,E,1,12,0.53,252.4,M,47.6,M,,*43
$GPGSV,3,1,12,05,17,204,,10,03,338,,12,02,213,,13,68,133,45,1*67
$GPGSV,3,2,12,14,47,061,43,15,70,270,,17,25,104,47,19,14,134,49,1*67
$GPGSV,3,3,12,22,64,085,45,23,28,306,41,24,35,274,40,30,18,082,46,1*65
$GLGSV,3,1,10,65,19,326,,70,00,155,12,71,44,163,49,72,74,288,26,1*7D
$GLGSV,3,2,10,73,50,042,47,74,77,261,28,75,24,233,47,81,07,349,31,1*77
$GLGSV,3,3,10,82,12,034,38,83,03,072,,1*71
$GAGSV,3,1,11,04,64,138,46,05,08,306,36,06,84,256,30,09,60,300,,7*76
$GAGSV,3,2,11,15,02,003,,19,08,129,39,21,17,045,39,23,63,081,41,7*71
$GAGSV,3,3,11,24,02,212,,31,49,191,37,34,06,317,24,7*46
$GBGSV,3,1,10,05,16,124,44,07,24,055,41,09,00,083,,10,31,068,43,1*7C
$GBGSV,3,2,10,11,08,036,29,19,45,300,38,20,60,211,38,22,00,327,,1*7A
$GBGSV,3,3,10,23,22,062,47,28,00,113,,1*78
$GNRMC,070012.00,A,4843.26009,N,00920.55332,E,0.015,,080225,,,A,V*16
$GNGGA,070012.00,4843.26009,N,00920.55332,E,1,12,0.53,252.4,M,47.6,M,,*48
$GPGSV,3,1,12,05,17,204,,10,03,338,,12,02,213,,13,68,133,45,1*67
$GPGSV,3,2,12,14,47,061,43,15,70,270,,17,25,104,47,19,14,134,49,1*67
$GPGSV,3,3,12,22,64,085,45,23,28,306,41,24,35,274,40,30,18,082,46,1*65
$GLGSV,3,1,10,65,19,326,,70,00,155,13,71,44,163,49,72,74,288,24,1*7E
$GLGSV,3,2,10,73,50,042,47,74,77,261,28,75,24,233,47,81,07,349,32,1*74
$GLGSV,3,3,10,82,12,034,38,83,03,072,,1*71
$GAGSV,3,3,11,24,02,212,,31,49,191,37,34,06,317,23,7*41
$GBGSV,3,1,10,05,16,124,43,07,24,055,41,09,00,083,,10,31,068,43,1*7B
$GBGSV,3,2,10,11,08,036,29,19,45,300,38,20,60,211,38,22,00,327,,1*7A
$GBGSV,3,3,10,23,22,062,47,28,00,113,,1*78
$GNRMC,070013.00,A,4843.26009,N,00920.55332,E,0.041,,080225,,,A,V*16
$GNGGA,070013.00,4843.26009,N,00920.55332,E,1,12,0.53,252.4,M,47.6,M,,*49
$GPGSV,3,1,12,05,17,204,,10,03,338,,12,02,213,,13,68,133,45,1*67
$GPGSV,3,2,12,14,47,061,43,15,70,270,,17,25,104,46,19,14,134,50,1*6E
$GPGSV,3,3,12,22,64,085,45,23,28,306,41,24,35,274,40,30,18,082,46,1*65
$GLGSV,3,1,10,65,19,326,,70,00,155,11,71,44,163,49,72,74,288,22,1*7A
$GLGSV,3,2,10,73,50,042,47,74,77,261,28,75,24,233,46,81,07,349,32,1*75
$GLGSV,3,3,10,82,12,034,38,83,03,072,,1*71
$GAGSV,3,1,11,04,64,138,46,05,08,306,37,06,84,249,31,09,60,300,,7*78
$GAGSV,3,2,11,15,02,003,,19,08,129,39,21,17,045,40,23,63,081,41,7*7F
$GAGSV,3,3,11,24,02,212,,31,49,191,37,34,06,317,23,7*41
$GBGSV,3,1,10,05,16,124,44,07,24,055,41,09,00,083,,10,31,068,43,1*7C
$GBGSV,3,2,10,11,08,036,29,19,45,300,38,20,60,211,38,22,00,327,,1*7A
$GBGSV,3,3,10,23,22,062,47,28,00,113,,1*78
$GNRMC,070014.00,A,4843.26008,N,00920.55331,E,0.024,,080225,,,A,V*10
$GNGGA,070014.00,4843.26008,N,00920.55331,E,1,12,0.53,252.3,M,47.6,M,,*4B
$GPGSV,3,1,12,05,17,204,,10,03,338,,12,02,213,,13,68,133,45,1*67
$GPGSV,3,2,12,14,47,061,44,15,70,270,,17,25,104,46,19,14,134,50,1*69
$GPGSV,3,3,12,22,64,085,45,23,28,306,41,24,35,274,41,30,18,082,45,1*67
$GLGSV,3,1,10,65,19,326,,70,00,155,11,71,44,163,50,72,74,288,23,1*73
$GLGSV,3,2,10,73,50,042,47,74,77,261,28,75,24,233,47,81,07,349,33,1*75
$GLGSV,3,3,10,82,12,034,38,83,03,072,,1*71
$GAGSV,3,1,11,04,64,138,46,05,08,306,37,06,84,249,31,09,60,300,,7*78
$GAGSV,3,2,11,15,02,003,,19,08,129,39,21,17,045,40,23,63,081,41,7*7F
$GAGSV,3,3,11,24,02,212,,31,49,191,37,34,06,317,22,7*40
$GBGSV,3,1,10,05,16,124,44,07,24,055,41,09,00,083,,10,31,068,43,1*7C
$GBGSV,3,2,10,11,08,036,29,19,45,300,38,20,60,211,39,22,00,327,,1*7B
$GBGSV,3,3,10,23,22,062,47,28,00,113,,1*78
$GNRMC,070015.00,A,4843.26010,N,00920.55331,E,0.026,,080225,,,A,V*1A
$GNGGA,070015.00,4843.26010,N,00920.55331,E,1,12,0.53,252.3,M,47.6,M,,*43
$GPGSV,3,1,12,05,17,204,,10,03,338,,12,02,213,,13,68,133,45,1*67
$GPGSV,3,2,12,14,47,061,44,15,70,270,,17,25,104,47,19,14,134,50,1*68
$GPGSV,3,3,12,22,64,085,45,23,28,306,41,24,35,274,40,30,18,082,46,1*65
$GLGSV,3,1,10,65,19,326,,70,00,155,14,71,44,163,51,72,74,288,23,1*77
$GLGSV,3,2,10,73,50,042,47,74,77,261,28,75,24,233,47,81,07,349,34,1*72
$GLGSV,3,3,10,82,12,034,38,83,03,072,,1*71
$GAGSV,3,1,11,04,64,138,47,05,08,306,36,06,84,249,31,09,60,300,,7*78
$GAGSV,3,2,11,15,02,003,,19,08,129,38,21,17,045,40,23,63,081,41,7*7E
$GAGSV,3,3,11,24,02,212,,31,49,191,36,34,06,317,22,7*41
$GBGSV,3,1,10,05,16,124,44,07,24,055,41,09,00,083,,10,31,068,43,1*7C
$GBGSV,3,2,10,11,08,036,29,19,45,300,38,20,60,211,39,22,00,327,,1*7B
$GBGSV,3,3,10,23,22,062,47,28,00,113,,1*78
$GNRMC,070016.00,A,4843.2601,N,00920.55330,E,0.014,,080225,,,A,V*19
$GNGGA,070016.00,4843.26010,N,00920.55330,E,1,12,0.57,252.2,M,47.6,M,,*44
$GPGSV,3,1,12,05,17,204,,10,03,338,,12,02,213,,13,68,133,45,1*67
$GPGSV,3,2,12,14,47,061,44,15,70,270,,17,25,104,47,19,14,134,49,1*60
$GPGSV,3,3,12,22,64,085,45,23,28,306,41,24,35,274,41,30,18,082,45,1*67
$GLGSV,3,1,10,65,19,326,,70,00,155,11,71,44,163,52,72,74,288,22,1*70
$GLGSV,3,2,10,73,50,042,47,74,77,261,28,75,24,233,47,81,07,349,35,1*73
$GLGSV,3,3,10,82,12,034,39,83,03,072,,1*70
$GAGSV,3,1,11,04,64,138,47,05,08,306,36,06,84,249,31,09,60,300,,7*78
$GAGSV,3,2,11,15,02,003,,19,08,129,38,21,17,045,40,23,63,081,42,7*7D
$GAGSV,3,3,11,24,02,212,,31,49,191,36,34,06,317,22,7*41
$GBGSV,3,1,10,05,16,124,44,07,24,055,41,09,00,083,,10,31,068,43,1*7C
$GBGSV,3,2,10,11,08,036,29,19,45,300,38,20,59,211,39,22,00,327,,1*71
$GBGSV,3,3,10,23,21,062,47,28,00,113,,1*7B
$GNRMC,070017.00,A,4843.26009,N,00920.55329,E,0.031,,080225,,,A,V*1F
$GNGGA,070017.00,4843.26009,N,00920.55329,E,1,12,0.53,252.1,M,47.6,M,,*42
$GPGSV,3,1,12,05,17,204,,10,03,338,,12,02,213,,13,68,133,44,1*66
$GPGSV,3,2,12,14,47,061,44,15,70,270,,17,25,104,47,19,14,134,50,1*68
$GPGSV,3,3,12,22,64,085,44,23,28,306,41,24,35,274,41,30,18,082,45,1*66
$GLGSV,3,1,10,65,19,326,,70,00,155,11,71,44,163,50,72,74,288,19,1*7A
$GLGSV,3,2,10,73,50,042,47,74,77,261,28,75,24,233,47,81,07,349,35,1*73
$GLGSV,3,3,10,82,12,034,39,83,03,072,,1*70
$GAGSV,3,1,11,04,64,138,46,05,08,306,36,06,84,249,31,09,60,300,,7*79
$GAGSV,3,2,11,15,02,003,,19,08,129,38,21,17,045,40,23,63,081,40,7*7F
$GAGSV,3,3,11,24,02,212,,31,49,191,36,34,06,317,22,7*41
$GBGSV,3,1,10,05,16,124,45,07,24,055,41,09,00,083,,10,31,068,43,1*7D
$GBGSV,3,2,10,11,08,036,29,19,45,300,38,20,59,211,39,22,00,327,,1*71
$GBGSV,3,3,10,23,21,062,47,28,00,113,,1*7B
$GNRMC,070018.00,A,4843.26008,N,00920.55328,E,0.026,,080225,,,A,V*16
$GNGGA,070018.00,4843.26008,N,00920.55328,E,1,12,0.53,252.0,M,47.6,M,,*4C
$GPGSV,3,1,12,05,17,204,,10,03,338,,12,02,213,,13,68,133,43,1*61
$GPGSV,3,2,12,14,47,061,44,15,70,270,,17,25,104,46,19,14,134,50,1*69
$GPGSV,3,3,12,22,64,085,46,23,28,306,41,24,35,274,41,30,18,082,46,1*67
$GLGSV,3,1,10,65,19,326,,70,00,155,10,71,44,163,48,72,74,288,15,1*7E
$GLGSV,3,2,10,73,50,042,47,74,77,261,27,75,24,233,47,81,07,349,36,1*7F
$GLGSV,3,3,10,82,12,034,39,83,03,072,,1*70
$GAGSV,3,1,11,04,64,138,46,05,08,306,36,06,84,249,31,09,60,300,,7*79
$GAGSV,3,2,11,15,02,003,,19,08,129,38,21,17,045,40,23,63,081,42,7*7D
$GAGSV,3,3,11,24,02,212,,31,49,191,36,34,06,317,22,7*41
$GBGSV,3,1,10,05,16,124,45,07,24,055,41,09,00,083,,10,31,068,43,1*7D
$GBGSV,3,2,10,11,08,036,29,19,45,300,38,20,59,211,40,22,00,327,,1*7F
$GBGSV,3,3,10,23,21,062,47,28,00,113,,1*7B
$GNRMC,070019.00,A,4843.26007,N,00920.55328,E,0.014,,080225,,,A,V*19
$GNGGA,070019.00,4843.26007,N,00920.55328,E,1,12,0.53,252.0,M,47.6,M,,*42
$GPGSV,3,1,12,05,17,204,,10,03,338,,12,02,213,,13,68,133,44,1*66
$GPGSV,3,2,12,14,47,061,44,15,70,270,,17,25,104,47,19,14,134,49,1*60
$GPGSV,3,3,12,22,64,085,45,23,28,306,41,24,35,274,41,30,18,082,46,1*64
$GLGSV,3,1,10,65,19,326,,70,00,155,12,71,44,163,48,72,74,288,16,1*7F
$GLGSV,3,2,10,73,50,042,47,74,77,261,27,75,24,233,47,81,07,349,36,1*7F
$GLGSV,3,3,10,82,12,034,40,83,03,072,,1*7E
$GAGSV,3,1,11,04,64,138,46,05,08,306,36,06,84,249,31,09,60,300,,7*79
$GAGSV,3,2,11,15,02,003,,19,08,129,38,21,17,045,40,23,63,081,43,7*7C
$GAGSV,3,3,11,24,02,212,,31,49,191,37,34,06,317,22,7*40
$GBGSV,3,1,10,05,16,124,44,07,24,055,41,09,00,083,,10,31,068,43,1*7C
$GBGSV,3,2,10,11,08,036,29,19,45,300,38,20,59,211,40,22,00,327,,1*7F
$GBGSV,3,3,10,23,21,062,47,28,00,113,,1*7B
$GNRMC,070020.00,A,4843.26007,N,00920.55330,E,0.052,,080225,,,A,V*18
$GNGGA,070020.00,4843.26007,N,00920.55330,E,1,12,0.53,251.9,M,47.6,M,,*4B
$GPGSV,3,1,12,05,17,204,10,03,338,,12,02,213,,13,68,133,44,1*66
$GPGSV,3,2,12,14,47,061,45,15,70,270,,17,25,104,47,19,14,134,49,1*61
$GPGSV,3,3,12,22,64,085,45,23,28,306,41,24,35,274,41,30,18,082,46,1*64
$GLGSV,3,1,10,65,19,326,,70,00,155,12,71,44,163,49,72,74,288,12,1*7A
$GLGSV,3,2,10,73,50,042,47,74,77,261,27,75,24,233,47,81,07,349,36,1*7F
$GLGSV,3,3,10,82,12,034,40,83,03,072,,1*7E
$GAGSV,3,1,11,04,64,138,46,05,08,306,36,06,84,249,31,09,60,300,,7*79
$GAGSV,3,2,11,15,02,003,,19,08,129,38,21,17,045,40,23,63,081,43,7*7C
$GAGSV,3,3,11,24,02,212,,31,49,191,37,34,06,317,22,7*40
$GBGSV,3,1,10,05,16,124,44,07,24,055,41,09,00,083,,10,31,068,43,1*7C
$GBGSV,3,2,10,11,08,036,28,19,45,300,37,20,59,211,40,22,00,327,,1*71
$GBGSV,3,3,10,23,21,062,47,28,00,113,,1*7B
$GNRMC,070021.00,A,4843.26007,N,00920.55332,E,0.035,,080225,,,A,V*1A
$GNGGA,070021.00,4843.26007,N,00920.55332,E,1,12,0.53,251.9,M,47.6,M,,*48
$GPGSV,3,1,12,05,17,204,,10,03,338,,12,02,213,,13,68,133,44,1*66
$GPGSV,3,2,12,14,47,061,45,15,70,270,,17,25,104,47,19,14,134,49,1*61
$GPGSV,3,3,12,22,64,085,45,23,28,306,41,24,35,274,41,30,18,082,46,1*64
$GLGSV,3,1,10,65,19,326,,70,00,155,11,71,44,163,50,72,74,288,16,1*75
$GLGSV,3,2,10,73,50,042,47,74,77,261,27,75,24,233,46,81,07,349,37,1*7F
$GLGSV,3,3,10,82,12,034,40,83,03,072,,1*7E
$GAGSV,3,1,11,04,64,138,46,05,08,306,36,06,84,249,31,09,60,300,,7*79
$GAGSV,3,2,11,15,03,003,,19,08,129,38,21,17,045,40,23,63,081,43,7*7D
$GAGSV,3,3,11,24,02,212,,31,49,191,36,34,06,317,21,7*42
$GBGSV,3,1,10,05,16,124,44,07,24,055,41,09,00,083,,10,31,068,43,1*7C
$GBGSV,3,2,10,11,08,036,28,19,45,300,38,20,59,211,40,22,00,327,,1*7E
$GBGSV,3,3,10,23,21,062,47,28,00,113,,1*7B
$GNRMC,070022.00,A,4843.26006,N,00920.55331,E,0.005,,080225,,,A,V*18
$GNGGA,070022.00,4843.26006,N,00920.55331,E,1,12,0.57,251.9,M,47.6,M,,*4D
$GPGSV,3,1,12,05,17,204,,10,03,338,,12,02,213,,13,68,133,46,1*64
$GPGSV,3,2,12,14,47,061,45,15,70,270,,17,25,104,46,19,14,134,49,1*60
$GPGSV,3,3,12,22,64,085,45,23,28,306,41,24,35,274,41,30,18,082,46,1*64
$GLGSV,3,1,10,65,19,326,,70,00,155,13,71,44,163,50,72,74,288,13,1*72
$GLGSV,3,2,10,73,50,042,48,74,77,261,28,75,24,233,48,81,07,349,38,1*7E
$GLGSV,3,3,10,82,12,034,40,83,03,072,,1*7E
$GAGSV,3,1,11,04,64,138,47,05,08,306,36,06,84,249,31,09,60,300,,7*78
$GAGSV,3,2,11,15,03,003,,19,08,129,39,21,17,045,40,23,63,081,43,7*7C
$GAGSV,3,3,11,24,02,212,,31,49,191,36,34,06,317,21,7*42
$GBGSV,3,1,10,05,16,124,44,07,24,055,41,09,00,083,,10,31,068,43,1*7C
$GBGSV,3,2,10,11,08,036,28,19,45,30,38,20,59,211,40,22,00,327,,1*7E
$GBGSV,3,3,10,23,21,062,47,28,00,113,,1*7B
$GNRMC,070023.00,A,4843.26004,N,00920.55330,E,0.012,,080225,,,A,V*1C
$GNGGA,070023.00,4843.26004,N,00920.55330,E,1,12,0.53,251.8,M,47.6,M,,*4A
$GPGSV,3,1,12,05,17,204,,10,03,338,,12,02,213,,13,68,133,46,1*64
$GPGSV,3,2,12,14,47,061,44,15,70,270,,17,25,104,47,19,14,14,49,1*60
$GPGSV,3,3,12,22,64,085,45,23,28,306,41,24,35,274,41,30,18,082,46,1*64
$GLGSV,3,1,10,65,19,326,,70,00,155,12,71,44,163,49,72,74,288,14,1*7C
$GLGSV,3,2,10,73,50,042,47,74,77,261,2875,24,233,47,81,07,349,37,1*71
$GLGSV,3,3,10,82,12,034,40,83,03,072,,1*7E
$GAGSV,3,1,11,04,64,138,47,05,08,306,36,06,84,249,31,09,60,300,,7*78
$GAGSV,3,2,11,15,03,003,,19,08,129,39,21,17,045,40,23,63,081,43,7*7C
$GAGSV,3,3,11,24,02,212,,31,49,191,35,34,06,317,22,7*42
$GBGSV,3,1,10,05,16,124,44,07,24,055,41,09,00,083,,10,31,068,43,1*7C
$GBGSV,3,2,10,11,08,036,28,19,45,300,37,20,59,211,40,22,00,327,,1*71
$GBGSV,3,3,10,23,21,062,47,28,00,113,,1*7B
$GNRMC,070024.00,A,4843.26003,N,00920.55331,E,0.049,,080225,,,A,V*13
$GNGGA,070024.00,4843.26003,N,00920.55331,E,1,12,0.53,251.7,M,47.6,M,,*44
$GPGSV,3,1,12,05,17,204,,10,03,338,,12,02,213,,13,68,133,46,1*64
$GPGSV,3,2,12,14,47,061,46,15,70,270,,17,25,104,48,19,14,134,49,1*6D
$GPGSV,3,3,12,22,64,085,44,23,28,306,40,24,35,274,42,30,18,082,46,1*67
$GLGSV,3,1,10,65,19,326,,70,00,155,11,71,44,163,47,72,74,288,25,1*73
$GLGSV,3,2,10,73,50,042,47,74,77,261,28,75,24,233,47,81,07,349,33,1*75
$GLGSV,3,3,10,82,12,034,38,83,03,072,,1*71
$GAGSV,3,1,11,04,64,138,46,05,08,306,31,06,84,249,31,09,60,300,,7*7E
$GAGSV,3,2,11,15,03,003,,19,08,129,39,21,17,044,40,23,63,081,43,7*7D
$GAGSV,3,3,11,24,02,212,,31,49,191,35,34,06,317,21,7*41
$GBGSV,3,1,10,05,16,124,44,07,24,055,41,09,00,083,,10,31,068,43,1*7C
$GBGSV,3,2,10,11,08,036,29,19,45,300,38,20,59,211,40,22,00,327,,1*7F
$GBGSV,3,3,10,23,21,062,47,28,00,113,,1*7B
$GNRMC,070025.00,A,4843.26001,N,00920.55332,E,0.024,,080225,,,A,V*18
$GNGGA,070025.00,4843.26001,N,00920.55332,E,1,12,0.53,251.7,M,47.6,M,,*44
$GPGSV,3,1,12,05,17,204,,10,03,338,,12,02,213,,13,68,133,45,1*67
$GPGSV,3,2,12,14,47,061,45,15,70,270,,17,25,104,46,19,14,134,50,1*68
$GPGSV,3,3,12,22,64,085,46,23,28,306,40,24,35,274,41,30,18,082,46,1*66
$GLGSV,3,1,10,65,19,326,,70,00,155,09,71,44,163,48,72,74,288,12,1*71
$GLGSV,3,2,10,73,50,042,46,74,77,261,28,75,24,233,47,81,07,349,38,1*7F
$GLGSV,3,3,10,82,12,034,38,83,03,072,,1*71
$GAGSV,3,1,11,04,64,138,46,05,08,306,36,06,84,249,31,09,60,300,,7*79
$GAGSV,3,2,11,15,03,003,,19,08,129,39,21,17,044,40,23,63,079,41,7*78
$GAGSV,3,3,11,24,02,212,,31,49,191,36,34,06,317,22,7*41
$GBGSV,3,1,10,05,16,124,44,07,24,055,41,09,00,083,,10,31,068,43,1*7C
$GBGSV,3,2,10,11,08,036,29,19,45,300,37,20,59,211,40,22,00,327,,1*70
$GBGSV,3,3,10,23,21,062,46,28,00,113,,1*7A
$GNRMC,070026.00,A,4843.26001,N,00920.55331,E,0.023,,080225,,,A,V*1F
$GNGGA,070026.00,4843.26001,N,00920.55331,E,1,12,0.53,251.6,M,47.6,M,,*45
$GPGSV,3,1,12,05,17,204,,10,03,338,,12,02,213,,13,68,133,45,1*67
$GPGSV,3,2,12,14,47,061,46,15,70,270,,17,25,104,47,19,14,134,49,1*62
$GLGSV,3,2,10,73,50,042,46,74,77,261,28,75,24,233,47,81,07,349,38,1*7F
$GLGSV,3,3,10,82,12,034,38,83,03,072,,1*71
$GAGSV,3,1,11,04,64,138,47,05,08,306,31,06,84,249,31,09,60,300,,7*7F
$GAGSV,3,2,11,15,03,003,,19,08,129,38,21,17,044,40,23,63,079,43,7*7B
$GAGSV,3,3,11,24,03,212,,3,49,191,36,34,06,317,22,7*40
$GBGSV,3,1,10,05,16,124,44,07,24,055,41,09,00,083,,10,31,068,43,1*7C
$GBGSV,3,2,10,11,08,036,28,19,45,300,37,20,59,211,41,22,00,327,,1*70
$GBGSV,3,3,10,23,21,062,46,28,00,113,,1*7A
$GNRMC,070027.00,A,4843.26000,N,00920.55334,E,0.020,,080225,,,A,V*19
$GNGGA,070027.00,4843.26000,N,00920.55334,E,1,12,0.53,251.6,M,47.6,M,,*40
$GPGSV,3,1,12,05,17,204,,10,03,338,,12,02,213,,13,68,133,46,1*64
$GPGSV,3,2,12,14,47,061,45,15,70,270,,17,25,104,47,19,14,134,49,1*61
$GPGSV,3,3,12,22,64,085,46,23,28,306,40,24,35,274,41,30,18,082,46,1*66
$GLGSV,3,1,10,65,19,326,,70,00,155,12,71,44,163,51,72,74,288,20,1*72
$GLGSV,3,2,10,73,50,042,46,74,77,261,28,75,24,233,48,81,07,349,39,1*71
$GLGSV,3,3,10,82,12,034,38,83,03,072,,1*71
$GAGSV,3,1,11,04,64,138,47,05,08,306,36,06,84,249,31,09,60,300,,7*78
$GAGSV,3,2,11,15,03,003,,19,08,129,38,21,17,044,40,23,63,079,43,7*7B
$GAGSV,3,3,11,24,03,212,,31,49,191,35,34,06,317,21,7*40
$GBGSV,3,1,10,05,16,124,44,07,24,055,41,09,00,083,,10,31,068,43,1*7C
$GBGSV,3,2,10,11,08,036,28,19,45,300,37,20,59,211,41,22,00,327,,1*70
$GBGSV,3,3,10,23,21,062,46,28,00,113,,1*7A
$GNRMC,070028.00,A,4843.25997,N,00920.55333,E,0.041,,080225,,,A,V*12
$GNGGA,070028.00,4843.25997,N,00920.55333,E,1,12,0.57,251.5,M,47.6,M,,*4B
$GPGSV,3,1,12,05,17,204,,10,03,338,,12,02,213,,13,68,133,46,1*64
$GPGSV,3,2,12,14,47,061,45,15,70,270,,17,25,104,47,19,14,134,49,1*61
$GPGSV,3,3,12,22,64,085,46,23,28,306,40,24,35,274,41,30,18,082,45,1*65
$GLGSV,3,1,10,65,19,326,,70,00,155,10,71,44,163,51,72,74,288,19,1*7A
$GLGSV,3,2,10,73,50,042,46,74,77,261,29,75,24,233,48,81,07,349,39,1*70
$GLGSV,3,3,10,82,12,034,40,83,03,072,,1*7E
$GAGSV,3,1,11,04,64,138,47,05,08,306,36,06,84,249,32,09,60,300,,7*7B
$GAGSV,3,2,11,15,03,003,,19,08,129,38,21,17,044,40,23,63,079,43,7*7B
$GAGSV,3,3,11,24,03,212,,31,49,191,35,34,06,317,20,7*41
$GBGSV,3,1,10,05,16,124,44,07,24,055,41,09,00,083,,10,31,068,43,1*7C
$GBGSV,3,2,10,11,08,036,29,19,45,300,37,20,59,211,41,22,00,327,,1*71
$GBGSV,3,3,10,23,21,062,46,28,00,113,,1*7A
$GNRMC,070029.00,A,4843.25994,N,00920.55332,E,0.022,,080225,,,A,V*14
$GNGGA,070029.00,4843.25994,N,00920.55332,E,1,12,0.53,251.5,M,47.6,M,,*4C
$GPGSV,3,1,12,05,17,204,,10,03,338,,12,02,213,,13,68,133,46,1*64
$GPGSV,3,2,12,14,47,061,45,15,70,270,,17,25,104,47,19,14,134,49,1*61
$GPGSV,3,3,12,22,64,085,45,23,28,306,40,24,35,274,41,30,18,082,45,1*66
$GLGSV,3,1,10,65,19,326,,70,00,155,12,71,44,163,51,72,74,288,19,1*78
$GLGSV,3,2,10,73,50,042,45,74,77,261,28,75,24,233,48,81,07,349,39,1*72
$GLGSV,3,3,10,82,12,034,40,83,03,072,,1*7E
$GAGSV,3,1,11,04,64,138,47,05,08,306,36,06,84,249,32,09,60,300,,7*7B
$GAGSV,3,2,11,15,03,003,,19,08,129,39,21,17,044,40,23,63,079,43,7*7A
$GAGSV,3,3,11,24,03,212,,31,49,191,35,34,06,317,20,7*41
$GBGSV,3,1,10,05,16,124,44,07,24,055,41,09,00,083,,10,31,068,43,1*7C
$GBGSV,3,2,10,11,08,036,29,19,45,300,37,20,59,211,42,22,00,327,,1*72
$GBGSV,3,3,10,23,21,62,46,28,00,113,,1*7A
$GNRMC,070030.00,A,4843.25992,N,00920.55331,E,0.017,,080225,,,A,V*1F
$GNGGA,070030.00,4843.25992,N,00920.55331,E,1,12,0.53,251.4,M,47.6,M,,*40
$GPGSV,3,1,12,05,17,204,,10,03,338,,12,02,213,,13,68,133,46,1*64
$GPGSV,3,2,12,14,47,061,45,15,70,270,,17,25,104,47,19,14,134,49,1*61
$GPGSV,3,3,12,22,64,085,45,23,28,306,40,24,35,274,41,30,18,082,45,1*66
$GLGSV,3,1,10,65,19,326,,70,00,155,14,71,44,163,50,72,74,288,21,1*74
$GLGSV,3,2,10,73,50,042,46,74,77,261,28,75,24,233,48,81,07,349,39,1*71
$GLGSV,3,3,10,82,12,034,41,83,03,072,,1*7F
$GAGSV,3,1,11,04,64,138,47,05,08,306,36,06,84,249,32,09,60,300,,7*7B
$GAGSV,3,2,11,15,03,003,,19,08,129,39,21,17,044,40,23,63,079,41,7*78
$GAGSV,3,3,11,24,03,212,,31,49,191,35,34,06,317,20,7*41
$GBGSV,3,1,10,05,16,124,44,07,24,055,41,09,00,083,,10,31,068,43,1*7C
$GBGSV,3,2,10,11,08,036,29,19,45,300,37,20,59,211,42,22,00,327,,1*72
$GBGSV,3,3,10,23,21,062,46,28,00,113,,1*7A
$GNRMC,070031.00,A,4843.25990,N,00920.55330,E,0.007,,080225,,,A,V*1C
$GNGGA,070031.00,4843.25990,N,00920.55330,E,1,12,0.53,251.3,M,47.6,M,,*45
$GPGSV,3,1,12,05,17,204,,10,03,338,,12,02,213,,13,68,133,47,1*65
$GPGSV,3,2,12,14,47,061,46,15,70,270,,17,25,104,47,19,14,134,49,1*62
$GPGSV,3,3,12,22,64,085,46,23,28,306,40,24,35,274,41,30,18,082,45,1*65
$GLGSV,3,1,10,65,19,326,,70,00,155,13,71,44,163,50,72,74,288,23,1*71
$GLGSV,3,2,10,73,50,042,46,74,77,261,28,75,24,233,48,81,07,349,38,1*70
$GLGSV,3,3,10,82,12,034,41,83,03,072,,1*7F
$GAGSV,3,1,11,04,64,138,47,05,08,306,35,06,84,249,32,09,60,300,,7*78
$GAGSV,3,2,11,15,03,003,,19,08,129,39,21,17,044,40,23,63,079,43,7*7A
$GAGSV,3,3,11,24,03,212,,31,49,191,35,34,06,317,19,7*4B
$GBGSV,3,1,10,05,16,124,44,07,24,055,40,09,00,083,,10,31,068,43,1*7D
$GBGSV,3,2,10,11,08,036,30,19,45,300,37,20,59,211,41,22,00,327,,1*79
$GBGSV,3,3,10,23,21,062,46,28,00,113,,1*7A
$GNRMC,070032.00,A,4843.25989,N,00920.55331,E,0.014,,080225,,,A,V*14
$GNGGA,070032.00,4843.25989,N,00920.55331,E,1,12,0.53,251.3,M,47.6,M,,*4F
$GPGSV,3,1,12,05,17,204,,10,03,338,,12,02,213,,13,68,133,46,1*64
$GPGSV,3,2,12,14,47,061,47,15,70,270,,17,25,104,47,19,14,134,49,1*63
$GPGSV,3,3,12,22,64,085,45,23,28,306,40,24,35,274,41,30,18,082,45,1*66
$GLGSV,3,1,10,65,19,326,,70,00,155,14,71,44,163,50,72,74,288,25,1*70
$GLGSV,3,2,10,73,50,042,47,74,77,261,28,75,24,233,48,81,07,349,39,1*70
$GLGSV,3,3,10,82,12,034,41,83,03,072,,1*7F
$GAGSV,3,1,11,04,64,138,47,05,08,306,36,06,84,249,32,09,60,300,,7*7B
$GAGSV,3,2,11,15,03,003,,19,08,129,39,21,17,044,40,23,63,079,44,7*7D
$GAGSV,3,3,11,24,03,212,,31,49,191,35,34,06,317,19,7*4B
$GBGSV,3,1,10,05,16,124,44,07,24,055,41,09,00,083,,10,31,068,43,1*7C
$GBGSV,3,2,10,11,08,036,30,19,45,300,37,20,59,211,42,22,00,327,,1*7A
$GBGSV,3,3,10,23,21,062,45,28,00,113,,1*79
$GNRMC,070033.00,A,4843.25989,N,00920.55333,E,0.009,,080225,,,A,V*1B
$GNGGA,070033.00,4843.25989,N,00920.55333,E,1,12,0.53,251.2,M,47.6,M,,*4D
$GPGSV,3,1,12,05,17,204,,10,03,338,,12,02,213,,13,68,133,46,1*64
$GPGSV,3,2,12,14,47,061,46,15,70,270,,17,25,104,47,19,14,134,49,1*62
$GPGSV,3,3,12,22,64,085,46,23,28,306,40,24,35,274,41,30,18,082,45,1*65
$GLGSV,3,1,10,65,19,326,,70,00,155,15,71,44,163,51,72,74,288,28,1*7D
$GLGSV,3,2,10,73,50,042,48,74,77,261,28,75,24,233,48,81,07,349,39,1*7F
$GLGSV,3,3,10,82,12,034,40,83,03,072,,1*7E
$GAGSV,3,1,11,04,64,138,47,05,08,306,36,06,84,249,32,09,60,300,,7*7B
$GAGSV,3,2,11,15,03,003,,19,08,129,39,21,17,044,40,23,63,079,44,7*7D
$GAGSV,3,3,11,24,03,212,,31,49,191,35,34,06,317,21,7*40
$GBGSV,3,1,10,05,16,124,44,07,24,055,41,09,00,083,,10,31,068,43,1*7C
$GBGSV,3,2,10,11,08,036,30,19,45,300,37,20,59,211,42,22,00,327,,1*7A
$GBGSV,3,3,10,23,21,062,45,2,00,113,,1*79
$GNRMC,070034.00,A,4843.25989,N,00920.55330,E,0.005,,080225,,,A,V*13
$GNGGA,070034.00,4843.25989,N,00920.55330,E,1,12,0.57,251.1,M,47.6,M,,*4E
$GPGSV,3,1,12,05,17,204,,10,03,338,,12,02,213,,13,68,133,46,1*64
$GPGSV,3,2,12,14,47,061,46,15,70,270,,17,25,104,46,19,14,134,48,1*62
$GPGSV,3,3,12,22,64,085,46,23,28,306,41,24,35,274,41,30,18,082,45,1*64
$GLGSV,3,1,10,65,19,326,,70,00,155,11,71,44,163,51,72,74,288,29,1*78
$GLGSV,3,2,10,73,50,042,48,74,77,261,28,75,24,233,47,81,07,349,38,1*71
$GLGSV,3,3,10,82,12,034,40,83,03,072,,1*7E
$GAGSV,3,1,11,04,64,138,47,05,08,306,36,06,84,249,32,09,60,300,,7*7B
$GAGSV,3,2,11,15,03,003,,19,08,129,39,21,17,044,40,23,63,079,43,7*7A
$GAGSV,3,3,11,24,03,212,,31,49,191,35,34,06,316,22,7*42
$GBGSV,3,1,10,05,16,124,44,07,24,055,41,09,00,083,,10,31,068,43,1*7C
$GBGSV,3,2,10,11,08,036,29,19,45,300,37,20,59,211,42,22,00,327,,1*72
$GBGSV,3,3,10,23,21,062,45,28,00,113,,1*79
$GNRMC,070035.00,A,4843.25988,N,00920.55328,E,0.008,,080225,,,A,V*17
$GNGGA,070035.00,4843.25988,N,00920.55328,E,1,12,0.53,250.9,M,47.6,M,,*4A
$GPGSV,3,1,12,05,17,204,,10,03,338,,12,02,21,,13,68,133,46,1*64
$GPGSV,3,2,12,14,47,061,46,15,70,270,,17,25,104,45,19,14,134,48,1*61
$GPGSV,3,3,12,22,64,085,46,23,28,306,41,24,35,274,41,30,18,082,45,1*64
$GLGSV,3,1,10,65,19,326,,70,00,155,12,71,44,163,52,72,74,288,29,1*78
$GLGSV,3,2,10,73,50,042,48,74,77,261,28,75,24,233,48,81,07,349,38,1*7E
$GLGSV,3,3,10,82,12,034,40,83,03,072,,1*7E
$GAGSV,3,1,11,04,64,138,47,05,08,306,36,06,84,249,32,09,60,300,,7*7B
$GAGSV,3,2,11,15,03,003,,19,08,129,39,21,17,044,40,23,63,079,44,7*7D
$GAGSV,3,3,11,24,03,212,,31,49,191,35,34,06,316,22,7*42
$GBGSV,3,1,10,05,16,124,44,07,24,055,41,09,00,083,,10,31,068,43,1*7C
$GBGSV,3,2,10,11,08,036,29,19,45,300,37,20,59,211,42,22,00,327,,1*72
$GBGSV,3,3,10,23,21,062,45,28,00,113,,1*79
$GNRMC,070036.00,A,4843.25987,N,00920.55326,E,0.009,,080225,,,A,V*14
$GNGGA,070036.00,4843.25987,N,00920.55326,E,1,12,0.53,250.8,M,47.6,M,,*49
$GPGSV,3,1,12,05,17,204,,10,03,338,,12,02,213,,13,68,133,46,1*64
$GPGSV,3,2,12,14,47,061,46,15,70,270,,17,25,104,46,19,14,134,48,1*62
$GPGSV,3,3,12,22,64,085,45,23,28,306,41,24,35,274,40,30,18,082,45,1*66
$GLGSV,3,1,10,65,19,326,,70,00,155,13,71,44,163,51,72,74,288,29,1*7A
$GLGSV,3,2,10,73,50,042,48,74,77,261,27,75,24,233,48,81,07,349,38,1*71
$GLGSV,3,3,10,82,12,034,39,83,03,072,,1*70
$GAGSV,3,1,11,04,64,138,47,05,08,306,36,06,84,249,32,09,60,300,,7*7B
$GAGSV,3,2,11,15,03,003,,19,08,129,39,21,17,044,40,23,63,079,43,7*7A
$GAGSV,3,3,11,24,03,212,,31,49,191,36,34,06,316,23,7*40
$GBGSV,3,1,10,05,16,124,44,07,24,055,40,09,00,083,,10,31,068,43,1*7D
$GBGSV,3,2,10,11,08,036,30,19,45,300,37,20,59,211,41,22,00,327,,1*79
$GBGSV,3,3,10,23,21,062,45,28,00,113,,1*79
$GNRMC,070037.00,A,4843.25987,N,00920.55324,E,0.019,,080225,,,A,V*16
$GNGGA,070037.00,4843.25987,N,00920.55324,E,1,12,0.53,250.6,M,47.6,M,,*44
$GPGSV,3,1,12,05,17,204,,10,03,338,,12,02,213,,13,68,133,46,1*64
$GPGSV,3,2,12,14,47,061,46,15,70,270,,17,25,104,46,19,14,134,48,1*62
$GPGSV,3,3,12,22,64,085,45,23,28,306,41,24,35,274,40,30,18,082,46,1*65
$GLGSV,3,1,10,65,19,326,,70,00,155,13,71,44,163,52,72,74,288,29,1*79
$GLGSV,3,2,10,73,50,042,48,74,77,261,26,75,24,233,48,81,07,349,38,1*70
$GLGSV,3,3,10,82,12,034,39,83,03,072,,1*70
$GAGSV,3,1,11,04,64,138,47,05,08,306,36,06,84,249,32,09,60,300,,7*7B
$GAGSV,3,2,11,15,03,003,,19,08,129,39,21,17,044,40,23,63,079,44,7*7D
$GAGSV,3,3,11,24,03,212,,31,49,191,36,34,06,316,23,7*40
$GBGSV,3,1,10,05,16,124,44,07,24,055,40,09,00,083,,10,31,068,43,1*7D
$GBGSV,3,2,10,11,08,036,29,19,45,300,36,20,59,211,41,22,00,327,,1*70
$GBGSV,3,3,10,23,21,062,45,28,00,113,,1*79
$GNRMC,070038.00,A,4843.25987,N,00920.55322,E,0.009,,080225,,,A,V*1E
$GNGGA,070038.00,4843.25987,N,00920.55322,E,1,12,0.53,250.5,M,47.6,M,,*4E
$GPGSV,3,1,12,05,17,204,,10,03,338,,12,02,213,,13,68,133,46,1*64
$GPGSV,3,2,12,14,47,061,46,15,70,270,,17,25,104,46,19,14,134,48,1*62
$GPGSV,3,3,12,22,64,085,45,23,28,306,41,24,35,274,40,30,18,082,45,1*66
$GLGSV,3,1,10,65,19,326,,70,00,155,13,71,44,163,52,72,74,288,29,1*79
$GLGSV,3,2,10,73,50,042,48,74,77,261,25,75,24,233,48,81,07,349,38,1*73
$GLGSV,3,3,10,82,12,034,39,83,03,072,,1*70
$GAGSV,3,1,11,04,64,138,48,05,08,306,35,06,84,249,32,09,60,300,,7*77
$GAGSV,3,2,11,15,03,003,,19,08,129,39,21,17,044,40,23,63,079,44,7*7D
$GAGSV,3,3,11,24,03,212,,31,49,191,36,34,06,316,24,7*47
$GBGSV,3,1,10,05,16,124,44,07,24,055,40,09,00,083,,10,31,068,43,1*7D
$GBGSV,3,2,10,11,08,036,29,19,45,300,36,20,59,211,41,22,00,327,,1*70
$GBGSV,3,3,10,23,21,062,45,28,00,113,,1*79
$GNRMC,070039.00,A,4843.25988,N,00920.55324,E,0.006,,080225,,,A,V*19
$GNGGA,070039.00,4843.25988,N,00920.55324,E,1,12,0.53,250.4,M,47.6,M,,*47
$GPGSV,3,1,12,05,17,204,,10,03,338,,12,02,213,,13,68,133,46,1*64
$GPGSV,3,2,12,14,47,061,46,15,70,270,,17,25,104,46,19,14,134,48,1*62
$GPGSV,3,3,12,22,64,085,45,23,28,306,41,24,35,274,40,30,18,082,45,1*66
$GLGSV,3,1,10,65,19,326,,70,00,155,10,71,44,163,52,72,74,288,28,1*7B
$GLGSV,3,2,10,73,50,042,48,74,77,261,24,75,24,233,48,81,07,349,38,1*72
$GLGSV,3,3,10,82,12,034,39,83,03,072,,1*70
$GAGSV,3,1,11,04,64,138,47,05,08,306,36,06,84,249,32,09,60,300,,7*7B
$GAGSV,3,2,11,15,03,003,,19,08,129,39,21,17,044,40,23,63,079,44,7*7D
$GAGSV,3,3,11,24,03,212,,31,49,191,36,34,06,316,24,7*47
$GBGSV,3,1,10,05,16,124,44,07,24,055,40,09,00,083,,10,31,068,43,1*7D
$GBGSV,3,2,10,11,08,036,29,19,45,300,36,20,59,211,42,22,00,327,,1*73
$GBGSV,3,3,10,23,21,062,44,28,00,113,,1*78
$GNRMC,070040.00,A,4843.25988,N,00920.55322,E,0.020,,080225,,,A,V*15
$GNGGA,070040.00,4843.25988,N,00920.55322,E,1,12,0.57,250.2,M,47.6,M,,*4D
$GPGSV,3,1,12,05,17,204,,10,03,338,,12,02,213,,13,68,133,47,1*65
$GPGSV,3,2,12,14,47,061,46,15,70,270,,17,25,104,46,19,14,134,48,1*62
$GPGSV,3,3,12,22,64,085,45,23,28,306,41,24,35,274,40,30,18,082,45,1*66
$GLGSV,3,1,10,65,19,326,,70,00,155,12,71,44,163,52,72,74,288,27,1*76
$GLGSV,3,2,10,73,50,042,47,74,77,261,24,75,24,233,49,81,07,349,38,1*7C
$GLGSV,3,3,10,82,12,034,39,83,03,072,,1*70
$GAGSV,3,1,11,04,64,138,47,05,08,306,35,06,84,249,32,09,60,300,,7*78
$GAGSV,3,2,11,15,03,003,,19,08,129,39,21,17,044,40,23,63,079,44,7*7D
$GAGSV,3,3,11,24,03,212,,31,49,191,36,34,06,316,25,7*46
$GBGSV,3,1,10,05,16,124,44,07,24,055,40,09,00,083,,10,31,068,43,1*7D
$GBGSV,3,2,10,11,08,036,29,19,45,300,36,20,59,211,42,22,00,327,,1*73
$GBGSV,3,3,10,23,21,062,44,28,00,113,,1*78
$GNRMC,070041.00,A,4843.25989,N,00920.55320,E,0.009,,080225,,,A,V*1C
$GNGGA,070041.00,4843.25989,N,00920.55320,E,1,12,0.53,250.1,M,47.6,M,,*48
$GPGSV,3,1,12,05,17,204,,10,03,338,,12,02,213,,13,68,133,48,1*6A
$GPGSV,3,2,12,14,47,061,47,15,70,270,,17,25,104,47,19,14,134,48,1*62
$GPGSV,3,3,12,22,64,085,45,23,28,306,41,24,35,274,40,30,18,082,45,1*66
$GLGSV,3,1,10,65,19,326,,70,00,155,11,71,44,163,52,72,74,288,28,1*7A
$GLGSV,3,2,10,73,50,042,47,74,77,261,23,75,24,233,48,81,07,349,37,1*75
$GLGSV,3,3,10,82,12,034,38,83,03,072,,1*71
$GAGSV,3,1,11,04,64,138,48,05,08,306,36,06,84,249,32,09,60,300,,7*74
$GAGSV,3,2,11,15,03,003,,19,08,129,39,21,17,044,40,23,63,079,44,7*7D
$GAGSV,3,3,11,24,03,212,,31,49,191,37,34,06,316,24,7*46
$GBGSV,3,1,10,05,16,124,44,07,24,055,40,09,00,083,,10,31,068,43,1*7D
$GBGSV,3,2,10,11,08,036,29,19,45,300,36,20,59,211,42,22,00,327,,1*73
$GBGSV,3,3,10,23,21,062,44,28,00,113,,1*78
$GNRMC,070042.00,A,4843.25990,N,00920.55318,E,0.010,,080225,,,A,V*14
$GNGGA,070042.00,4843.25990,N,00920.55318,E,1,12,0.53,249.9,M,47.6,M,,*48
$GPGSV,3,1,12,05,17,204,,10,03,338,,12,02,213,,13,68,133,47,1*65
$GPGSV,3,2,12,14,47,061,47,15,70,270,,17,25,104,47,19,14,134,48,1*62
$GPGSV,3,3,12,22,64,085,45,23,28,306,41,24,35,274,40,30,18,082,46,1*65
$GLGSV,3,1,10,65,19,326,,70,00,155,12,71,44,163,52,72,74,288,29,1*78
$GLGSV,3,2,10,73,50,042,46,74,77,261,24,75,24,233,48,81,07,349,36,1*72
$GLGSV,3,3,10,82,12,034,38,83,03,072,,1*71
$GAGSV,3,1,11,04,64,138,48,05,08,306,36,06,84,249,32,09,60,300,,7*74
$GAGSV,3,2,11,15,03,003,,19,08,129,39,21,17,044,40,23,63,079,44,7*7D
$GAGSV,3,3,11,24,03,212,,31,49,191,37,34,06,316,24,7*46
$GBGSV,3,1,10,05,16,124,44,07,24,055,40,09,00,083,,10,31,068,43,1*7D
$GBGSV,3,2,10,11,08,036,29,19,45,300,36,20,59,211,42,22,00,327,,1*73
$GBGSV,3,3,10,23,21,062,44,28,00,113,,1*78
$GNRMC,070043.00,A,4843.25991,N,00920.55317,E,0.017,,080225,,,A,V*1C
$GNGGA,070043.00,4843.25991,N,00920.55317,E,1,12,0.53,249.8,M,47.6,M,,*46
$GPGSV,3,1,12,05,17,204,,10,03,338,,12,02,213,,13,68,133,46,1*64
$GPGSV,3,2,12,14,47,061,47,15,70,270,,17,25,104,47,19,14,134,48,1*62
$GPGSV,3,3,12,22,64,085,45,23,28,306,41,24,35,274,40,30,18,082,46,1*65
$GLGSV,3,1,10,65,19,326,,70,00,155,12,71,44,163,52,72,74,288,29,1*78
$GLGSV,3,2,10,73,50,042,46,74,77,261,23,75,24,233,49,81,07,349,36,1*74
$GLGSV,3,3,10,82,12,034,39,83,03,072,,1*70
$GAGSV,3,1,11,04,64,138,48,05,08,306,36,06,84,249,32,09,60,300,,7*74
$GAGSV,3,2,11,15,03,003,,19,08,129,39,21,17,044,40,23,63,079,44,7*7D
$GAGSV,3,3,11,24,03,212,,31,49,191,37,34,06,316,25,7*47
$GBGSV,3,1,10,05,16,124,44,07,24,055,40,09,00,083,,10,31,068,43,1*7D
$GBGSV,3,2,10,11,08,036,29,19,45,300,36,20,59,211,42,22,00,327,,1*73
$GBGSV,3,3,10,23,21,062,44,28,00,113,,1*78
$GNRMC,070044.00,A,4843.25993,N,00920.55316,E,0.014,,080225,,,A,V*1B
$GNGGA,070044.00,4843.25993,N,00920.55316,E,1,12,0.53,249.7,M,47.6,M,,*4D
$GPGSV,3,1,12,05,17,204,,10,03,338,,12,02,213,,13,68,133,44,1*66
$GPGSV,3,2,12,14,47,061,47,15,70,270,,17,25,104,47,19,14,134,48,1*62
$GPGSV,3,3,12,22,64,085,45,23,28,306,41,24,35,274,40,30,18,082,46,1*65
$GLGSV,3,1,10,65,19,326,,70,00,155,12,71,44,163,51,72,74,288,28,1*7A
$GLGSV,3,2,10,73,50,042,48,74,77,261,23,75,24,233,48,81,07,349,36,1*7B
$GAGSV,3,1,11,04,64,138,48,05,08,306,35,06,84,249,32,09,60,300,,7*77
$GAGSV,3,2,11,15,03,003,,19,08,129,39,21,17,044,40,23,63,079,45,7*7C
$GAGSV,3,3,11,24,03,212,,31,49,191,37,34,06,316,25,7*47
$GBGSV,3,1,10,05,16,124,44,07,24,055,40,09,00,083,,10,31,068,43,1*7D
$GBGSV,3,2,10,11,08,036,29,19,45,300,36,20,59,211,42,22,00,327,,1*73
$GBGSV,3,3,10,23,21,062,44,28,00,113,,1*78
$GNRMC,070045.00,A,4843.25995,N,00920.55316,E,0.011,,080225,,,A,V*19
$GNGGA,070045.00,4843.25995,N,00920.55316,E,1,12,0.53,249.6,M,47.6,M,,*4B
$GPGSV,3,1,12,05,17,204,,10,03,338,,12,02,213,,13,68,133,44,1*66
$GPGSV,3,2,12,14,47,061,46,15,70,270,,17,25,104,47,19,14,134,48,1*63
$GPGSV,3,3,12,22,64,085,44,23,28,306,41,24,35,274,40,30,18,082,46,1*64
$GLGSV,3,1,10,65,19,326,,70,00,155,11,71,44,163,51,72,74,288,27,1*76
$GLGSV,3,2,10,73,50,042,48,74,77,261,23,75,24,233,48,81,07,349,35,1*78
$GLGSV,3,3,10,82,12,034,38,83,03,072,,1*71
$GAGSV,3,1,11,04,64,138,47,05,08,306,35,06,84,249,32,09,60,300,,7*78
$GAGSV,3,2,11,15,03,003,,19,08,129,39,21,17,044,40,23,63,079,45,7*7C
$GAGSV,3,3,11,24,03,22,,31,49,191,37,34,06,316,24,7*46
$GBGSV,3,1,10,05,16,124,44,07,24,055,40,09,00,083,,10,31,068,43,1*7D
$GBGSV,3,2,10,11,08,036,29,19,45,300,35,20,59,211,41,22,00,327,,1*73
$GBGSV,3,3,10,23,21,062,45,28,00,113,,1*79
$GNRMC,070046.00,A,4843.25998,N,00920.55318,E,0.009,,080225,,,A,V*10
$GNGGA,070046.00,4843.25998,N,00920.55318,E,1,12,0.53,249.6,M,47.6,M,,*4B
$GPGSV,3,1,12,05,17,204,,10,03,338,,12,02,213,,13,68,133,46,1*64
$GPGSV,3,2,12,14,47,061,46,15,70,270,,17,25,104,47,19,14,134,47,1*6C
$GPGSV,3,3,12,22,64,085,43,23,28,306,41,24,35,274,39,30,18,082,46,1*6D
$GLGSV,3,1,10,65,19,326,,70,00,155,13,71,44,163,52,72,74,288,26,1*76
$GLGSV,3,2,10,73,50,042,47,74,77,261,24,75,24,233,48,1,07,349,35,1*70
$GLGSV,3,3,10,82,12,034,39,83,03,072,,1*70
$GAGSV,3,1,11,04,64,138,48,05,08,306,36,06,84,249,32,09,60,300,,7*74
$GAGSV,3,2,11,15,03,003,,19,08,129,39,21,17,044,40,23,63,079,45,7*7C
$GAGSV,3,3,11,24,03,212,,31,49,191,37,34,06,316,24,7*46
$GBGSV,3,1,10,05,16,124,44,0724,055,40,09,00,083,,10,31,068,43,1*7D
$GBGSV,3,2,10,11,08,036,9,19,45,300,35,20,59,211,41,22,00,327,,1*73
$GBGSV,3,3,10,23,21,062,45,28,00,113,,1*79
$GNRMC,070047.00,A,4843.26001,N,00920.55320,E,0.028,,080225,,,A,V*13
$GNGGA,070047.00,4843.26001,N,00920.55320,E,1,12,0.53,249.6,M,47.6,M,,*4B
$GPGSV,3,1,12,05,17,204,,10,03,338,,12,02,213,,13,68,133,46,1*64
$GPGSV,3,2,12,14,47,061,46,15,70,270,,17,25,104,46,19,14,134,47,1*6D
$GPGSV,3,3,12,22,64,085,44,23,28,306,41,24,35,274,39,30,18,082,46,1*6A
$GLGSV,3,1,10,65,19,326,,70,00,155,13,71,44,163,52,72,74,288,25,1*75
$GLGSV,3,2,10,73,50,042,47,74,77,261,25,75,24,233,48,81,07,349,35,1*71
$GLGSV,3,3,10,82,12,034,38,83,03,072,,1*71
$GAGSV,3,1,11,04,64,138,48,05,08,306,36,06,84,249,32,09,60,300,,7*74
$GAGSV,3,2,11,15,03,003,,19,08,129,39,21,17,044,40,23,63,079,43,7*7A
$GAGSV,3,3,11,24,03,212,,31,49,191,37,34,06,316,24,7*46
$GBGSV,3,1,10,05,16,124,44,07,24,055,40,09,00,083,,10,31,068,43,1*7D
$GBGSV,3,2,10,11,08,036,30,19,45,300,35,20,59,211,41,22,00,327,,1*7B
$GBGSV,3,3,10,23,21,062,45,28,00,113,,1*79
$GNRMC,070048.00,A,4843.26003,N,00920.55318,E,0.008,,080225,,,A,V*17
$GNGGA,070048.00,4843.26003,N,00920.55318,E,1,12,0.57,249.5,M,47.6,M,,*4A
$GPGSV,3,1,12,05,17,204,,10,03,338,,12,02,213,,13,68,133,44,1*66
$GPGSV,3,2,12,14,47,061,46,15,70,270,,17,25,104,46,19,14,134,46,1*6C
$GPGSV,3,3,12,22,64,085,45,23,28,306,41,24,35,274,39,30,18,082,46,1*6B
$GLGSV,3,1,10,65,19,326,,70,00,155,11,71,44,163,52,72,74,288,26,1*74
$GLGSV,3,2,10,73,50,042,48,74,77,261,26,75,24,233,49,81,07,349,35,1*7C
$GLGSV,3,3,10,82,12,034,38,83,03,072,,1*71
$GAGSV,3,1,11,04,64,138,48,05,08,306,35,06,84,249,32,09,60,300,,7*77
$GAGSV,3,2,11,15,03,003,,19,08,129,39,21,17,044,40,23,63,079,43,7*7A
$GAGSV,3,3,11,24,03,212,,31,49,191,37,34,06,316,24,7*46
$GBGSV,3,1,10,05,16,124,44,07,24,055,40,09,00,083,,10,31,068,43,1*7D
$GBGSV,3,2,10,11,08,036,30,19,45,300,35,20,59,211,41,22,00,327,,1*7B
$GBGSV,3,3,10,23,21,062,45,28,00,113,,1*79
$GNRMC,070049.00,A,4843.26005,N,00920.55317,E,0.012,,080225,,,A,V*14
$GNGGA,070049.00,4843.26005,N,00920.55317,E,1,12,0.53,249.4,M,47.6,M,,*47
$GPGSV,3,1,12,05,17,204,,10,03,338,,12,02,213,,13,68,133,44,1*66
$GPGSV,3,2,12,14,47,061,47,15,70,270,,17,25,104,47,19,14,134,46,1*6C
$GPGSV,3,3,12,22,64,085,45,23,28,306,41,24,35,274,39,30,18,082,46,1*6B
$GLGSV,3,1,10,65,19,326,,70,00,155,14,71,44,163,52,72,74,288,27,1*70
$GLGSV,3,2,10,73,50,042,48,74,77,261,26,75,24,233,48,81,07,349,34,1*7C
$GLGSV,3,3,10,82,12,034,37,83,03,072,,1*7E
$GAGSV,3,1,11,04,64,138,48,05,08,306,35,06,84,249,32,09,60,300,,7*77
$GAGSV,3,2,11,15,03,003,,19,08,129,39,21,17,044,40,23,63,079,43,7*7A
$GAGSV,3,3,11,24,03,212,,31,49,191,37,34,06,316,24,7*46
$GBGSV,3,1,10,05,16,124,44,07,24,055,40,09,00,083,,10,31,068,44,1*7A
$GBGSV,3,2,10,11,08,036,30,19,45,300,35,20,59,211,41,22,00,327,,1*7B
$GBGSV,3,3,10,23,21,062,45,28,00,113,,1*79
$GNRMC,070050.00,A,4843.26007,N,00920.55315,E,0.004,,080225,,,A,V*1B
$GNGGA,070050.00,4843.26007,N,00920.55315,E,1,12,0.53,249.3,M,47.6,M,,*48
$GPGSV,3,1,12,05,17,204,,10,03,338,,12,02,213,,13,68,133,45,1*67
$GPGSV,3,2,12,14,47,061,47,15,70,270,,17,25,104,48,19,14,134,46,1*63
$GPGSV,3,3,12,22,64,085,45,23,28,306,41,24,35,274,39,30,18,082,46,1*6B
$GLGSV,3,1,10,65,19,326,,70,00,155,11,71,44,163,52,72,74,288,28,1*7A
$GLGSV,3,2,10,73,50,042,48,74,77,261,26,75,24,233,48,81,07,349,33,1*7B
$GLGSV,3,3,10,82,12,034,36,83,03,072,,1*7F
$GAGSV,3,1,11,04,64,138,48,05,08,306,36,06,84,249,32,09,60,300,,7*74
$GAGSV,3,2,11,15,03,003,,19,08,129,39,21,17,044,39,23,63,079,42,7*75
$GAGSV,3,3,11,24,03,212,,31,49,191,37,34,06,316,24,7*46
$GBGSV,3,1,10,05,16,124,44,07,24,055,40,09,00,083,,10,31,068,44,1*7A
$GBGSV,3,2,10,11,08,036,30,19,45,300,35,20,59,211,41,22,00,327,,1*7B
$GBGSV,3,3,10,23,21,062,46,28,00,113,,1*7A
$GNRMC,070051.00,A,4843.26008,N,00920.55314,E,0.013,,080225,,,A,V*12
$GNGGA,070051.00,4843.26008,N,00920.55314,E,1,12,0.53,249.3,M,47.6,M,,*47
$GPGSV,3,1,12,05,17,204,,10,03,338,,12,02,213,,13,68,133,46,1*64
$GPGSV,3,2,12,14,47,061,46,15,70,270,,17,25,104,47,19,14,134,46,1*6D
$GPGSV,3,3,12,22,64,085,45,23,28,306,41,24,35,274,39,30,18,082,46,1*6B
$GLGSV,3,1,10,65,19326,,70,00,155,09,71,44,163,52,72,74,288,28,1*73
$GLGSV,3,2,10,73,50,042,49,74,77,261,26,75,24,233,48,81,07,349,32,1*7B
$GLGSV,3,3,10,82,12,034,38,83,03,072,,1*71
$GAGSV,3,1,11,04,64,138,48,05,08,306,36,06,84,249,32,09,60,300,,7*74
$GAGSV,3,2,11,15,03,003,,19,08,129,39,21,17,044,39,23,63,079,42,7*75
$GAGSV,3,3,11,24,03,212,,31,49,191,37,34,06,316,24,7*46
$GBGSV,3,1,10,05,16,124,44,07,24,055,40,09,00,083,,10,31,068,44,1*7A
$GBGSV,3,2,10,11,08,036,29,19,45,300,35,20,59,210,41,22,00,327,,1*72
$GBGSV,3,3,10,23,21,062,46,28,00,113,,1*7A
$GNRMC,070052.00,A,4843.26011,N,00920.55312,E,0.013,,080225,,,A,V*1F
$GNGGA,070052.00,4843.26011,N,00920.55312,E,1,12,0.53,249.3,M,47.6,M,,*4A
$GPGSV,3,1,12,05,17,204,,10,03,338,,12,02,213,,13,68,133,45,1*67
$GPGSV,3,2,12,14,47,061,45,15,70,270,,17,25,104,45,19,14,134,46,1*6C
$GPGSV,3,3,12,22,64,085,45,23,28,306,41,24,35,274,39,30,18,082,47,1*6A
$GLGSV,3,1,10,65,19,326,,70,00,155,11,71,44,163,52,72,74,288,28,1*7A
$GLGSV,3,2,10,73,50,042,47,74,77,261,27,75,24,233,48,81,07,349,25,1*72
$GLGSV,3,3,10,82,12,034,35,83,03,072,,1*7C
$GAGSV,3,1,11,04,64,138,48,05,08,306,21,06,84,249,32,09,60,300,,7*72
$GAGSV,3,2,11,15,03,003,,19,08,129,39,21,17,044,40,23,63,079,44,7*7D
$GBGSV,3,1,10,05,16,124,44,07,24,055,40,09,00,083,,10,31,068,44,1*7A
$GBGSV,3,2,10,11,08,036,30,19,45,300,35,20,59,210,42,22,00,327,,1*79
$GBGSV,3,3,10,23,21,062,46,28,00,113,,1*7A
$GNRMC,070053.00,A,4843.26013,N,00920.55312,E,0.017,,080225,,,A,V*18
$GNGGA,070053.00,4843.26013,N,00920.55312,E,1,12,0.55,249.2,M,47.6,M,,*4E
$GPGSV,3,1,12,05,17,204,,10,03,338,,12,02,213,,13,68,133,46,1*64
$GPGSV,3,2,12,14,47,061,45,15,70,270,,17,25,104,45,19,14,134,46,1*6C
$GPGSV,3,3,12,22,64,085,45,23,28,306,41,24,35,274,39,30,18,082,47,1*6A
$GLGSV,3,1,10,65,19,326,,70,00,155,13,71,44,163,51,72,74,288,29,1*7A
$GLGSV,3,2,10,73,50,042,47,74,77,261,29,75,24,233,49,81,07,349,33,1*7A
$GLGSV,3,3,10,82,12,034,35,83,03,072,,1*7C
$GAGSV,3,1,11,04,64,138,48,05,08,306,20,06,84,249,32,09,60,300,,7*73
$GAGSV,3,2,11,15,03,003,,19,08,129,39,21,17,044,39,23,63,079,44,7*73
$GAGSV,3,3,11,24,03,212,,31,49,191,36,34,06,316,22,7*41
$GBGSV,3,1,10,05,16,124,43,07,24,055,40,09,00,083,,10,31,068,44,1*7D
$GBGSV,3,2,10,11,08,036,31,19,45,300,35,20,59,210,41,22,01,327,,1*7A
$GBGSV,3,3,10,23,21,062,46,28,00,113,,1*7A
$GNRMC,070054.00,A,4843.26016,N,00920.55313,E,0.018,,080225,,,A,V*14
$GNGGA,070054.00,4843.26016,N,00920.55313,E,1,12,0.55,249.2,M,47.6,M,,*4D
$GPGSV,3,1,12,05,17,204,,10,03,338,,12,02,213,,13,68,133,47,1*65
$GPGSV,3,2,12,14,47,061,46,15,70,270,,17,25,104,46,19,14,134,46,1*6C
$GPGSV,3,3,12,22,64,085,44,23,28,306,41,24,35,274,39,30,18,082,47,1*6B
$GLGSV,3,1,10,65,19,326,,70,00,155,12,71,44,163,51,72,74,288,29,1*7B
$GLGSV,3,2,10,73,50,042,47,74,77,261,30,75,24,233,48,81,07,349,34,1*74
$GLGSV,3,3,10,82,12,034,34,83,03,072,,1*7D
$GAGSV,3,1,11,04,64,138,48,05,08,306,31,06,84,249,32,09,60,300,,7*73
$GAGSV,3,2,11,15,03,003,,19,08,129,39,21,17,044,39,23,63,079,44,7*73
$GAGSV,3,3,11,24,03,212,,31,49,191,36,34,06,316,21,7*42
$GBGSV,3,1,10,05,16,124,44,07,24,055,40,09,00,083,,10,31,068,44,1*7A
$GBGSV,3,2,10,11,08,036,30,19,45,300,35,20,59,210,41,22,01,327,,1*7B
$GBGSV,3,3,10,23,21,062,46,28,00,113,,1*7A
$GNRMC,070055.00,A,4843.26019,N,00920.55315,E,0.012,,080225,,,A,V*16
$GNGGA,070055.00,4843.26019,N,00920.55315,E,1,12,0.55,249.2,M,47.6,M,,*45
$GPGSV,3,1,12,05,17,204,,10,03,338,,12,02,213,,13,68,133,48,1*6A
$GPGSV,3,2,12,14,47,061,46,15,70,270,,17,25,104,46,19,14,134,46,1*6C
$GPGSV,3,3,12,22,64,085,45,23,28,306,41,24,35,274,39,30,18,082,47,1*6A
$GLGSV,3,1,10,65,19,326,,70,00,155,13,71,44,163,52,72,74,288,28,1*78
$GLGSV,3,2,10,73,50,042,49,74,77,261,30,75,24,233,49,81,07,349,35,1*7A
$GLGSV,3,3,10,82,12,034,34,83,03,072,,1*7D
$GAGSV,3,1,11,04,64,138,48,05,08,306,31,06,84,249,31,09,60,300,,7*70
$GAGSV,3,2,11,15,03,003,,19,08,129,39,21,17,044,39,23,63,079,44,7*73
$GAGSV,3,3,11,24,03,212,,31,49,191,36,34,06,316,21,7*42
$GBGSV,3,1,10,05,16,124,44,07,24,055,40,09,00,083,,10,31,068,44,1*7A
$GBGSV,3,2,10,11,08,036,30,19,45,300,34,20,59,210,41,22,01,327,,1*7A
$GBGSV,3,3,10,23,21,062,46,28,00,113,,1*7A
$GNRMC,070056.00,A,4843.26021,N,00920.55315,E,0.019,,080225,,,A,V*15
$GNGGA,070056.00,4843.26021,N,00920.55315,E,1,12,0.56,249.2,M,47.6,M,,*4E
$GPGSV,3,1,12,05,17,204,,10,03,338,,12,02,213,,13,68,133,47,1*65
$GPGSV,3,2,12,14,47,061,46,15,70,270,,17,25,104,46,19,14,134,45,1*6F
$GPGSV,3,3,12,22,64,085,45,23,28,306,41,24,35,274,39,30,18,082,47,1*6A
$GLGSV,3,1,10,65,19,326,,70,00,155,12,71,44,163,53,72,74,288,28,1*78
$GLGSV,3,2,10,73,50,042,49,74,77,261,30,75,24,233,49,81,07,349,35,1*7A
$GLGSV,3,3,10,82,12,034,34,83,03,072,,1*7D
$GAGSV,3,1,11,04,64,138,49,05,08,306,31,06,84,249,32,09,60,300,,7*72
$GAGSV,3,2,11,15,03,003,,19,08,129,39,21,17,044,39,23,63,079,44,7*73
$GAGSV,3,3,11,24,03,212,,31,49,191,36,34,06,316,19,7*49
$GBGSV,3,1,10,05,16,124,44,07,24,055,40,09,00,083,,10,31,068,44,1*7A
$GBGSV,3,2,10,11,08,036,31,19,45,300,35,20,59,210,41,22,01,327,,1*7A
$GBGSV,3,3,10,23,21,062,46,28,00,113,,1*7A
$GNRMC,070057.00,A,4843.26025,N,00920.55315,E,0.019,,080225,,,A,V*10
$GNGGA,070057.00,4843.26025,N,00920.55315,E,1,12,0.53,249.1,M,47.6,M,,*4D
$GPGSV,3,1,12,05,17,204,,10,03,338,,12,02,213,,13,68,133,46,1*64
$GPGSV,3,2,12,14,47,061,46,15,70,270,,17,25,104,46,19,14,134,45,1*6F
$GPGSV,3,3,12,22,64,085,45,23,28,306,41,24,35,274,39,30,18,082,47,1*6A
$GLGSV,3,1,10,65,19,326,,70,00,155,12,71,44,163,52,72,74,288,26,1*77
$GLGSV,3,2,10,73,50,042,48,74,77,261,31,75,24,233,48,81,07,349,36,1*78
$GLGSV,3,3,10,82,12,034,33,83,03,072,,1*7A
$GAGSV,3,1,11,04,64,138,49,05,08,306,35,06,84,249,31,09,60,300,,7*75
$GAGSV,3,2,11,15,03,003,,19,08,129,39,21,17,044,39,23,63,079,44,7*73
$GAGSV,3,3,11,24,03,212,,31,49,191,36,34,06,316,19,7*49
$GBGSV,3,1,10,05,16,124,44,07,24,055,40,09,00,083,,10,31,068,44,1*7A
$GBGSV,3,2,10,11,08,036,31,19,45,300,35,20,59,210,41,22,01,327,,1*7A
$GBGSV,3,3,10,23,21,062,46,28,00,113,,1*7A
$GNRMC,070058.00,A,4843.26028,N,00920.55313,E,0.013,,080225,,,A,V*1E
$GNGGA,070058.00,4843.26028,N,00920.55313,E,1,12,0.53,249.0,M,47.6,M,,*48
$GPGSV,3,1,12,05,17,204,,10,03,338,,12,02,213,,13,68,133,44,1*66
$GPGSV,3,2,12,14,47,061,46,15,70,270,,17,25,104,46,19,14,134,45,1*6F
$GPGSV,3,3,12,22,64,085,45,23,28,306,41,24,35,274,39,30,18,082,47,1*6A
$GLGSV,3,1,10,65,19,326,,70,00,155,10,71,44,163,51,72,74,288,26,1*76
$GLGSV,3,2,10,73,50,042,47,74,77,261,31,75,24,233,48,81,07,349,36,1*77
$GLGSV,3,3,10,82,12,034,2,83,03,072,,1*7B
$GAGSV,3,1,11,04,64,138,49,05,08,306,35,06,84,249,32,09,60,300,,7*76
$GAGSV,3,2,11,15,03,003,,19,08,129,39,21,17,044,39,23,63,079,44,7*73
$GAGSV,3,3,11,24,03,212,,31,49,191,36,34,06,316,18,7*48
$GBGSV,3,1,10,05,16,124,44,07,24,055,40,09,00,083,,10,31,068,44,1*7A
$GBGSV,3,2,10,11,08,036,31,19,45,300,35,20,59,210,41,22,01,327,,1*7A
$GBGSV,3,3,10,23,21,062,46,28,00,113,,1*7A
$GNRMC,070059.00,A,4843.26030,N,00920.55312,E,0.010,,080225,,,A,V*14
$GNGGA,070059.00,4843.26030,N,00920.55312,E,1,12,0.53,249.0,M,47.6,M,,*41
$GPGSV,3,1,12,05,17,204,,10,03,338,,12,02,213,,13,68,133,43,1*61
$GPGSV,3,2,12,14,47,061,46,15,70,270,,17,25,104,45,19,14,134,45,1*6C
$GPGSV,3,3,12,22,64,085,45,23,28,306,41,24,35,274,39,30,18,082,47,1*6A
$GLGSV,3,1,10,65,19,326,,70,00,155,12,71,44,163,52,72,74,288,26,1*77
$GLGSV,3,2,10,73,50,042,47,74,77,261,31,75,24,233,48,81,07,349,36,1*77
$GLGSV,3,3,10,82,12,034,31,83,03,072,,1*78
$GAGSV,3,1,11,04,64,138,48,05,08,306,34,06,84,249,32,09,60,300,,7*76
$GAGSV,3,2,11,15,03,003,,19,08,129,39,21,17,044,39,23,63,079,44,7*73
$GAGSV,3,3,11,24,03,212,,31,49,191,36,34,06,316,18,7*48
$GBGSV,3,1,10,05,16,124,44,07,24,055,40,09,00,083,,10,31,068,44,1*7A
$GBGSV,3,2,10,11,08,036,31,19,45,300,35,20,59,210,41,22,01,327,,1*7A
$GBGSV,3,3,10,23,21,062,46,28,01,113,,1*7B
$GNRMC,070100.00,A,4843.26033,N,00920.55310,E,0.004,,080225,,,A,V*1D
$GNGGA,070100.00,4843.26033,N,00920.55310,E,1,12,0.53,248.9,M,47.6,M,,*45
$GPGSV,3,1,12,05,17,204,,10,03,338,,12,02,213,,13,68,133,44,1*66
$GPGSV,3,2,12,14,47,061,46,15,70,270,,17,25,104,45,19,14,134,45,1*6C
$GPGSV,3,3,12,22,64,085,44,23,28,306,41,24,35,274,39,30,18,082,46,1*6A
$GLGSV,3,1,10,65,19,326,,70,00,155,13,71,44,163,52,72,74,288,27,1*77
$GLGSV,3,2,10,73,50,042,48,74,77,261,31,75,24,233,49,81,07,349,37,1*78
$GLGSV,3,3,10,82,12,034,31,83,03,072,,1*78
$GAGSV,3,1,11,04,64,138,47,05,08,306,34,06,84,249,32,09,60,300,,7*79
$GAGSV,3,2,11,15,03,003,,19,08,129,39,21,17,044,39,23,63,079,45,7*72
$GAGSV,3,3,11,24,03,212,,31,49,191,36,34,06,316,18,7*48
$GBGSV,3,1,10,05,16,124,44,07,24,055,40,09,00,083,,10,31,068,44,1*7A
$GBGSV,3,2,10,11,08,036,31,19,45,300,34,20,59,210,41,22,01,327,,1*7B
$GBGSV,3,3,10,23,21,062,47,28,01,113,,1*7A
$GNRMC,070101.00,A,4843.26035,N,00920.55309,E,0.019,,080225,,,A,V*1E
$GNGGA,070101.00,4843.26035,N,00920.55309,E,1,12,0.53,248.8,M,47.6,M,,*4B
$GPGSV,3,1,12,05,17,204,,10,03,338,,12,02,213,,13,68,133,45,1*67
$GPGSV,3,2,12,14,47,061,46,15,70,270,,17,25,104,45,19,14,134,45,1*6C
$GPGSV,3,3,12,22,64,085,44,23,28,306,41,24,35,274,39,30,18,082,46,1*6A
$GLGSV,3,1,10,65,19,326,,70,00,155,13,71,44,163,52,72,74,288,28,1*78
$GLGSV,3,2,10,73,50,042,48,74,77,261,31,75,24,233,48,81,07,349,37,1*79
$GLGSV,3,3,10,82,12,034,32,83,03,072,,1*7B
$GAGSV,3,1,11,04,64,138,47,05,08,306,34,06,84,249,32,09,60,300,,7*79
$GAGSV,3,2,11,15,03,003,,19,08,129,39,21,17,044,39,23,63,079,45,7*72
$GAGSV,3,3,11,24,03,212,,31,49,191,36,34,06,316,17,7*47
$GBGSV,3,1,10,05,16,124,44,07,24,055,40,09,00,083,,10,31,068,44,1*7A
$GBGSV,3,2,10,11,08,036,32,19,45,300,35,20,59,210,41,22,01,327,,1*79
$GBGSV,3,3,10,23,21,062,47,28,01,113,,1*7A
$GNRMC,070102.00,A,4843.26038,N,00920.55309,E,0.011,,080225,,,A,V*18
$GNGGA,070102.00,4843.26038,N,00920.55309,E,1,12,0.53,248.7,M,47.6,M,,*4A
$GPGSV,3,1,12,05,17,204,,10,03,338,,12,02,213,,13,68,133,45,1*67
$GPGSV,3,2,12,14,47,061,46,15,70,270,,17,25,104,45,19,14,134,44,1*6D
$GPGSV,3,3,12,22,64,085,44,23,28,306,41,24,35,274,39,30,18,082,46,1*6A
$GLGSV,3,1,10,65,19,326,,70,00,155,12,71,44,163,52,72,74,288,29,1*78
$GLGSV,3,2,10,73,50,042,47,74,77,261,31,75,24,233,48,81,07,349,37,1*76
$GLGSV,3,3,10,82,12,034,31,83,03,072,,1*78
$GAGSV,3,1,11,04,64,138,48,05,08,306,34,06,84,249,32,09,60,300,,7*76
$GAGSV,3,2,11,15,03,003,,19,08,129,39,21,17,044,39,23,63,079,44,7*73
$GAGSV,3,3,11,24,03,212,,31,49,191,36,34,06,316,15,7*45
$GBGSV,3,1,10,05,16,124,44,07,24,055,40,09,00,083,,10,31,068,44,1*7A
$GBGSV,3,2,10,11,08,036,33,19,45,300,35,20,59,210,42,22,01,327,,1*7B
$GBGSV,3,3,10,23,21,062,47,28,01,113,,1*7A
$GNRMC,070103.00,A,4843.26040,N,00920.55309,E,0.010,,080225,,,A,V*17
$GNGGA,070103.00,4843.26040,N,00920.55309,E,1,12,0.53,248.7,M,47.6,M,,*44
$GPGSV,3,1,12,05,17,204,,10,03,338,,12,02,213,,13,68,133,47,1*65
$GPGSV,3,2,12,14,47,061,47,15,70,270,,17,25,104,44,19,14,134,44,1*6D
$GPGSV,3,3,12,22,64,085,45,23,28,306,41,24,35,274,39,30,18,082,46,1*6B
$GLGSV,3,1,10,65,20,326,,70,00,155,14,71,44,163,52,72,74,288,29,1*74
$GLGSV,3,2,10,73,50,042,46,74,77,261,30,75,24,233,48,81,07,349,36,1*77
$GLGSV,3,3,10,82,12,034,32,83,03,072,,1*7B
$GAGSV,3,1,11,04,64,138,49,05,08,306,34,06,84,249,32,09,60,300,,7*77
$GAGSV,3,2,11,15,03,003,,19,08,129,39,21,17,044,39,23,63,079,44,7*73
$GAGSV,3,3,11,24,03,212,,31,49,191,36,34,06,316,14,7*44
$GBGSV,3,1,10,05,16,124,44,07,24,055,40,09,00,083,,10,31,068,44,1*7A
$GBGSV,3,2,10,11,08,036,33,19,45,300,35,20,59,210,42,22,01,327,,1*7B
$GBGSV,3,3,10,23,21,062,47,28,01,113,,1*7A
$GNRMC,070104.00,A,4843.26042,N,00920.55309,E,0.018,,080225,,,A,V*1A
$GNGGA,070104.00,4843.26042,N,00920.55309,E,1,12,0.53,248.6,M,47.6,M,,*40
$GPGSV,3,1,12,05,17,204,,10,03,338,,12,02,213,,13,68,133,47,1*65
$GPGSV,3,2,12,14,47,061,46,15,70,270,,17,25,104,45,19,14,134,44,1*6D
$GPGSV,3,3,12,22,64,085,46,23,28,306,41,24,35,274,39,30,18,082,45,1*6B
$GLGSV,3,1,10,65,20,326,,70,00,155,14,71,44,163,53,72,74,288,29,1*75
$GLGSV,3,2,10,73,50,042,47,74,77,261,30,75,24,233,48,81,07,349,36,1*76
$GLGSV,3,3,10,82,12,034,33,83,03,072,,1*7A
$GAGSV,3,1,11,04,64,138,49,05,08,306,34,06,84,249,31,09,60,300,,7*74
$GAGSV,3,2,11,15,03,003,,19,08,129,39,21,17,044,39,23,63,079,43,7*74
$GAGSV,3,3,11,24,03,212,,31,49,191,35,34,06,316,16,7*45
$GBGSV,3,1,10,05,16,124,44,07,24,055,40,09,00,083,,10,31,068,44,1*7A
$GBGSV,3,2,10,11,08,036,33,19,45,300,35,20,59,210,42,22,01,327,,1*7B
$GBGSV,3,3,10,23,21,062,47,28,01,113,,1*7A
$GNRMC,070105.00,A,4843.26045,N,00920.55309,E,0.013,,080225,,,A,V*17
$GNGGA,070105.00,4843.26045,N,00920.55309,E,1,12,0.53,248.5,M,47.6,M,,*45
$GPGSV,3,1,12,05,17,204,,10,03,338,,12,02,213,,13,68,133,48,1*6A
$GPGSV,3,2,12,14,47,061,45,15,70,270,,17,25,104,46,19,14,134,44,1*6D
$GPGSV,3,3,12,22,64,085,45,23,28,306,41,24,35,274,39,30,18,082,45,1*68
$GLGSV,3,1,10,65,20,326,,70,00,155,12,71,44,163,53,72,74,288,28,1*72
$GLGSV,3,2,10,73,50,042,48,74,77,261,29,75,24,233,47,81,07,349,36,1*7E
$GLGSV,3,3,10,82,12,034,34,83,03,072,,1*7D
$GAGSV,3,1,11,04,64,138,49,05,08,306,34,06,84,249,31,09,60,300,,7*74
$GAGSV,3,2,11,15,03,003,,19,08,129,40,21,17,044,39,23,63,079,45,7*7C
$GAGSV,3,3,11,24,03,212,,31,49,191,35,34,06,316,14,7*47
$GBGSV,3,1,10,05,16,124,44,07,24,055,40,09,00,083,,10,31,068,44,1*7A
$GBGSV,3,2,10,11,08,036,33,19,45,300,35,20,59,210,42,22,01,327,,1*7B
$GBGSV,3,3,10,23,21,062,47,28,01,113,,1*7A
$GNRMC,070106.00,A,4843.26048,N,00920.55309,E,0.015,,080225,,,A,V*1F
$GNGGA,070106.00,4843.26048,N,00920.55309,E,1,12,0.53,248.5,M,47.6,M,,*4B
$GPGSV,3,1,12,05,17,204,,10,03,338,,12,02,213,,13,68,133,48,1*6A
$GPGSV,3,2,12,14,47,061,45,15,70,270,,17,25,104,46,19,14,134,44,1*6D
$GPGSV,3,3,12,22,64,085,46,23,28,306,41,24,35,274,39,30,18,082,45,1*6B
$GLGSV,3,1,10,65,20,326,,70,00,155,16,71,44,163,52,72,74,288,25,1*7A
$GLGSV,3,2,10,73,50,042,48,74,77,261,29,75,24,233,47,81,07,349,37,1*7F
$GLGSV,3,3,10,82,12,034,35,83,03,072,,1*7C
$GAGSV,3,1,11,04,64,138,49,05,08,306,34,06,84,249,32,09,60,300,,7*77
