$GNRMC,220000.00,A,4843.26057,N,00920.55495,E,0.006,,080225,,,A,V*11
$GNGGA,220000.00,4843.26057,N,00920.55495,E,1,12,0.51,249.5,M,47.6,M,,*44
$GPGSV,4,1,13,01,77,112,49,02,70,132,44,03,72,276,,04,26,191,,1*64
$GPGSV,4,2,13,08,06,174,,09,02,206,,14,02,260,,17,43,293,25,1*6E
$GPGSV,4,3,13,19,20,317,36,22,09,280,41,28,20,081,46,31,14,106,47,1*6D
$GPGSV,4,4,13,32,20,044,45,1*54
$GLGSV,3,1,09,67,28,039,45,68,80,051,37,69,44,214,42,75,04,319,37,1*72
$GLGSV,3,2,09,76,08,013,38,82,17,140,49,83,59,135,40,84,50,322,17,1*7C
$GLGSV,3,3,09,85,00,321,,1*4C
$GAGSV,3,1,10,03,55,152,44,05,45,062,44,08,15,194,37,09,02,033,,7*7A
$GNRMC,220001.00,A,4843.26058,N,00920.55495,E,0.019,,080225,,,A,V*11
$GNGGA,220001.00,4843.26058,N,00920.55495,E,1,12,0.51,249.4,M,47.6,M,,*4B
$GPGSV,4,1,13,01,77,112,49,02,70,132,44,03,72,276,,04,26,191,,1*64
$GPGSV,4,2,13,08,06,174,,09,02,206,,14,02,260,,17,43,293,25,1*6E
$GPGSV,4,3,13,19,20,317,36,22,09,280,41,28,20,081,46,31,14,106,47,1*6D
$GPGSV,4,4,13,32,20,044,45,1*54
$GLGSV,3,1,09,67,28,039,45,68,80,051,37,69,44,214,43,75,04,319,37,1*73
$GLGSV,3,2,09,76,08,013,40,82,17,140,49,83,59,135,40,84,50,322,19,1*7D
$GLGSV,3,3,09,85,00,321,,1*4C
$GAGSV,3,1,10,03,55,152,44,05,45,062,44,08,15,194,36,09,02,033,,7*7B
$GAGSV,3,2,10,13,25,300,37,15,79,321,34,21,12,300,39,23,03,347,,7*77
$GNRMC,220002.00,A,4843.26059,N,00920.55494,E,0.016,,080225,,,A,V*1D
$GNGGA,220002.00,4843.26059,N,00920.55494,E,1,12,0.51,249.4,M,47.6,M,,*48
$GPGSV,4,1,13,01,76,113,49,02,70,132,44,03,72,276,,04,26,191,,1*64
$GPGSV,4,2,13,08,06,174,,09,02,206,,14,02,260,,17,43,293,25,1*6E
$GPGSV,4,3,13,19,21,317,36,22,09,280,41,28,20,081,46,31,14,106,47,1*6C
$GPGSV,4,4,13,32,20,044,45,1*54
$GLGSV,3,1,09,67,28,039,45,68,80,051,37,69,44,214,43,75,04,319,37,1*73
$GLGSV,3,2,09,76,08,013,3,82,17,140,49,83,59,135,40,84,50,322,18,1*7D
$GLGSV,3,3,09,85,00,321,,1*4C
$GAGSV,3,1,10,03,55,152,44,05,45,062,44,08,15,194,36,09,02,033,,7*7B
$GAGSV,3,2,10,13,25,300,37,15,79,321,34,21,12,300,38,23,03,347,,7*76
$GNRMC,220003.00,A,4843.26060,N,00920.55491,E,0.004,,080225,,,A,V*10
$GNGGA,220003.00,4843.26060,N,00920.55491,E,1,12,0.51,249.3,M,47.6,M,,*41
$GPGSV,4,1,13,01,76,113,49,02,70,132,44,03,72,276,,04,26,191,,1*64
$GPGSV,4,2,13,08,06,174,,09,02,206,,14,02,260,,17,43,293,27,1*6C
$GPGSV,4,3,13,19,21,317,37,22,09,280,41,28,20,081,46,31,14,106,46,1*6C
$GPGSV,4,4,13,32,20,044,44,1*55
$GLGSV,3,1,09,67,28,039,45,68,80,051,37,69,44,214,43,75,04,319,37,1*73
$GLGSV,3,2,09,76,08,013,33,82,17,140,48,83,59,135,40,84,50,322,19,1*78
$GLGSV,3,3,09,85,00,321,,1*4C
$GAGSV,3,1,10,03,55,152,44,05,45,062,44,08,15,194,36,09,02,033,,7*7B
$GAGSV,3,2,10,13,25,300,37,15,79,321,34,21,12,300,39,23,03,347,,7*77
$GNRMC,220004.00,A,4843.26060,N,00920.55490,E,0.018,,080225,,,A,V*1B
$GNGGA,220004.00,4843.26060,N,00920.55490,E,1,12,0.51,249.2,M,47.6,M,,*46
$GPGSV,4,1,13,01,76,113,49,02,70,132,44,03,72,276,,04,26,191,,1*64
$GPGSV,4,2,13,08,06,174,,09,02,206,,14,02,260,,17,43,293,27,1*6C
$GPGSV,4,3,13,19,21,317,36,22,09,280,41,28,20,081,46,31,14,106,46,1*6D
$GPGSV,4,4,13,32,20,044,44,1*55
$GLGSV,3,1,09,67,28,039,45,68,80,051,38,69,44,214,43,75,04,319,37,1*7C
$GNRMC,220005.00,A,4843.26061,N,00920.55488,E,0.011,,080225,,,A,V*1B
$GNGGA,220005.00,4843.26061,N,00920.55488,E,1,12,0.50,249.2,M,47.6,M,,*4E
$GPGSV,4,1,13,01,76,113,49,02,70,132,44,03,72,276,,04,26,191,,1*64
$GPGSV,4,2,13,08,06,174,,09,02,206,,14,02,260,,17,43,293,28,1*63
$GPGSV,4,3,13,19,21,317,36,22,09,280,41,28,20,081,46,31,14,106,46,1*6D
$GPGSV,4,4,13,32,20,044,44,1*55
$GLGSV,3,1,09,67,28,039,45,68,80,051,38,69,44,214,42,75,04,319,37,1*7D
$GLGSV,3,2,09,76,08,013,36,82,17,140,47,83,59,135,40,84,50,322,19,1*72
$GLGSV,3,3,09,85,00,321,,1*4C
$GAGSV,3,1,10,03,56,152,44,05,45,062,44,08,15,194,36,09,02,033,,7*78
$GAGSV,3,2,10,13,25,300,37,15,79,321,35,21,12,300,39,23,03,347,,7*76
$GNRMC,220006.00,A,4843.26061,N,00920.55488,E,0.016,,080225,,,A,V*1F
$GNGGA,220006.00,4843.26061,N,00920.55488,E,1,12,0.50,249.1,M,47.6,M,,*4E
$GPGSV,4,1,13,01,76,113,48,2,70,132,44,03,72,276,,04,26,191,,1*65
$GPGSV,4,2,13,08,06,174,,09,02,206,,14,02,260,,17,43,293,29,1*62
$GPGSV,4,3,13,19,21,317,37,22,09,280,41,28,20,081,46,31,14,106,46,1*6C
$GPGSV,4,4,13,32,20,044,44,1*55
$GLGSV,3,1,09,67,28,039,45,68,80,051,39,69,44,214,42,75,04,319,36,1*7D
$GLGSV,3,2,09,76,08,013,34,82,17,140,47,83,59,135,39,84,50,322,19,1*7E
$GLGSV,3,3,09,85,00,321,,1*4C
$GAGSV,3,1,10,03,56,152,44,05,44,062,44,08,15,194,36,09,02,033,,7*79
$GNRMC,220007.00,A,4843.26062,N,00920.55488,E,0.028,,080225,,,A,V*10
$GNGGA,220007.00,4843.26062,N,00920.55488,E,1,12,050,249.1,M,47.6,M,,*4C
$GPGSV,4,1,13,01,76,113,48,02,70,132,45,03,72,276,,04,26,191,,1*64
$GPGSV,4,2,13,08,06,174,,09,02,206,,14,02,260,,17,43,293,30,1*6A
$GPGSV,4,3,13,19,21,317,37,22,09,280,41,28,20,081,46,31,14,106,46,1*6C
$GPGSV,4,4,13,32,20,044,44,1*55
$GLGSV,3,1,09,67,28,039,45,68,80,051,39,69,44,214,42,75,04,319,36,1*7D
$GLGSV,3,2,09,76,08,013,38,82,17,140,47,83,59,135,39,84,50,322,19,1*72
$GLGSV,3,3,09,85,00,321,,1*4C
$GAGSV,3,1,10,03,56,152,44,05,44,062,44,08,15,194,36,09,02,033,,7*79
$GAGSV,3,2,10,13,25,300,38,15,79,321,35,21,12,300,39,23,03,347,,7*79
$GNRMC,220008.00,A,4843.26063,N,00920.55487,E,0.012,,080225,,,A,V*18
$GNGGA,220008.00,4843.26063,N,00920.55487,E,1,12,0.50,249.1,M,47.6,M,,*4D
$GPGSV,4,1,13,01,76,113,48,02,70,132,45,03,72,276,,04,26,191,,1*64
$GPGSV,4,2,13,08,06,174,,09,02,206,,14,02,260,,17,43,293,31,1*6B
$GPGSV,4,3,13,19,21,317,37,22,09,280,41,28,20,081,46,31,14,106,46,1*6C
$GPGSV,4,4,13,32,20,044,44,1*55
$GLGSV,3,1,09,67,28,039,45,68,80,051,39,69,44,214,41,75,04,319,35,1*7D
$GLGSV,3,2,09,76,08,013,37,82,17,140,46,83,59,135,38,84,50,322,20,1*77
$GLGSV,3,3,09,85,00,321,,1*4C
$GAGSV,3,1,10,03,56,152,44,05,44,062,44,08,15,194,36,09,02,033,,7*79
$GAGSV,3,2,10,13,25,300,38,15,79,321,36,21,12,300,39,23,03,347,,7*7A
$GNRMC,220009.00,A,4843.26062,N,00920.55487,E,0.037,,080225,,,A,V*1F
$GNGGA,220009.00,4843.26062,N,00920.55487,E,1,12,0.50,249.1,M,47.6,M,,*4D
$GPGSV,4,1,13,01,76,113,48,02,70,132,45,03,72,276,,04,26,191,,1*64
$GPGSV,4,2,13,08,06,174,,09,02,206,,14,02,260,,17,43,293,31,1*6B
$GPGSV,4,3,13,19,21,317,37,22,09,280,42,28,20,081,46,31,14,106,45,1*6C
$GPGSV,4,4,13,32,20,044,44,1*55
$GLGSV,3,1,09,67,28,039,45,68,80,051,39,69,44,214,41,75,04,319,34,1*7C
$GLGSV,3,2,09,76,08,013,36,82,17,140,46,83,59,135,38,84,50,322,20,1*76
$GLGSV,3,3,09,85,00,321,,1*4C
$GAGSV,3,1,10,03,56,152,44,05,44,062,44,08,16,194,36,09,02,033,,7*7A
$GNRMC,220010.00,A,4843.26063,N,00920.55488,E,0.029,,080225,,,A,V*16
$GNGGA,220010.00,4843.26063,N,00920.55488,E,1,12,0.50,249.1,M,47.6,M,,*4B
$GPGSV,4,1,13,01,76,113,48,02,70,132,45,03,72,276,,04,26,191,,1*64
$GPGSV,4,2,13,08,06,174,,09,02,206,,14,02,260,,17,43,293,32,1*68
$GPGSV,4,3,13,19,21,317,37,22,09,280,42,28,20,081,46,31,14,106,45,1*6C
$GPGSV,4,4,13,32,20,044,43,1*52
$GLGSV,3,1,09,67,28,039,45,68,80,049,38,69,45,214,42,75,04,319,34,1*76
$GLGSV,3,2,09,76,08,013,36,82,16,140,46,83,59,136,38,84,50,322,19,1*7E
$GLGSV,3,3,09,85,00,321,,1*4C
$GAGSV,3,1,10,03,56,152,44,05,44,062,44,08,16,194,35,09,01,033,,7*7A
$GNRMC,220011.00,A,4843.26063,N,00920.55489,E,0.024,,080225,,,A,V*1B
$GNGGA,220011.00,4843.26063,N,00920.55489,E,1,12,0.50,249.1,M,47.6,M,,*4B
$GPGSV,4,1,13,01,76,113,48,02,70,132,45,03,72,276,,04,26,191,,1*64
$GPGSV,4,2,13,08,06,174,,09,02,206,,14,02,260,,17,43,293,33,1*69
$GPGSV,4,3,13,19,21,317,37,22,09,280,42,28,20,081,46,31,14,106,45,1*6C
$GPGSV,4,4,13,32,20,044,43,1*52
$GLGSV,3,1,09,67,28,039,45,68,80,049,38,69,45,214,42,75,04,319,34,1*76
$GLGSV,3,2,09,76,08,013,36,82,16,140,46,83,59,136,38,84,50,322,19,1*7E
$GLGSV,3,3,09,85,00,321,,1*4C
$GAGSV,3,1,10,03,56,152,44,05,44,062,45,08,16,194,35,09,01,033,,7*7B
$GNRMC,220012.00,A,4843.26063,N,00920.55490,E,0.023,,080225,,,A,V*17
$GNGGA,220012.00,4843.26063,N,00920.55490,E,1,12,0.50,249.1,M,47.6,M,,*40
$GPGSV,4,1,13,01,76,113,48,02,70,132,46,03,72,276,,04,26,191,,1*67
$GPGSV,4,2,13,08,06,174,,09,02,206,,14,02,260,,17,43,293,34,1*6E
$GPGSV,4,3,13,19,21,317,37,22,09,280,42,28,20,081,46,31,14,106,44,1*6D
$GPGSV,4,4,13,32,20,044,43,1*52
$GLGSV,3,1,09,67,28,039,45,68,80,049,37,69,45,214,42,75,04,319,34,1*79
$GLGSV,3,2,09,76,08,013,36,82,16,140,45,83,59,136,38,84,50,322,19,1*7D
$GLGSV,3,3,09,85,00,321,,1*4C
$GAGSV,3,1,10,03,56,152,44,05,44,062,45,08,16,194,34,09,01,033,,7*7A
$GAGSV,3,2,10,13,25,300,38,15,79,321,36,21,12,300,40,23,03,347,,7*74
$GNRMC,220013.00,A,4843.26061,N,00920.55492,E,0.010,,080225,,,A,V*16
$GNGGA,220013.00,4843.26061,N,00920.55492,E,1,12,0.50,249.1,M,47.6,M,,*41
$GPGSV,4,1,13,01,76,113,48,02,70,132,46,03,72,276,,04,26,191,,1*67
$GPGSV,4,2,13,08,06,174,,09,02,206,,14,02,260,,17,43,293,34,1*6E
$GPGSV,4,3,13,19,21,317,37,22,09,280,42,28,20,081,46,31,14,106,44,1*6D
$GPGSV,4,4,13,32,20,044,43,1*52
$GLGSV,3,1,09,67,28,039,45,68,80,049,37,69,45,214,42,75,04,319,34,1*79
$GLGSV,3,2,09,76,08,013,35,82,16,140,45,83,59,136,38,84,50,322,20,1*74
$GLGSV,3,3,09,85,00,321,,1*4C
$GAGSV,3,1,10,03,56,152,44,05,44,062,45,08,16,194,34,09,01,033,,7*7A
$GAGSV,3,2,10,13,25,300,38,15,79,321,36,21,12,300,40,23,03,347,,7*74
$GNRMC,220014.00,A,4843.26059,N,00920.55494,E,0.018,,080225,,,A,V*14
$GNGGA,220014.00,4843.26059,N,00920.55494,E,1,12,0.50,249.1,M,47.6,M,,*4B
$GPGSV,4,1,13,01,76,113,48,02,70,132,46,03,72,276,,04,26,191,,1*67
$GPGSV,4,2,13,08,06,174,,09,02,206,,14,02,260,,17,43,293,34,1*6E
$GPGSV,4,3,13,19,21,317,37,22,09,280,42,28,20,081,46,31,14,106,44,1*6D
$GPGSV,4,4,13,32,20,044,42,1*53
$GLGSV,3,1,09,67,28,039,45,68,80,049,37,69,45,214,42,75,04,319,33,1*7E
$GLGSV,3,2,09,76,08,013,35,82,16,140,44,83,59,136,38,84,50,322,21,1*74
$GLGSV,3,3,09,85,00,321,,1*4C
$GAGSV,3,1,10,03,56,152,44,05,44,062,45,08,16,194,34,09,01,033,,7*7A
$GAGSV,3,2,10,13,26,300,38,15,79,321,36,21,12,300,40,23,03,347,,7*77
$GNRMC,220015.00,A,4843.26058,N,00920.55497,E,0.055,,080225,,,A,V*1E
$GNGGA,220015.00,4843.26058,N,00920.55497,E,1,12,0.50,249.0,M,47.6,M,,*49
$GPGSV,4,1,13,01,76,113,48,02,70,132,46,03,72,276,,04,26,191,,1*67
$GPGSV,4,2,13,08,06,174,,09,02,206,,14,02,260,,17,43,293,34,1*6E
$GPGSV,4,3,13,19,21,317,37,22,09,280,42,28,20,081,46,31,14,106,44,1*6D
$GPGSV,4,4,13,32,20,044,42,1*53
$GLGSV,3,1,09,67,28,039,45,68,80,049,36,69,45,214,43,75,04,319,32,1*7F
$GLGSV,3,2,09,76,08,013,33,82,16,140,44,83,59,136,38,84,50,322,20,1*73
$GLGSV,3,3,09,85,00,321,,1*4C
$GNRMC,220016.00,A,4843.26056,N,00920.55499,E,0.012,,080225,,,A,V*1E
$GNGGA,220016.00,4843.26056,N,00920.55499,E,1,12,0.50,249.0,M,47.6,M,,*4A
$GPGSV,4,1,13,01,76,113,47,02,70,132,46,03,72,276,,04,26,191,,1*68
$GPGSV,4,2,13,08,06,174,,09,02,206,,14,02,260,,17,43,293,34,1*6E
$GPGSV,4,3,13,19,21,317,37,22,09,280,42,28,20,081,46,31,14,106,44,1*6D
$GPGSV,4,4,13,32,20,044,42,1*53
$GLGSV,3,1,09,67,28,039,45,68,80,049,35,69,45,214,43,75,04,319,32,1*7C
$GLGSV,3,2,09,76,08,013,33,82,16,140,44,83,59,136,38,84,50,322,21,1*72
$GNRMC,220017.00,A,4843.26053,N,00920.55501,E,0.016,,080225,,,A,V*1E
$GNGGA,220017.00,4843.26053,N,00920.55501,E,1,12,0.50,248.9,M,47.6,M,,*46
$GPGSV,4,1,13,01,76,113,48,02,70,132,45,03,72,276,,04,26,191,,1*64
$GPGSV,4,2,13,08,06,174,,09,02,206,,14,02,260,,17,43,293,34,1*6E
$GPGSV,4,3,13,19,21,317,37,22,09,280,41,28,20,081,46,31,14,106,44,1*6E
$GPGSV,4,4,13,32,20,044,42,1*53
$GLGSV,3,1,09,67,28,039,45,68,80,049,34,69,45,214,42,75,04,319,31,1*7F
$GLGSV,3,2,09,76,08,013,32,82,16,140,43,83,59,136,38,84,50,322,21,1*74
$GLGSV,3,3,09,85,00,321,,1*4C
$GAGSV,3,1,10,03,56,152,45,05,44,062,45,08,16,194,34,09,01,033,,7*7B
$GNRMC,220018.00,A,4843.26051,N,00920.55503,E,0.015,,080225,,,A,V*12
$GNGGA,220018.00,4843.26051,N,00920.55503,E,1,12,0.50,248.9,M,47.6,M,,*49
$GPGSV,4,1,13,01,76,113,48,02,70,132,46,03,72,276,,04,26,191,,1*67
$GPGSV,4,2,13,08,06,174,,09,02,206,,14,02,260,,17,43,293,35,1*6F
$GPGSV,4,3,13,19,21,317,37,22,09,280,41,28,20,081,45,31,14,106,43,1*6A
$GPGSV,4,4,13,32,20,044,42,1*53
$GLGSV,3,1,09,67,28,039,45,68,80,049,34,69,45,214,42,75,04,319,31,1*7F
$GLGSV,3,2,09,76,08,013,32,82,16,140,42,83,59,136,38,84,50,322,22,1*76
$GLGSV,3,3,09,85,00,321,,1*4C
$GAGSV,3,1,10,03,56,152,45,05,44,062,45,08,16,194,34,09,01,033,,7*7B
$GNRMC,220019.00,A,4843.26050,N,00920.55505,E,0.018,,080225,,,A,V*19
$GNGGA,220019.00,4843.26050,N,00920.55505,E,1,12,0.50,248.9,M,47.6,M,,*4F
$GPGSV,4,1,13,01,76,113,48,02,70,132,46,03,72,276,,04,26,191,,1*67
$GPGSV,4,2,1,08,06,174,,09,02,206,,14,02,260,,17,43,293,35,1*6F
$GPGSV,4,3,13,19,21,317,37,22,09,280,41,28,20,081,45,31,14,106,44,1*6D
$GPGSV,4,4,13,32,20,044,42,1*53
$GLGSV,3,1,09,67,28,039,45,68,80,049,33,69,45,214,42,75,04,319,30,1*79
$GLGSV,3,2,09,76,08,013,32,82,16,140,41,83,59,136,38,84,50,322,23,1*74
$GLGSV,3,3,09,85,00,321,,1*4C
$GAGSV,3,1,10,03,56,152,45,05,44,062,45,08,16,194,33,09,01,033,,7*7C
$GAGSV,3,2,10,13,26,300,38,15,80,322,37,21,12,299,40,23,03,346,,7*73
$GNRMC,220020.00,A,4843.26048,N,00920.55507,E,0.009,,080225,,,A,V*18
$GNGGA,220020.00,4843.26048,N,00920.55507,E,1,12,0.50,248.9,M,47.6,M,,*4E
$GPGSV,4,1,13,01,76,113,48,02,70,132,46,03,72,276,,04,26,191,,1*67
$GPGSV,4,2,13,08,06,174,,09,02,206,,14,02,260,,17,43,293,34,1*6E
$GPGSV,4,3,13,19,21,317,37,22,09,280,41,28,20,081,45,31,14,106,44,1*6D
$GPGSV,4,4,13,32,20,044,42,1*53
$GLGSV,3,1,09,67,28,039,44,68,80,049,33,69,45,214,41,75,04,319,29,1*73
$GLGSV,3,2,09,76,08,013,32,82,16,140,42,83,59,136,38,84,50,322,24,1*70
$GLGSV,3,3,09,85,00,321,,1*4C
$GAGSV,3,1,10,03,56,152,45,05,44,062,45,08,16,194,33,09,01,033,,7*7C
$GAGSV,3,2,10,13,26,300,38,15,80,322,37,21,12,299,40,23,03,346,,7*73
$GNRMC,220021.00,A,4843.26046,N,00920.55508,E,0.008,,080225,,,A,V*19
$GNGGA,220021.00,4843.26046,N,00920.55508,E,1,12,0.50,248.8,M,47.6,M,,*4F
$GPGSV,4,1,13,01,76,113,48,02,70,132,46,03,72,276,,04,26,191,,1*67
$GPGSV,4,2,13,08,06,174,,09,02,206,,14,02,260,,17,43,293,34,1*6E
$GPGSV,4,3,13,19,21,317,37,22,09,280,41,28,20,081,45,31,14,106,44,1*6D
$GPGSV,4,4,13,32,20,044,42,1*53
$GLGSV,3,1,09,67,28,039,44,68,80,049,32,69,45,214,40,75,04,319,28,1*72
$GLGSV,3,2,09,76,08,013,32,82,16,140,42,83,59,136,39,84,50,322,25,1*70
$GLGSV,3,3,09,85,00,321,,1*4C
$GAGSV,3,1,10,03,56,152,45,05,44,062,45,08,16,194,33,09,01,033,,7*7C
$GNRMC,220022.00,A,4843.26043,N,00920.55509,E,0.002,,080225,,,A,V*14
$GNGGA,220022.00,4843.26043,N,00920.55509,E,1,12,0.50,248.8,M,47.6,M,,*48
$GPGSV,4,1,13,01,76,113,48,02,70,132,46,03,72,276,,04,26,191,,1*67
$GPGSV,4,2,13,08,06,174,,09,02,206,,14,02,260,,17,43,293,34,1*6E
$GPGSV,4,3,13,19,21,317,37,22,09,280,41,28,20,081,45,31,14,106,44,1*6D
$GPGSV,4,4,13,32,20,044,42,1*53
$GLGSV,3,1,09,67,28,039,44,68,80,049,31,69,45,214,40,75,04,319,28,1*71
$GLGSV,3,2,09,76,08,013,33,82,16,140,42,83,59,136,39,84,50,322,25,1*71
$GLGSV,3,3,09,85,00,321,,1*4C
$GAGSV,3,1,10,03,56,152,45,05,44,062,45,08,16,194,34,09,01,033,,7*7B
$GNRMC,220023.00,A,4843.26042,N,0920.55511,E,0.011,,080225,,,A,V*1F
$GNGGA,220023.00,4843.26042,N,00920.55511,E,1,12,0.50,248.8,M,47.6,M,,*41
$GPGSV,4,1,13,01,76,113,48,02,70,132,46,03,72,276,,04,6,191,,1*67
$GPGSV,4,2,13,08,06,174,,09,02,206,,14,02,260,,17,43,293,34,1*6E
$GPGSV,4,3,13,19,21,317,37,22,09,280,41,28,20,081,45,31,14,106,44,1*6D
$GPGSV,4,4,13,32,20,044,42,1*53
$GLGSV,3,1,09,67,28,039,44,68,80,049,30,69,45,214,40,75,04,319,29,1*71
$GLGSV,3,2,09,76,08,013,33,82,16,140,42,83,59,136,40,84,50,322,24,1*7E
$GLGSV,3,3,09,85,00,321,,1*4C
$GAGSV,3,1,10,03,56,152,45,05,44,062,46,08,16,194,34,09,01,033,,7*78
$GAGSV,3,2,10,13,26,300,37,15,80,322,37,21,12,299,40,23,03,346,,7*7C
$GNRMC,220024.00,A,4843.26040,N,00920.55512,E,0.027,,080225,,,A,V*1C
$GNGGA,220024.00,4843.26040,N,00920.55512,E,1,12,0.50,248.8,M,47.6,M,,*47
$GPGSV,4,1,13,01,76,113,48,02,70,132,46,03,72,276,,04,26,191,,1*67
$GPGSV,4,2,13,08,06,174,,09,02,206,,14,02,260,,17,43,293,33,1*69
$GPGSV,4,3,13,19,21,317,37,22,09,280,41,28,20,081,45,31,14,106,44,1*6D
$GPGSV,4,4,13,32,20,044,42,1*53
$GLGSV,3,1,09,67,28,039,44,68,80,049,30,69,45,214,40,75,04,319,28,1*70
$GLGSV,3,3,09,85,00,321,,1*4C
$GAGSV,3,1,10,03,56,152,45,05,44,062,45,08,16,194,34,09,01,033,,7*7B
$GNRMC,220025.00,A,4843.26036,N,00920.55510,E,0.042,,080225,,,A,V*1D
$GNGGA,220025.00,4843.26036,N,00920.55510,E,1,12,0.50,248.7,M,47.6,M,,*4A
$GPGSV,4,1,13,01,76,113,48,02,70,132,46,03,72,276,,04,26,191,,1*67
$GPGSV,4,2,13,08,06,174,,09,02,206,,14,02,260,,17,43,293,33,1*69
$GPGSV,4,3,13,19,21,317,37,22,09,280,41,28,20,081,46,31,14,106,44,1*6E
$GPGSV,4,4,13,32,20,044,42,1*53
$GLGSV,3,1,09,67,28,039,43,68,80,049,29,69,45,214,39,75,04,319,28,1*71
$GLGSV,3,2,09,76,08,013,31,82,16,140,43,83,59,136,40,84,50,322,24,1*7D
$GLGSV,3,3,09,85,00,321,,1*4C
$GAGSV,3,1,10,03,56,152,45,05,44,062,46,08,16,194,34,09,01,033,,7*78
$GAGSV,3,2,10,13,26,300,37,15,80,322,37,21,12,299,40,23,03,346,,7*7C
$GNRMC,220026.00,A,4843.26032,N,00920.55509,E,0.007,,080225,,,A,V*13
$GNGGA,220026.00,4843.26032,N,00920.55509,E,1,12,0.50,248.7,M,47.6,M,,*45
$GPGSV,4,1,13,01,76,113,48,02,70,132,46,03,72,276,,04,26,191,,1*67
$GPGSV,4,2,13,08,06,174,,09,02,206,,14,02,260,,17,43,293,32,1*68
$GPGSV,4,3,13,19,21,317,37,22,09,279,41,28,20,081,46,31,14,106,45,1*69
$GPGSV,4,4,13,32,20,044,42,1*53
$GLGSV,3,1,09,67,28,039,43,68,80,049,29,69,45,214,39,75,04,319,27,1*7E
$GLGSV,3,2,09,76,08,013,30,82,16,140,43,83,59,136,41,84,50,322,23,1*7A
$GLGSV,3,3,09,85,00,321,,1*4C
$GAGSV,3,1,10,03,56,152,45,05,44,062,46,08,16,194,34,09,01,033,,7*78
$GAGSV,3,2,10,13,26,300,37,15,80,322,37,21,12,299,40,23,03,346,,7*7C
$GNRMC,220027.00,A,4843.26027,N,00920.55509,E,0.016,,080225,,,A,V*16
$GNGGA,220027.00,4843.26027,N,00920.55509,E,1,12,0.50,248.6,M,47.6,M,,*41
$GPGSV,4,1,13,01,76,113,48,02,70,132,46,03,72,276,,04,26,191,,1*67
$GPGSV,4,2,13,08,06,174,,09,02,206,,14,02,260,,17,43,293,32,1*68
$GPGSV,4,3,13,19,21,317,37,22,09,279,41,28,20,081,46,31,14,106,45,1*69
$GPGSV,4,4,13,32,20,044,42,1*53
$GLGSV,3,1,09,67,28,039,43,68,80,049,28,69,45,214,39,75,04,319,26,1*7E
$GLGSV,3,2,09,76,08,013,30,82,16,140,43,83,59,136,41,84,50,322,22,1*7B
$GLGSV,3,3,09,85,00,321,,1*4C
$GAGSV,3,1,10,03,56,152,45,05,44,062,46,08,16,194,34,09,01,033,,7*78
$GAGSV,3,2,10,13,26,300,37,15,80,322,37,21,12,299,40,23,03,346,,7*7C
$GNRMC,220028.00,A,4843.26022,N,00920.55508,E,0.005,,080225,,,A,V*1F
$GNGGA,220028.00,4843.26022,N,00920.55508,E,1,12,0.50,248.5,M,47.6,M,,*49
$GPGSV,4,1,13,01,76,113,48,02,70,132,46,03,72,276,,04,26,191,,1*67
$GPGSV,4,2,13,08,06,174,,09,02,206,,14,02,260,,17,43,293,31,1*6B
$GPGSV,4,3,13,19,21,317,37,22,09,279,41,28,20,081,46,31,14,106,44,1*68
$GPGSV,4,4,13,32,20,044,42,1*53
$GLGSV,3,1,09,67,28,039,43,68,80,049,27,69,45,214,38,75,04,319,25,1*73
$GLGSV,3,2,09,76,08,013,31,82,16,140,43,83,59,136,41,84,50,322,22,1*7A
$GLGSV,3,3,09,85,00,321,,1*4C
$GAGSV,3,1,10,03,56,152,45,05,44,062,46,08,16,194,33,09,01,033,,7*7F
$GNRMC,220029.00,A,4843.26018,N,00920.55506,E,0.016,,080225,,,A,V*1B
$GNGGA,220029.00,4843.26018,N,00920.55506,E,1,12,0.50,248.4,M,47.6,M,,*4E
$GPGSV,4,1,13,01,76,113,48,02,70,132,46,03,72,276,,04,26,191,,1*67
$GPGSV,4,2,13,08,06,174,,09,02,206,,14,02,260,,17,43,293,31,1*6B
$GPGSV,4,3,13,19,21,317,37,22,09,279,41,28,20,081,47,31,14,106,44,1*69
$GPGSV,4,4,13,32,20,044,42,1*53
$GLGSV,3,1,09,67,28,039,43,68,80,049,27,69,45,214,38,75,04,319,25,1*73
$GLGSV,3,2,09,76,08,013,31,82,16,140,43,83,59,136,41,84,50,322,23,1*7B
$GLGSV,3,3,09,85,00,321,,1*4C
$GAGSV,3,1,10,03,56,152,45,05,44,062,46,08,16,194,33,09,01,033,,7*7F
$GAGSV,3,2,10,13,26,300,37,15,80,22,37,21,12,299,40,23,03,346,,7*7C
$GNRMC,220030.00,A,4843.26014,N,00920.55505,E,0.016,,080225,,,A,V*1C
$GNGGA,220030.00,4843.26014,N,00920.55505,E,1,12,0.50,248.3,M,47.6,M,,*4E
$GPGSV,4,1,13,01,76,113,48,02,70,132,46,03,72,276,,04,26,191,,1*67
$GPGSV,4,2,13,08,06,174,,09,02,206,,14,02,260,,17,43,293,31,1*6B
$GPGSV,4,3,13,19,21,317,38,22,09,279,41,28,20,081,47,31,14,106,44,1*66
$GPGSV,4,4,13,32,20,044,42,1*53
$GLGSV,3,1,09,67,28,039,42,68,80,049,27,69,45,214,38,75,04,319,26,1*71
$GLGSV,3,2,09,76,08,013,31,82,16,140,44,83,59,136,41,84,50,322,23,1*7C
$GLGSV,3,3,09,85,00,321,,1*4C
$GAGSV,3,1,10,03,56,152,45,05,44,062,46,08,16,194,33,09,01,033,,7*7F
$GNRMC,220031.00,A,4843.26010,N,00920.55502,E,0.021,,080225,,,A,V*1A
$GNGGA,220031.00,4843.26010,N,00920.55502,E,1,12,0.50,248.2,M,47.6,M,,*4D
$GPGSV,4,1,13,01,76,113,48,02,70,132,46,03,72,276,,04,26,191,,1*67
$GPGSV,4,2,13,08,06,174,,09,02,206,,14,02,260,,17,43,293,30,1*6A
$GPGSV,4,3,13,19,21,317,38,22,09,279,41,28,20,081,47,31,14,106,43,1*61
$GPGSV,4,4,13,32,20,044,42,1*53
$GLGSV,3,1,09,67,28,039,42,68,80,049,29,69,45,214,39,75,04,319,28,1*70
$GLGSV,3,2,09,76,08,013,32,82,16,140,44,83,59,136,41,84,50,322,23,1*7F
$GLGSV,3,3,09,85,00,321,,1*4C
$GAGSV,3,1,10,03,56,152,45,05,44,062,46,08,16,194,33,09,01,033,,7*7F
$GAGSV,3,2,10,13,26,300,37,15,80,322,36,21,12,299,40,23,03,346,,7*7D
$GNRMC,220032.00,A,4843.26007,N,00920.55500,E,0.013,,080225,,,A,V*1C
$GNGGA,220032.00,4843.26007,N,00920.55500,E,1,12,0.50,248.0,M,47.6,M,,*48
$GPGSV,4,1,13,01,76,113,48,02,70,132,46,03,72,276,,04,26,191,,1*67
$GPGSV,4,2,13,08,06,174,,09,02,206,,14,02,260,,17,43,292,30,1*6B
$GPGSV,4,3,13,19,21,317,38,22,09,279,41,28,20,081,47,31,14,106,43,1*61
$GPGSV,4,4,13,32,20,044,43,1*52
$GLGSV,3,1,09,67,28,039,42,68,80,049,30,69,45,214,40,75,04,319,29,1*77
$GLGSV,3,2,09,76,08,013,32,82,16,140,45,83,59,136,41,84,50,322,23,1*7E
$GLGSV,3,3,09,85,00,321,,1*4C
$GAGSV,3,1,10,03,56,152,45,05,44,062,46,08,16,194,33,09,01,033,,7*7F
$GNRMC,220033.00,A,4843.26003,N,00920.55497,E,0.025,,080225,,,A,V*13
$GNGGA,220033.00,4843.26003,N,00920.55497,E,1,12,0.50,247.9,M,47.6,M,,*44
$GPGSV,4,1,13,01,76,113,48,02,70,132,46,03,72,276,,04,26,191,,1*67
$GPGSV,4,2,13,08,06,174,,09,02,206,,14,02,260,,17,43,292,29,1*63
$GPGSV,4,3,13,19,21,317,38,22,09,279,41,28,20,081,47,31,14,106,43,1*61
$GPGSV,4,4,13,32,20,044,43,1*52
$GLGSV,3,1,09,67,28,039,42,68,80,049,31,69,45,214,40,75,04,319,29,1*76
$GLGSV,3,2,09,76,08,013,32,82,16,140,45,83,59,136,41,84,50,322,22,1*7F
$GLGSV,3,3,09,85,00,321,,1*4C
$GAGSV,3,1,10,03,56,152,45,05,44,062,46,08,16,194,33,09,01,033,,7*7F
$GAGSV,3,2,10,13,26,300,37,15,80,322,36,21,12,299,39,23,03,346,,7*73
$GNRMC,220034.00,A,4843.26000,N,00920.55494,E,0.007,,080225,,,A,V*14
$GNGGA,220034.00,4843.26000,N,00920.55494,E,1,12,0.50,247.8,M,47.6,M,,*42
$GPGSV,4,1,13,01,76,113,48,02,70,132,46,03,72,276,,04,26,191,,1*67
$GPGSV,4,2,13,08,06,174,,09,02,206,,14,02,260,,17,43,292,30,1*6B
$GPGSV,4,3,13,19,21,317,38,22,09,279,40,28,20,081,47,31,14,106,43,1*60
$GPGSV,4,4,13,32,20,044,43,1*52
$GLGSV,3,1,09,67,28,039,42,68,80,049,32,69,45,214,40,75,04,319,30,1*7D
$GLGSV,3,2,09,76,08,013,34,82,16,140,45,83,59,136,41,84,50,322,21,1*7A
$GLGSV,3,3,09,85,00,321,,1*4C
$GAGSV,3,1,10,03,56,152,45,05,44,062,46,08,16,194,33,09,01,033,,7*7F
$GNRMC,220035.00,A,4843.25998,N,00920.55492,E,0.024,,080225,,,A,V*19
$GNGGA,220035.00,4843.25998,N,00920.55492,E,1,12,0.50,247.8,M,47.6,M,,*4E
$GPGSV,4,1,13,01,76,113,48,02,70,132,46,03,72,276,,04,26,191,,1*67
$GPGSV,4,2,13,08,06,174,,09,02,206,,14,02,260,,17,43,292,30,1*6B
$GPGSV,4,3,13,19,21,317,37,22,09,279,41,28,20,081,47,31,14,106,43,1*6E
$GPGSV,4,4,13,32,20,044,43,1*52
$GLGSV,3,1,09,67,28,039,41,68,80,049,33,69,45,214,40,75,04,319,31,1*7E
$GLGSV,3,2,09,76,08,013,34,82,16,140,46,83,59,136,41,84,50,322,20,1*78
$GLGSV,3,3,09,85,00,321,,1*4C
$GAGSV,3,1,10,03,56,152,45,05,44,062,46,08,16,194,33,09,01,033,,7*7F
$GNRMC,220036.00,A,4843.25994,N,00920.55490,E,0.020,,080225,,,A,V*10
$GNGGA,220036.00,4843.25994,N,00920.55490,E,1,12,0.50,247.7,M,47.6,M,,*4C
$GPGSV,4,1,13,01,76,113,48,02,70,132,46,03,72,276,,04,26,191,,1*67
$GPGSV,4,2,13,08,06,174,,09,02,206,,14,02,260,,17,43,292,31,1*6A
$GPGSV,4,3,13,19,21,317,38,22,09,279,40,28,20,081,47,31,14,106,42,1*61
$GPGSV,4,4,13,32,20,044,43,1*52
$GLGSV,3,1,09,67,28,039,42,68,80,049,33,69,45,214,40,75,04,319,31,1*7D
$GLGSV,3,2,09,76,08,013,33,82,16,140,46,83,59,136,41,84,50,322,18,1*74
$GLGSV,3,3,09,85,00,321,,1*4C
$GAGSV,3,1,10,03,56,152,45,05,44,062,46,08,16,194,33,09,01,033,,7*7F
$GAGSV,3,2,10,13,26,300,36,15,80,322,36,21,12,299,39,23,03,346,,7*72
$GNRMC,220037.00,A,4843.25992,N,00920.55488,E,0.010,,080225,,,A,V*1D
$GNGGA,220037.00,4843.25992,N,00920.55488,E,1,12,0.50,247.6,M,47.6,M,,*43
$GPGSV,4,1,13,01,76,113,48,02,70,132,46,03,72,276,,04,26,191,,1*67
$GPGSV,4,2,13,08,06,174,,09,02,206,,14,02,260,,17,43,292,32,1*69
$GPGSV,4,3,13,19,21,317,37,22,09,279,40,28,20,081,47,31,14,106,42,1*6E
$GPGSV,4,4,13,32,20,044,43,1*52
$GLGSV,3,1,09,67,28,039,41,68,80,049,33,69,45,214,40,75,04,319,30,1*7F
$GLGSV,3,2,09,76,08,013,33,82,16,140,46,83,59,136,41,84,50,322,18,1*74
$GLGSV,3,3,09,85,00,321,,1*4C
$GAGSV,3,1,10,03,56,152,45,05,44,062,46,08,16,194,33,09,01,033,,7*7F
$GAGSV,3,2,10,13,26,300,36,15,80,322,36,21,12,299,39,23,03,346,,7*72
$GNRMC,220038.00,A,4843.25989,N,00920.55486,E,0.006,,080225,,,A,V*11
$GNGGA,220038.00,4843.25989,N,00920.55486,E,1,12,0.50,247.5,M,47.6,M,,*4B
$GPGSV,4,1,13,01,76,113,47,02,70,132,46,03,72,276,,04,26,191,,1*68
$GPGSV,4,2,13,08,06,174,,09,02,206,,14,02,260,,17,43,292,32,1*69
$GPGSV,4,3,13,19,21,317,37,22,09,279,40,28,20,081,47,31,14,106,42,1*6E
$GPGSV,4,4,13,32,20,044,43,1*52
$GLGSV,3,1,09,67,28,039,41,68,80,049,33,69,45,214,40,75,04,319,31,1*7E
$GLGSV,3,2,09,76,08,013,33,82,16,140,47,83,59,136,41,84,50,322,17,1*7A
$GLGSV,3,3,09,85,00,321,,1*4C
$GAGSV,3,1,10,03,56,152,45,05,44,062,46,08,16,194,33,09,01,033,,7*7F
$GAGSV,3,2,10,13,26,300,36,15,80,322,36,21,12,299,39,23,03,346,,7*72
$GAGSV,3,3,10,27,05,251,17,34,43,114,44,7*76
$GNRMC,220039.00,A,4843.25988,N,00920.55484,E,0.020,,080225,,,A,V*17
$GNGGA,220039.00,4843.25988,N,00920.55484,E,1,12,0.50,247.4,M,47.6,M,,*48
$GPGSV,4,1,13,01,76,113,47,02,70,132,46,03,72,276,,04,26,191,,1*68
$GPGSV,4,2,13,08,06,174,,09,02,206,,14,02,260,,17,43,292,33,1*68
$GPGSV,4,3,13,19,21,317,37,22,09,279,40,28,20,081,47,31,14,106,41,1*6D
$GPGSV,4,4,13,32,20,044,43,1*52
$GLGSV,3,1,09,67,28,039,41,68,80,049,34,69,45,214,40,75,04,319,31,1*79
$GLGSV,3,2,09,76,08,013,33,82,16,140,47,83,59,136,41,84,50,322,16,1*7B
$GLGSV,3,3,09,85,00,321,,1*4C
$GAGSV,3,1,10,03,56,152,45,05,44,062,46,08,16,194,34,09,01,033,,7*78
$GNRMC,220040.00,A,4843.25988,N,00920.55482,E,0.012,,080225,,,A,V*1E
$GNGGA,220040.00,4843.25988,N,00920.55482,E,1,12,0.50,247.4,M,47.6,M,,*40
$GPGSV,4,1,13,01,76,113,47,02,70,132,46,03,72,276,,04,26,191,,1*68
$GPGSV,4,2,13,08,06,174,,09,02,206,,14,02,260,,17,43,292,33,1*68
$GPGSV,4,3,13,19,21,317,37,22,09,279,40,28,20,081,47,31,14,106,41,1*6D
$GPGSV,4,4,13,32,20,044,43,1*52
$GLGSV,3,1,09,67,28,039,41,68,80,049,34,69,45,214,40,75,04,319,31,1*79
$GLGSV,3,2,09,76,08,013,33,82,16,140,48,83,59,136,41,84,50,322,16,1*74
$GLGSV,3,3,09,85,00,321,,1*4C
$GAGSV,3,1,10,03,56,152,45,05,44,062,46,08,16,194,34,09,01,033,,7*78
$GAGSV,3,2,10,13,26,300,36,15,80,322,36,21,12,299,39,23,03,346,,7*72
$GNRMC,220041.00,A,4843.25989,N,00920.55480,E,0.008,,080225,,,A,V*17
$GNGGA,220041.00,4843.25989,N,00920.55480,E,1,12,0.50,247.3,M,47.6,M,,*45
$GPGSV,4,1,13,01,76,113,47,02,70,132,46,03,72,276,,04,26,191,,1*68
$GPGSV,4,2,13,08,06,174,,09,02,206,,14,02,260,,17,43,292,34,1*6F
$GPGSV,4,3,13,19,21,317,37,22,09,279,40,28,20,081,47,31,14,106,42,1*6E
$GPGSV,4,4,13,32,20,044,44,1*55
$GLGSV,3,1,09,67,28,039,41,68,80,049,34,69,45,214,40,75,04,319,31,1*79
$GLGSV,3,2,09,76,08,013,33,82,16,140,49,83,59,136,41,84,50,322,14,1*77
$GLGSV,3,3,09,85,00,321,,1*4C
$GAGSV,3,1,10,03,56,152,45,05,44,062,46,08,16,194,34,09,01,033,,7*78
$GNRMC,220042.00,A,4843.25989,N,00920.55477,E,0.011,,080225,,,A,V*14
$GNGGA,220042.00,4843.25989,N,00920.55477,E,1,12,0.50,247.2,M,47.6,M,,*4F
$GPGSV,4,1,13,01,76,113,47,02,70,132,45,03,72,276,,04,26,191,,1*6B
$GPGSV,4,2,13,08,06,174,,09,02,206,,14,02,260,,17,43,292,35,1*6E
$GPGSV,4,3,13,19,21,317,37,22,09,279,40,28,20,081,47,31,14,106,42,1*6E
$GPGSV,4,4,13,32,20,044,44,1*55
$GLGSV,3,1,09,67,28,039,41,68,80,049,33,69,45,214,40,75,04,319,31,1*7E
$GLGSV,3,2,09,76,08,013,32,82,16,140,49,83,59,136,42,84,50,322,17,1*76
$GLGSV,3,3,09,85,00,321,,1*4C
$GAGSV,3,1,10,03,56,152,45,05,44,062,46,08,16,194,34,09,01,033,,7*78
$GAGSV,3,2,10,13,26,300,37,15,80,322,36,21,12,299,39,23,03,346,,7*73
$GNRMC,220043.00,A,4843.25989,N,00920.55475,E,0.010,,080225,,,A,V*16
$GNGGA,220043.00,4843.25989,N,00920.55475,E,1,12,0.50,247.1,M,47.6,M,,*4F
$GPGSV,4,1,13,01,76,113,47,02,70,132,45,03,72,276,,04,26,191,,1*6B
$GPGSV,4,2,13,08,06,174,,09,02,206,,14,02,260,,17,43,292,35,1*6E
$GPGSV,4,3,13,19,21,317,37,22,09,279,40,28,20,081,47,31,14,106,42,1*6E
$GPGSV,4,4,13,32,20,044,44,1*55
$GLGSV,3,1,09,67,28,039,41,68,80,049,32,69,45,214,40,75,04,319,31,1*7F
$GLGSV,3,2,09,76,08,013,32,82,16,140,49,83,59,136,42,84,50,322,19,1*78
$GLGSV,3,3,09,85,00,321,,1*4C
$GAGSV,3,1,10,03,56,152,45,05,44,062,46,08,16,194,34,09,01,033,,7*78
$GAGSV,3,2,10,13,26,300,37,15,80,322,36,21,12,299,38,23,03,346,,7*72
$GNRMC,220044.00,A,4843.25989,N,00920.55473,E,0.010,,080225,,,A,V*17
$GNGGA,220044.00,4843.25989,N,00920.55473,E,1,12,0.50,247.0,M,47.6,M,,*4F
$GPGSV,4,1,13,01,76,113,47,02,70,132,45,03,72,276,,04,26,191,,1*6B
$GPGSV,4,2,13,08,06,174,,09,02,206,,14,02,260,,17,43,292,35,1*6E
$GPGSV,4,3,13,19,21,317,36,22,09,279,40,28,20,081,47,31,14,106,42,1*6F
$GPGSV,4,4,13,32,20,044,44,1*55
$GLGSV,3,1,09,67,28,039,40,68,80,049,32,69,45,214,40,75,04,319,31,1*7E
$GLGSV,3,2,09,76,08,013,31,82,16,140,49,83,59,136,42,84,50,322,20,1*71
$GLGSV,3,3,09,85,00,321,,1*4C
$GAGSV,3,1,10,03,56,152,45,05,44,062,46,08,16,194,34,09,01,033,,7*78
$GNRMC,220045.00,A,4843.25990,N,00920.55472,E,0.010,,080225,,,A,V*1F
$GNGGA,220045.00,4843.25990,N,00920.55472,E,1,12,0.51,247.0,M,47.6,M,,*46
$GPGSV,4,1,13,01,76,113,47,02,70,132,45,03,72,276,,04,26,191,,1*6B
$GPGSV,4,2,13,08,06,174,,09,02,206,,14,02,260,,17,43,292,36,1*6D
$GPGSV,4,3,13,19,21,317,36,22,09,279,40,28,20,081,47,31,14,106,42,1*6F
$GPGSV,4,4,13,32,20,044,44,1*55
$GLGSV,3,1,09,67,28,039,41,68,80,049,31,69,45,214,40,75,04,319,31,1*7C
$GLGSV,3,2,09,76,08,013,30,82,16,140,49,83,59,136,42,84,50,322,18,1*7B
$GLGSV,3,3,09,85,00,321,,1*4C
$GAGSV,3,1,10,03,56,152,45,05,44,062,46,08,16,194,34,09,01,033,,7*78
$GNRMC,220046.00,A,4843.25990,N,00920.55470,E,0.016,,080225,,,A,V*18
$GNGGA,220046.00,4843.25990,N,00920.55470,E,1,12,0.51,246.9,M,47.6,M,,*4F
$GPGSV,4,1,13,01,76,113,47,02,70,132,45,03,72,276,,04,26,191,,1*6B
$GPGSV,4,2,13,08,06,174,,09,02,206,,14,02,260,,17,43,292,36,1*6D
$GPGSV,4,3,13,19,21,317,36,22,09,279,40,28,20,081,47,31,14,106,42,1*6F
$GPGSV,4,4,13,32,20,044,44,1*55
$GLGSV,3,1,09,67,28,039,41,68,80,049,30,69,45,214,39,75,04,319,30,1*72
$GLGSV,3,2,09,76,08,013,30,82,16,140,49,83,59,136,43,84,50,322,13,1*71
$GLGSV,3,3,09,85,00,321,,1*4C
$GAGSV,3,1,10,03,56,152,45,05,44,062,46,08,16,194,34,09,01,033,,7*78
$GAGSV,3,2,10,13,6,300,37,15,80,322,36,21,12,299,38,23,03,346,,7*72
$GNRMC,220047.00,A,4843.25991,N,00920.55469,E,0.008,,080225,,,A,V*1F
$GNGGA,220047.00,4843.25991,N,00920.55469,E,1,12,0.51,246.9,M,47.6,M,,*47
$GPGSV,4,1,13,01,76,113,47,02,70,132,45,03,72,276,,04,26,191,,1*6B
$GPGSV,4,2,13,08,06,174,,09,02,206,,14,02,260,,17,43,292,36,1*6D
$GPGSV,4,3,13,19,21,317,36,22,09,279,40,28,20,081,47,31,14,106,42,1*6F
$GPGSV,4,4,13,32,20,044,44,1*55
$GLGSV,3,1,09,67,28,039,40,68,80,049,29,69,45,214,39,75,04,319,30,1*7B
$GLGSV,3,2,09,76,08,013,31,82,16,140,49,83,59,136,43,84,50,322,12,1*71
$GLGSV,3,3,09,85,00,321,,1*4C
$GAGSV,3,1,10,03,56,152,45,05,44,062,46,08,16,194,34,09,01,033,,7*78
$GAGSV,3,2,10,13,26,300,37,15,80,322,36,21,12,299,37,23,03,346,,7*7D
$GNRMC,220048.00,A,4843.25993,N,00920.55467,E,0.009,,080225,,,A,V*1D
$GNGGA,220048.00,4843.25993,N,00920.55467,E,1,12,0.51,246.8,M,47.6,M,,*45
$GPGSV,4,1,13,01,76,113,47,02,70,132,45,03,72,276,,04,26,191,,1*6B
$GPGSV,4,2,13,08,06,174,,09,02,206,,14,02,260,,17,43,292,36,1*6D
$GPGSV,4,3,13,19,21,317,36,22,09,279,40,28,20,081,46,31,14,106,42,1*6E
$GPGSV,4,4,13,32,20,044,44,1*55
$GLGSV,3,1,09,67,28,039,40,68,80,049,28,69,45,214,39,75,04,319,30,1*7A
$GLGSV,3,2,09,76,08,013,32,82,16,140,50,83,59,136,43,84,50,322,16,1*7E
$GLGSV,3,3,09,85,00,321,,1*4C
$GAGSV,3,1,10,03,56,152,45,05,44,062,46,08,16,194,35,09,01,033,,7*79
$GAGSV,3,2,10,13,26,300,37,15,80,322,36,21,12,299,37,23,03,346,,7*7D
$GNRMC,220049.00,A,4843.25996,N,00920.55466,E,0.007,,080225,,,A,V*16
$GNGGA,220049.00,4843.25996,N,00920.55466,E,1,12,0.51,246.9,M,47.6,M,,*41
$GPGSV,4,1,13,01,76,113,47,02,70,132,45,03,72,276,,04,26,191,,1*6B
$GPGSV,4,2,13,08,06,174,,09,02,206,,14,02,260,,17,43,292,36,1*6D
$GPGSV,4,4,13,32,20,044,44,1*55
$GLGSV,3,1,09,67,28,039,40,68,80,049,26,69,45,214,40,75,04,319,30,1*7A
$GLGSV,3,2,09,76,08,013,32,82,16,140,50,83,59,136,44,84,50,322,17,1*78
$GNRMC,220050.00,A,4843.25999,N,00920.55465,E0.002,,080225,,,A,V*17
$GNGGA,220050.00,4843.25999,N,00920.55465,E,1,12,0.51,246.9,M,47.6,M,,*45
$GPGSV,4,1,13,01,76,113,47,02,70,132,45,03,72,276,,04,26,191,,1*6B
$GPGSV,4,2,13,08,06,174,,09,02,206,,14,02,260,,17,43,292,36,1*6D
$GPGSV,4,3,13,19,21,317,36,22,09,279,40,28,20,081,46,31,14,106,42,1*6E
$GPGSV,4,4,13,32,20,044,44,1*55
$GLGSV,3,1,09,67,28,039,41,68,80,049,24,69,45,214,40,75,04,319,29,1*71
$GLGSV,3,2,09,76,08,013,34,82,16,140,50,83,59,136,44,84,50,322,16,1*7F
$GLGSV,3,3,09,85,00,321,,1*4C
$GAGSV,3,1,10,03,56,152,45,05,44,062,46,08,16,194,35,09,01,033,,7*79
$GNRMC,220051.00,A,4843.26002,N,00920.55463,E,0.012,,080225,,,A,V*19
$GNGGA,220051.00,4843.26002,N,00920.55463,E,1,12,0.51,247.0,M,47.6,M,,*42
$GPGSV,4,1,13,01,76,113,47,02,70,132,45,03,72,276,,04,26,191,,1*6B
$GPGSV,4,2,13,08,06,174,,09,02,206,,14,02,260,,17,43,292,36,1*6D
$GPGSV,4,3,13,19,21,317,36,22,09,279,40,28,20,081,46,31,14,106,41,1*6D
$GPGSV,4,4,13,32,20,044,44,1*55
$GLGSV,3,1,09,67,28,039,41,68,80,049,23,69,45,214,40,75,04,319,29,1*76
$GLGSV,3,2,09,76,08,013,35,82,16,140,50,83,59,136,44,84,50,322,16,1*7E
$GLGSV,3,3,09,85,00,321,,1*4C
$GAGSV,3,1,10,03,56,152,45,05,44,062,46,08,16,194,35,09,01,033,,7*79
$GAGSV,3,2,10,13,26,300,37,15,80,322,35,21,12,299,37,23,03,346,,7*7E
$GNRMC,220052.00,A,4843.26005,N,00920.55462,E,0.006,,080225,,,A,V*19
$GNGGA,220052.00,4843.26005,N,00920.55462,E,1,12,0.51,247.0,M,47.6,M,,*47
$GPGSV,4,1,13,01,76,113,47,02,70,132,45,03,72,276,,04,26,191,,1*6B
$GPGSV,4,2,13,08,06,174,,09,02,206,,14,02,260,,17,43,292,36,1*6D
$GPGSV,4,3,13,19,21,317,36,22,09,279,40,28,20,081,46,31,14,106,41,1*6D
$GPGSV,4,4,13,32,20,044,44,1*55
$GLGSV,3,1,09,67,28,039,41,68,80,049,22,69,45,214,40,75,04,319,29,1*77
$GLGSV,3,2,09,76,08,013,35,82,16,140,51,83,59,136,44,84,50,322,16,1*7F
$GLGSV,3,3,09,85,00,321,,1*4C
$GAGSV,3,1,10,03,56,152,45,05,44,062,46,08,16,194,35,09,01,033,,7*79
$GNRMC,220053.00,A,4843.26008,N,00920.55461,E,0.021,,080225,,,A,V*13
$GNGGA,220053.00,4843.26008,N,00920.55461,E,1,12,0.51,247.1,M,47.6,M,,*49
$GPGSV,4,1,13,01,76,113,47,02,70,132,45,03,72,276,,04,26,191,,1*6B
$GPGSV,4,2,13,08,06,174,,09,02,206,,14,02,260,,17,43,292,36,1*6D
$GPGSV,4,3,13,19,21,317,36,22,09,279,40,28,20,081,46,31,14,106,41,1*6D
$GPGSV,4,4,13,32,20,044,44,1*55
$GLGSV,3,1,09,67,28,039,41,68,80,049,19,69,45,214,40,75,04,319,29,1*7F
$GLGSV,3,2,09,76,08,013,36,82,16,140,51,83,59,136,44,84,50,322,13,1*79
$GLGSV,3,3,09,85,00,321,,1*4C
$GAGSV,3,1,10,03,56,152,45,05,44,062,46,08,16,194,35,09,01,033,,7*79
$GAGSV,3,2,10,13,26,300,37,15,80,322,35,21,12,299,37,23,03,346,,7*7E
$GNRMC,220054.00,A,4843.26012,N,00920.55460,E,0.007,,080225,,,A,V*1A
$GNGGA,220054.00,4843.26012,N,00920.55460,E,1,12,0.51,247.1,M,47.6,M,,*44
$GPGSV,4,1,13,01,76,113,47,02,70,132,45,03,72,276,,04,26,191,,1*6B
$GPGSV,4,2,13,08,06,174,,09,02,206,,14,02,260,,17,43,292,35,1*6E
$GPGSV,4,3,13,19,21,317,36,22,09,279,40,28,20,081,47,31,14,106,41,1*6C
$GPGSV,4,4,13,32,20,044,44,1*55
$GLGSV,3,1,09,67,28,039,41,68,80,049,16,69,45,214,40,75,04,319,28,1*71
$GLGSV,3,2,09,76,08,013,36,82,16,140,51,83,59,136,45,84,50,322,16,1*7D
$GLGSV,3,3,09,85,00,321,,1*4C
$GAGSV,3,1,10,03,56,152,45,05,44,062,46,08,16,194,35,09,01,033,,7*79
$GAGSV,3,2,10,13,26,300,37,15,80,322,35,21,12,299,37,23,03,346,,7*7E
$GNRMC,220055.00,A,4843.26015,N,00920.55459,E,0.005,,080225,,,A,V*14
$GNGGA,220055.00,4843.26015,N,00920.55459,E,1,12,0.51,247.2,M,47.6,M,,*4B
$GPGSV,4,1,13,01,76,113,47,02,70,132,46,03,72,276,,04,26,191,,1*68
$GPGSV,4,2,13,08,06,174,,09,02,206,,14,02,260,,17,43,292,35,1*6E
$GPGSV,4,3,13,19,21,317,36,22,09,279,40,28,20,081,47,31,14,106,41,1*6C
$GPGSV,4,4,13,32,20,044,44,1*55
$GLGSV,3,1,09,67,28,039,41,68,80,049,13,69,45,214,40,75,04,319,28,1*74
$GLGSV,3,2,09,76,08,013,36,82,16,140,51,83,59,136,45,84,50,322,18,1*73
$GLGSV,3,3,09,85,00,321,,1*4C
$GAGSV,3,1,10,03,56,152,45,05,44,062,46,08,16,194,35,09,01,033,,7*79
$GNRMC,220056.00,A,4843.26018,N,00920.55457,E,0.011,,080225,,,A,V*11
$GNGGA,220056.00,4843.26018,N,00920.55457,E,1,12,0.50,247.3,M,47.6,M,,*4B
$GPGSV,4,1,13,01,76,113,47,02,70,132,46,03,72,276,,04,26,191,,1*68
$GPGSV,4,2,13,08,06,174,,09,02,206,,14,02,260,,17,43,292,35,1*6E
$GPGSV,4,3,13,19,21,317,36,22,09,279,40,28,20,081,47,31,14,106,41,1*6C
$GPGSV,4,4,13,32,20,044,44,1*55
$GLGSV,3,1,09,67,28,039,41,68,80,049,15,69,45,214,40,75,04,319,28,1*72
$GLGSV,3,2,09,76,08,013,36,82,16,140,51,83,59,136,45,84,50,322,16,1*7D
$GLGSV,3,3,09,85,00,321,,1*4C
$GAGSV,3,1,10,03,56,152,45,05,44,062,46,08,16,194,36,09,01,033,,7*7A
$GNRMC,220057.00,A,4843.26022,N,00920.55455,E,0.017,,080225,,,A,V*1D
$GNGGA,220057.00,4843.26022,N,00920.55455,E,1,12,0.50,247.4,M,47.6,M,,*46
$GPGSV,4,1,13,01,76,113,47,02,70,132,46,03,72,276,,04,26,191,,1*68
$GPGSV,4,2,13,08,06,174,,09,02,206,,14,02,260,,17,43,292,34,1*6F
$GPGSV,4,3,13,19,21,317,36,22,09,279,40,28,20,081,47,31,14,106,41,1*6C
$GPGSV,4,4,13,32,20,044,43,1*52
$GLGSV,3,1,09,67,28,039,41,68,80,049,14,69,45,214,39,75,04,319,29,1*7C
$GLGSV,3,2,09,76,08,013,36,82,16,140,51,83,59,136,45,84,50,322,16,1*7D
$GLGSV,3,3,09,85,00,321,,1*4C
$GAGSV,3,1,10,03,56,152,45,05,44,062,46,08,16,194,35,09,01,033,,7*79
$GAGSV,3,2,10,13,26,300,37,15,80,322,35,21,12,299,38,23,03,346,,7*71
$GNRMC,220058.00,A,4843.26026,N,00920.55453,E,0.012,,080225,,,A,V*15
$GNGGA,220058.00,4843.26026,N,00920.55453,E,1,12,0.51,247.5,M,47.6,M,,*4B
$GPGSV,4,1,13,01,76,113,47,02,70,132,46,03,72,276,,04,26,191,,1*68
$GPGSV,4,2,1,08,06,174,,09,02,206,,14,02,260,,17,43,292,34,1*6F
$GPGSV,4,3,13,19,21,317,36,22,09,279,40,28,20,081,47,31,14,106,40,1*6D
$GPGSV,4,4,13,32,20,044,43,1*52
$GLGSV,3,1,09,67,28,039,42,68,80,049,14,69,45,214,38,75,04,319,29,1*7E
$GLGSV,3,2,09,76,08,013,37,82,16,140,51,83,59,136,45,84,50,322,19,1*73
$GLGSV,3,3,09,85,00,321,,1*4C
$GAGSV,3,1,10,03,56,152,45,05,44,062,46,08,16,194,35,09,01,033,,7*79
$GAGSV,3,2,10,13,26,300,37,15,80,322,35,21,12,299,37,23,03,346,,7*7E
$GNRMC,220059.00,A,4843.26028,N,00920.55450,E,0.006,,080225,,,A,V*1C
$GNGGA,220059.00,4843.26028,N,0090.55450,E,1,12,0.50,247.6,M,47.6,M,,*45
$GPGSV,4,1,13,01,76,113,47,02,70,132,46,03,72,276,,04,26,191,,1*68
$GPGSV,4,2,13,08,06,174,,09,02,206,,14,02,260,,17,43,292,34,1*6F
$GPGSV,4,3,13,19,21,317,36,22,09,279,40,28,20,081,48,31,14,106,40,1*62
$GPGSV,4,4,13,32,20,044,43,1*52
$GLGSV,3,1,09,67,28,039,42,68,80,049,14,69,45,214,38,75,04,319,30,1*76
$GLGSV,3,2,09,76,08,013,37,82,16,140,51,83,59,136,45,84,50,322,17,1*7D
$GLGSV,3,3,09,85,00,321,,1*4C
$GAGSV,3,1,10,03,56,152,45,05,44,062,46,08,16,194,35,09,01,033,,7*79
$GAGSV,3,2,10,13,26,300,37,15,80,322,35,21,12,299,38,23,03,346,,7*71
$GNRMC,220100.00,A,4843.26031,N,00920.55448,E,0.004,,080225,,,A,V*12
$GNGGA,220100.00,4843.26031,N,00920.55448,E,1,12,0.50,247.7,M,47.6,M,,*48
$GPGSV,4,1,13,01,76,113,46,02,70,132,46,03,72,276,,04,26,191,,1*69
$GPGSV,4,2,13,08,06,174,,09,02,206,,14,02,260,,17,43,292,33,1*68
$GPGSV,4,3,13,19,21,317,36,22,09,279,40,28,20,081,48,31,14,106,39,1*6C
$GPGSV,4,4,13,32,20,044,43,1*52
$GLGSV,3,1,09,67,27,039,42,68,80,049,13,69,45,214,38,75,04,319,31,1*7F
$GNRMC,220101.00,A,4843.26035,N,00920.55445,E,0.009,,080225,,,A,V*17
$GNGGA,220101.00,4843.26035,N,00920.55445,E,1,12,0.51,247.7,M,47.6,M,,*41
$GPGSV,4,1,13,01,76,113,46,02,70,132,46,03,72,276,,04,26,191,,1*69
$GPGSV,4,2,13,08,06,174,,09,02,206,,14,02,260,,17,43,292,33,1*68
$GPGSV,4,3,13,19,21,317,36,22,09,279,40,28,20,081,48,31,14,106,39,1*6C
$GPGSV,4,4,13,32,20,044,43,1*52
$GLGSV,3,1,09,67,27,039,41,68,79,048,18,69,45,214,37,75,04,319,32,1*7C
$GLGSV,3,2,09,76,08,013,38,82,16,140,52,83,59,136,45,84,50,322,17,1*71
$GLGSV,3,3,09,85,00,321,,1*4C
$GAGSV,3,1,10,03,56,152,45,05,44,062,46,08,16,194,35,09,01,033,,7*79
$GNRMC,220102.00,A,4843.26038,N,00920.55442,E,0.008,,080225,,,A,V*1F
$GNGGA,220102.00,4843.26038,N,00920.55442,E,1,12,0.50,247.8,M,47.6,M,,*46
$GPGSV,4,1,13,01,76,113,46,02,70,132,46,03,72,276,,04,26,191,,1*69
$GPGSV,4,2,13,08,06,174,,09,02,206,,14,02,260,,17,43,292,33,1*68
$GPGSV,4,3,13,19,21,317,36,22,09,279,40,28,20,081,48,31,14,106,39,1*6C
$GPGSV,4,4,13,32,20,044,43,1*52
$GLGSV,3,1,09,67,27,039,41,68,79,048,20,69,45,215,37,75,04,319,34,1*70
$GLGSV,3,2,09,76,08,013,38,82,16,140,52,83,59,136,44,84,50,322,15,1*72
$GLGSV,3,3,09,85,00,321,,1*4C
$GAGSV,3,1,10,03,56,152,45,05,44,062,46,08,16,194,35,09,01,033,,7*79
$GNRMC,220103.00,A,4843.26041,N,00920.55440,E,0.013,,080225,,,A,V*18
$GNGGA,220103.00,4843.26041,N,00920.55440,E,1,12,0.50,247.8,M,47.6,M,,*4B
$GPGSV,4,1,13,01,76,113,46,02,70,132,46,03,72,276,,04,26,191,,1*69
$GPGSV,4,2,13,08,06,174,,09,02,206,,14,02,260,,17,43,292,33,1*68
$GPGSV,4,3,13,19,21,317,36,22,09,279,40,28,20,081,48,31,14,106,39,1*6C
$GPGSV,4,4,13,32,20,044,43,1*52
$GLGSV,3,1,09,67,27,039,41,68,79,048,18,69,45,215,38,75,04,319,35,1*75
$GLGSV,3,2,09,76,08,013,39,82,16,140,52,83,59,136,45,84,50,322,12,1*75
$GLGSV,3,3,09,85,00,321,,1*4C
$GAGSV,3,1,10,03,56,152,45,05,44,062,46,08,16,194,35,09,01,033,,7*79
$GAGSV,3,2,10,13,26,300,37,15,80,322,35,21,12,299,38,23,03,346,,7*71
$GNRMC,220104.00,A,4843.26043,N,00920.55438,E,0.019,,080225,,,A,V*18
$GNGGA,220104.00,4843.26043,N,00920.55438,E,1,12,0.51,247.8,M,47.6,M,,*40
$GPGSV,4,1,13,01,76,113,46,2,70,132,46,03,2,276,,04,26,191,,1*69
$GPGSV,4,2,13,08,06,174,,09,02,206,,14,02,260,,17,43,292,33,1*68
$GPGSV,4,3,13,19,21,317,36,22,09,279,40,28,20,081,48,31,14,106,39,1*6C
$GPGSV,4,4,13,32,20,044,43,1*52
$GLGSV,3,1,09,67,27,039,40,68,79,048,18,69,45,215,39,75,04,319,36,1*76
$GLGSV,3,2,09,76,08,013,39,82,16,140,52,83,59,136,44,84,50,322,15,1*73
$GLGSV,3,3,09,85,00,321,,1*4C
$GAGSV,3,1,10,03,56,152,45,05,44,062,46,08,16,194,36,09,01,033,,7*7A
$GNRMC,220105.00,A,4843.26046,N,00920.55436,E,0.010,,080225,,,A,V*1B
$GNGGA,220105.00,4843.26046,N,00920.55436,E,1,12,0.50,247.8,M,47.6,M,,*4B
$GPGSV,4,1,13,01,76,113,46,02,70,132,46,03,72,276,,04,26,191,,1*69
$GPGSV,4,2,13,08,06,174,,09,02,206,,14,02,260,,17,43,292,33,1*68
$GPGSV,4,3,13,19,21,317,36,22,09,279,40,28,20,081,48,31,14,106,40,1*62
$GPGSV,4,4,13,32,20,044,43,1*52
$GLGSV,3,1,09,67,27,039,40,68,79,048,21,69,45,215,39,75,04,319,36,1*7C
$GLGSV,3,2,09,76,08,013,39,82,16,140,52,83,59,136,45,84,50,322,13,1*74
$GLGSV,3,3,09,85,00,321,,1*4C
$GAGSV,3,1,10,03,56,152,45,05,44,062,46,08,16,194,36,09,01,033,,7*7A
$GAGSV,3,2,10,13,26,300,37,15,80,322,35,21,12,299,38,23,03,346,,7*71
$GNRMC,220106.00,A,4843.26049,N,00920.55434,E,0.014,,080225,,,A,V*11
$GNGGA,220106.00,4843.26049,N,00920.55434,E,1,12,0.51,247.8,M,47.6,M,,*44
$GPGSV,4,1,13,01,76,113,46,02,70,132,46,03,72,276,,04,26,191,,1*69
$GPGSV,4,2,13,08,06,174,,09,02,206,,14,02,260,,17,43,292,33,1*68
$GPGSV,4,3,13,19,21,317,36,22,09,279,40,28,20,081,48,31,14,106,41,1*63
$GPGSV,4,4,13,32,20,044,42,1*53
$GLGSV,3,1,09,67,27,039,40,68,79,048,21,69,45,215,38,75,04,319,37,1*7C
$GLGSV,3,2,09,76,08,013,39,82,16,140,52,83,59,136,45,84,50,322,10,1*77
$GLGSV,3,3,09,85,00,321,,1*4C
$GAGSV,3,1,10,03,56,152,45,05,44,062,46,08,16,194,36,09,01,033,,7*7A
$GAGSV,3,2,10,13,26300,38,15,80,322,35,21,12,299,38,23,03,346,,7*7E
$GNRMC,220107.00,A,4843.26051,N,00920.55433,E,0.009,,080225,,,A,V*12
$GNGGA,220107.00,4843.26051,N,00920.55433,E,1,12,0.51,247.8,M,47.6,M,,*4B
$GPGSV,4,1,13,01,76,113,46,02,70,132,46,03,72,276,,04,26,191,1*69
$GPGSV,4,2,13,08,06,174,,09,02,206,,14,02,260,,17,43,292,34,1*6F
$GPGSV,4,3,13,19,21,317,36,22,09,279,41,28,20,081,48,31,14,106,41,1*62
$GPGSV,4,4,13,32,20,044,42,1*53
$GLGSV,3,1,09,67,27,039,39,68,79,048,13,69,45,215,38,75,04,319,38,1*7C
$GLGSV,3,2,09,76,08,013,38,82,16,140,52,83,59,136,45,84,50,322,10,1*76
$GLGSV,3,3,09,85,00,321,,1*4C
$GAGSV,3,1,10,03,56,152,45,05,44,062,46,08,16,194,36,09,01,033,,*7A
$GNRMC,220108.00,A,4843.26053,N,00920.55430,E,0.004,,080225,,,A,V*11
$GNGGA,220108.00,4843.26053,N,00920.55430,E,1,12,0.51,247.9,M,47.6,M,,*44
$GPGSV,4,1,13,01,76,113,46,02,70,132,46,03,72,276,,04,26,191,,1*69
$GPGSV,4,2,13,08,06,174,,09,02,206,,14,02,260,,17,43,292,34,1*6F
$GPGSV,4,3,13,19,21,317,37,22,09,279,41,28,20,081,48,31,14,106,42,1*60
$GPGSV,4,4,13,32,20,044,42,1*53
$GLGSV,3,1,09,67,27,039,39,68,79,048,12,69,45,215,39,75,03,319,38,1*7B
$GLGSV,3,2,09,76,08,013,38,82,16,140,52,83,59,136,45,84,50,322,13,1*75
$GLGSV,3,3,09,85,00,321,,1*4C
$GAGSV,3,1,10,03,56,152,45,05,44,062,46,08,16,194,37,09,01,033,,7*7B
$GBGSV,3,1,11,02,04,100,33,05,19,121,42,06,24,068,39,09,23,083,38,1*76
$GNRMC,220109.00,A,4843.26055,N,00920.55427,E,0.015,,080225,,,A,V*10
$GNGGA,220109.00,4843.26055,N,00920.55427,E,1,12,0.50,248.0,M,47.6,M,,*42
$GPGSV,4,1,13,01,76,113,46,02,70,132,46,03,72,276,,04,26,191,,1*69
$GPGSV,4,2,13,08,06,174,,09,02,206,,14,02,260,,17,43,292,34,1*6F
$GPGSV,4,3,13,19,21,317,36,22,09,279,41,28,20,081,48,31,14,106,42,1*61
$GPGSV,4,4,13,32,20,044,42,1*53
$GLGSV,3,1,09,67,27,039,40,68,79,048,16,69,45,215,39,75,03,319,38,1*71
$GLGSV,3,2,09,76,08,012,38,82,16,140,52,83,59,136,45,84,50,322,14,1*73
$GLGSV,3,3,09,85,00,321,,1*4C
$GAGSV,3,1,10,03,56,152,45,05,44,062,45,08,16,194,37,09,01,033,,7*78
$GNRMC,220110.00,A,4843.26057,N,00920.55424,E,0.030,,080225,,,A,V*1E
$GNGGA,220110.00,4843.26057,N,00920.55424,E,1,12,0.51,248.0,M,47.6,M,,*4A
$GPGSV,4,1,13,01,76,113,46,02,70,132,46,03,72,276,,04,26,191,,1*69
$GPGSV,4,2,13,08,06,174,,09,02,206,,14,02,260,,17,43,292,34,1*6F
$GPGSV,4,3,13,19,21,317,36,22,09,279,41,28,20,081,48,31,14,106,42,1*61
$GPGSV,4,4,13,32,20,044,42,1*53
$GLGSV,3,1,10,67,27,039,40,68,79,048,14,69,45,215,40,75,03,319,39,1*74
$GLGSV,3,2,10,76,08,012,37,77,00,053,,82,16,140,52,83,59,136,46,1*7E
$GLGSV,3,3,10,84,50,322,11,85,00,321,,1*7E
$GAGSV,3,1,10,03,56,152,45,05,44,062,45,08,16,194,37,09,01,033,,7*78
$GAGSV,3,2,10,13,26,300,38,15,80,322,34,21,12,299,39,23,03,346,,7*7E
$GNRMC,220111.00,A,4843.26059,N,00920.55420,E,0.023,,080225,,,A,V*17
$GNGGA,220111.00,4843.26059,N,00920.55420,E,1,12,0.50,248.2,M,47.6,M,,*42
$GPGSV,4,1,13,01,76,113,46,02,70,132,46,03,72,276,,04,26,191,,1*69
$GPGSV,4,2,13,08,06,174,,09,02,206,,14,02,260,,17,43,292,34,1*6F
$GPGSV,4,3,13,19,21,317,36,22,09,279,41,28,20,081,48,31,14,106,43,1*60
$GPGSV,4,4,13,32,20,044,42,1*53
$GLGSV,3,1,10,67,27,03940,68,79,048,17,69,45,215,40,75,03,319,39,1*77
$GLGSV,3,2,10,76,08,012,37,77,00,053,,82,16,140,52,83,59,136,46,1*7E
$GLGSV,3,3,10,84,50,322,12,85,00,321,,1*7D
$GAGSV,3,1,10,03,56,151,45,05,44,061,45,08,16,194,37,09,01,033,,7*78
$GAGSV,3,2,10,13,26,300,38,15,80,322,34,21,12,299,39,23,03,346,,7*7E
$GNRMC,220112.00,A,4843.26060,N,00920.55418,E,0.015,,080225,,,A,V*10
$GNGGA,220112.00,4843.26060,N,00920.55418,E,1,12,0.50,248.2,M,47.6,M,,*40
$GPGSV,4,1,13,01,76,113,46,02,70,132,46,03,72,276,,04,26,191,,1*69
$GPGSV,4,2,13,08,06,174,,09,02,206,,14,02,260,,17,43,292,34,1*6F
$GPGSV,4,3,13,19,21,317,37,22,09,279,41,28,20,081,48,31,14,106,44,1*66
$GPGSV,4,4,13,32,20,044,42,1*53
$GLGSV,3,1,10,67,27,039,41,68,79,048,14,69,45,215,39,75,03,319,39,1*7B
$GLGSV,3,2,10,76,08,012,37,77,00,053,,82,16,140,52,83,59,136,46,1*7E
$GLGSV,3,3,10,84,50,322,12,85,00,321,,1*7D
$GAGSV,3,1,10,03,56,151,45,05,44,061,45,08,16,194,37,09,01,033,,7*78
$GAGSV,3,2,10,13,26,300,38,15,80,322,34,21,12,299,39,23,03,346,,7*7E
$GNRMC,220113.00,A,4843.26063,N,00920.55416,E,0.018,,080225,,,A,V*11
$GNGGA,220113.00,4843.26063,N,00920.55416,E,1,12,0.51,248.2,M,47.6,M,,*4D
$GPGSV,4,1,13,01,76,113,46,02,70,132,46,03,72,276,,04,26,191,,1*69
$GPGSV,4,2,13,08,06,174,,09,02,206,,14,02,260,,17,43,292,34,1*6F
$GPGSV,4,3,13,19,21,317,37,22,09,279,41,28,20,081,48,31,14,106,44,1*66
$GPGSV,4,4,13,32,20,044,42,1*53
$GLGSV,3,1,10,67,27,039,42,68,79,048,12,69,45,215,39,75,03,319,39,1*7E
$GLGSV,3,2,10,76,08,012,37,77,00,053,,82,16,140,52,83,59,136,45,1*7D
$GLGSV,3,3,10,84,50,322,09,85,00,321,,1*77
$GAGSV,3,1,10,03,56,151,45,05,44,061,45,08,16,194,37,09,01,033,,7*78
$GNRMC,220114.00,A,4843.26065,N,00920.55415,E,0.020,,080225,,,A,V*18
$GNGGA,220114.00,4843.26065,N,00920.55415,E,1,12,0.50,248.2,M,47.6,M,,*4E
$GPGSV,4,1,13,01,76,113,46,02,70,132,45,03,72,276,,04,26,191,,1*6A
$GPGSV,4,2,13,08,06,174,,09,02,206,,14,02,260,,17,43,292,34,1*6F
$GPGSV,4,3,13,19,21,317,37,22,09,279,41,28,20,081,47,31,14,106,45,1*68
$GPGSV,4,4,13,32,20,044,42,1*53
$GLGSV,3,1,10,67,27,039,42,68,79,048,14,69,45,215,39,75,03,319,40,1*76
$GLGSV,3,2,10,76,08,012,37,77,00,053,,82,16,140,52,83,59,136,45,1*7D
$GLGSV,3,3,10,84,50,322,13,85,00,321,,1*7C
$GAGSV,3,1,10,03,56,151,45,05,44,061,45,08,16,194,37,09,01,033,,7*78
$GAGSV,3,2,10,13,26,300,38,15,80,322,34,21,12,299,39,23,03,346,,7*7E
$GNRMC,220115.00,A,4843.26068,N,00920.55415,E,0.011,,080225,,,A,V*16
$GNGGA,220115.00,4843.26068,N,00920.55415,E,1,12,0.50,248.3,M,47.6,M,,*43
$GPGSV,4,1,13,01,76,113,46,02,70,132,45,03,72,276,,04,26,191,,1*6A
$GPGSV,4,2,13,08,06,174,,09,02,206,,14,02,260,,17,43,292,34,1*6F
$GPGSV,4,3,13,19,21,317,37,22,09,279,41,28,20,081,48,31,14,106,45,1*67
$GPGSV,4,4,13,32,20,044,42,1*53
$GLGSV,3,1,10,67,27,039,42,68,79,048,18,69,45,215,40,75,03,319,40,1*74
$GLGSV,3,2,10,76,08,012,36,77,00,053,,82,16,141,52,83,59,136,45,1*7D
$GLGSV,3,3,10,84,50,322,13,85,00,321,,1*7C
$GAGSV,3,1,10,03,56,151,45,05,44,061,45,08,16,194,37,09,01,033,,7*78
$GNRMC,220116.00,A,4843.26070,N,00920.55415,E,0.015,,080225,,,A,V*18
$GNGGA,220116.00,4843.26070,N,00920.55415,E,1,12,0.51,248.3,M,47.6,M,,*48
$GPGSV,4,1,13,01,76,113,46,02,70,132,45,03,72,276,,04,26,191,,1*6A
$GPGSV,4,2,13,08,06,174,,09,02,206,,14,02,260,,17,43,292,34,1*6F
$GPGSV,4,3,13,19,21,317,37,22,09,279,41,28,20,081,48,31,14,106,45,1*67
$GPGSV,4,4,13,32,20,044,42,1*53
$GLGSV,3,1,10,67,27,039,42,68,79,048,18,69,45,215,39,75,03,319,41,1*7B
$GLGSV,3,2,10,76,08,012,35,77,00,053,,82,16,141,52,83,58,136,45,1*7F
$GLGSV,3,3,10,84,50,322,13,85,00,321,,1*7C
$GAGSV,3,1,10,03,56,151,45,05,44,061,45,08,16,194,37,09,01,033,,7*78
$GNRMC,220117.00,A,4843.26073,N,00920.55415,E,0.006,,080225,,,A,V*18
$GNGGA,220117.00,4843.26073,N,00920.55415,E,1,12,0.50,248.3,M,47.6,M,,*4B
$GPGSV,4,1,13,01,76,113,46,02,70,132,45,03,72,276,,04,26,191,,1*6A
$GPGSV,4,2,13,08,06,174,,09,02,206,,14,02,260,,17,43,292,34,1*6F
$GPGSV,4,3,13,19,21,317,37,22,09,279,41,28,20,081,47,31,14,106,46,1*6B
$GPGSV,4,4,13,32,20,044,42,1*53
$GLGSV,3,1,10,67,27,039,42,68,79,048,22,69,45,215,39,75,03,319,41,1*72
$GLGSV,3,2,10,76,08,012,34,77,00,053,,82,16,141,52,83,58,136,45,1*7E
$GLGSV,3,3,10,84,51,322,18,85,00,321,,1*76
$GAGSV,3,1,10,03,56,151,45,05,44,061,45,08,16,194,38,09,01,033,,7*77
$GAGSV,3,2,10,13,26,300,38,15,80,322,34,21,12,299,39,23,04,346,,7*79
$GNRMC,220118.00,A,4843.26075,N,00920.55416,E,0.030,,080225,,,A,V*17
$GNGGA,220118.00,4843.26075,N,00920.55416,E,1,12,0.50,248.4,M,47.6,M,,*46
$GPGSV,4,1,13,0176,113,46,02,70,132,45,03,72,276,,04,26,191,,1*6A
$GPGSV,4,2,13,08,06,174,,09,02,206,,14,02,260,,17,43,292,34,1*6F
$GPGSV,4,3,13,19,21,317,37,22,09,279,41,28,20,081,47,31,14,106,46,1*6B
$GPGSV,4,4,13,32,20,044,42,1*53
$GLGSV,3,1,10,67,27,039,42,68,79,048,21,69,45,215,39,75,03,319,41,1*71
$GLGSV,3,2,10,76,08,012,33,77,00,053,,82,16,141,52,83,58,136,45,1*79
$GLGSV,3,3,10,84,51,322,17,85,01,321,,1*78
$GAGSV,3,1,10,03,56,151,45,05,44,061,45,08,16,194,38,09,01,033,,7*77
$GNRMC,220119.00,A,4843.26078,N,00920.55417,E,0.007,,080225,,,A,V*1E
$GNGGA,220119.00,4843.26078,N,00920.55417,E,1,12,0.50,248.4,M,47.6,M,,*4B
$GPGSV,4,1,13,01,76,113,46,02,70,132,45,03,72,276,,04,26,191,,1*6A
$GPGSV,4,2,13,08,06,174,,09,02,206,,14,02,260,,17,43,292,34,1*6F
$GPGSV,4,3,13,19,21,317,38,22,09,279,41,28,20,081,48,31,14,106,46,1*6B
$GPGSV,4,4,13,32,20,044,42,1*53
$GLGSV,3,1,10,67,27,039,42,68,79,048,24,69,45,215,38,75,03,319,41,1*75
$GLGSV,3,2,10,76,08,012,32,77,00,053,,82,16,141,52,83,58,136,45,1*78
$GLGSV,3,3,10,84,51,322,14,85,01,321,,1*7B
$GAGSV,3,1,10,03,56,151,45,05,44,061,45,08,16,194,38,09,01,033,,7*77
$GNRMC,220120.00,A,4843.26080,N,00920.55417,E,0.002,,080225,,,A,V*16
$GNGGA,220120.00,4843.26080,N,00920.55417,E,1,12,0.50,248.4,M,47.6,M,,*46
$GPGSV,4,1,13,01,76,113,46,02,70,132,45,03,72,276,,04,26,191,,1*6A
$GPGSV,4,2,13,08,06,174,,09,02,206,,14,02,260,,17,43,292,34,1*6F
$GPGSV,4,3,13,19,21,317,38,22,09,279,40,28,20,081,48,31,14,106,45,1*69
$GPGSV,4,4,13,32,20,044,42,1*53
$GLGSV,3,1,10,67,27,039,42,68,79,048,26,69,45,215,38,75,03,319,41,1*77
$GLGSV,3,2,10,76,08,012,33,77,00,053,,82,16,141,52,83,58,136,46,1*7A
$GLGSV,3,3,10,84,51,322,12,85,01,321,,1*7D
$GAGSV,3,1,10,03,56,151,45,05,44,061,45,08,16,194,38,09,01,033,,7*77
$GAGSV,3,2,10,13,26,300,38,15,80,322,34,21,12,299,39,23,04,346,,7*79
$GNRMC,220121.00,A,4843.26082,N,00920.55418,E,0.007,,080225,,,A,V*1F
$GNGGA,220121.00,4843.26082,N,00920.55418,E,1,12,0.50,248.4,M,47.6,M,,*4A
$GPGSV,4,1,13,01,76,113,46,02,70,132,46,03,72,276,,04,26,191,,1*69
$GPGSV,4,2,13,08,06,174,,09,02,206,,14,02,260,,17,43,292,34,1*6F
$GPGSV,4,3,13,19,21,317,38,22,09,279,40,28,20,081,48,31,14,106,45,1*69
$GPGSV,4,4,13,32,20,044,41,1*50
$GLGSV,3,1,10,67,27,039,42,68,79,048,27,69,45,215,37,75,03,319,41,1*79
$GLGSV,3,2,10,76,08,012,35,77,00,053,,82,16,141,52,8,58,136,46,1*7C
$GLGSV,3,3,10,84,51,322,16,85,01,321,,1*79
$GAGSV,3,1,10,03,56,151,45,05,44,061,45,08,16,194,38,09,01,033,,7*77
$GAGSV,3,2,10,13,26,300,38,15,80,322,35,21,12,299,39,23,04,346,,7*78
$GNRMC,220122.00,A,4843.26084,N,00920.55418,E,0.010,,080225,,,A,V*1C
$GNGGA,220122.00,4843.26084,N,00920.55418,E,1,12,0.50,248.4,M,47.6,M,,*4F
$GPGSV,4,1,13,01,76,113,46,02,70,132,46,03,72,276,,04,26,191,,1*69
$GPGSV,4,2,13,08,06,174,,09,02,206,,14,02,260,,17,43,292,34,1*6F
$GPGSV,4,3,13,19,21,317,38,22,09,279,40,28,20,081,48,31,14,106,45,1*69
$GPGSV,4,4,13,32,20,044,41,1*50
$GLGSV,3,1,10,67,27,039,41,68,79,048,28,69,45,215,37,75,03,319,41,1*75
$GLGSV,3,2,10,76,08,012,35,77,00,053,,82,16,141,51,83,58,136,46,1*7F
$GLGSV,3,3,10,84,51,322,15,85,01,321,,1*7A
$GAGSV,3,1,10,03,56,151,45,05,44,061,45,08,16,194,38,09,01,033,,7*77
$GAGSV,3,2,10,13,26,300,38,15,80,322,34,21,12,299,39,23,04,346,,7*79
$GAGSV,3,3,10,27,05,251,13,34,43,114,45,7*73
$GNRMC,220123.00,A,4843.26086,N,00920.55418,E,0.005,,080225,,,A,V*1B
$GNGGA,220123.00,4843.26086,N,00920.55418,E,1,12,0.50,248.4,M,47.6,M,,*4C
$GPGSV,4,1,13,01,76,114,45,02,70,132,46,03,72,276,,04,26,191,,1*6D
$GPGSV,4,2,13,08,06,174,,09,02,206,,14,02,260,,17,43,292,33,1*68
$GPGSV,4,3,13,19,21,317,38,22,09,279,40,28,20,081,48,31,14,106,45,1*69
$GPGSV,4,4,13,32,20,044,41,1*50
$GLGSV,3,1,10,67,27,039,42,68,79,048,28,69,45,215,36,75,03,319,41,1*77
$GLGSV,3,2,10,76,08,012,36,77,00,053,,82,16,141,51,83,58,136,46,1*7C
$GLGSV,3,3,10,84,51,322,18,85,01,321,,1*77
$GAGSV,3,1,10,03,56,151,45,05,44,061,45,08,16,194,38,09,01,033,,7*77
$GAGSV,3,2,10,13,26,300,38,15,80,322,34,21,12,299,39,23,04,346,,7*79
$GNRMC,220124.00,A,4843.26088,N,00920.55419,E,0.019,,080225,,,A,V*1E
$GNGGA,220124.00,4843.26088,N,00920.55419,E,1,12,0.50,248.5,M,47.6,M,,*45
$GPGSV,4,1,13,01,76,114,46,02,70,133,46,03,72,276,,04,26,191,,1*6F
$GPGSV,4,2,13,08,06,174,,09,02,206,,14,02,260,,17,43,292,33,1*68
$GPGSV,4,3,13,19,21,317,38,22,09,279,40,28,20,081,47,31,14,106,46,1*65
$GPGSV,4,4,13,32,20,044,41,1*50
$GLGSV,3,1,10,67,27,039,41,68,79,048,28,69,45,215,36,75,03,319,41,1*74
$GLGSV,3,2,10,76,08,012,35,77,00,053,,82,16,141,51,83,58,136,46,1*7F
$GLGSV,3,3,10,84,51,322,18,85,01,321,,1*77
$GAGSV,3,1,10,03,56,151,45,05,44,061,45,08,16,194,38,09,01,033,,7*77
$GNRMC,220125.00,A,4843.26090,N,00920.55419,E,0.016,,080225,,,A,V*19
$GNGGA,220125.00,4843.26090,N,00920.55419,E,1,12,0.50,248.6,M,47.6,M,,*4E
$GPGSV,4,1,13,01,76,114,46,02,70,133,46,03,73,278,,04,26,191,,1*60
$GPGSV,4,2,13,08,06,174,,09,02,206,,14,02,260,,17,43,292,33,1*68
$GPGSV,4,3,13,19,21,317,38,22,09,279,40,28,20,081,47,31,14,106,46,1*65
$GPGSV,4,4,13,32,20,044,41,1*50
$GLGSV,3,1,10,67,27,039,42,68,79,048,29,69,45,215,34,75,03,319,41,1*74
$GLGSV,3,2,10,76,08,012,35,77,00,053,,82,16,141,51,83,58,136,46,1*7F
$GLGSV,3,3,10,84,51,322,18,85,01,321,,1*77
$GNRMC,220126.00,A,4843.26093,N,00920.55420,E,0.011,,080225,,,A,V*14
$GNGGA,220126.00,4843.26093,N,00920.55420,E,1,12,0.50,248.8,M,47.6,M,,*4A
$GPGSV,4,1,13,01,76,114,46,02,70,133,46,03,73,278,,04,27,191,,1*61
$GPGSV,4,2,13,08,06,174,,09,02,206,,14,02,260,,17,43,292,33,1*68
$GPGSV,4,3,13,19,21,317,38,22,09,279,40,28,20,081,47,31,14,106,46,1*65
$GPGSV,4,4,13,32,20,044,41,1*50
$GLGSV,3,1,10,67,27,039,42,68,79,048,30,69,45,215,35,75,03,319,41,1*7D
$GLGSV,3,2,10,76,08,012,37,77,00,053,,82,16,141,51,83,58,136,46,1*7D
$GLGSV,3,3,10,84,51,322,19,85,01,321,,1*76
$GAGSV,3,1,10,03,56,151,45,05,44,061,45,08,16,194,38,09,01,033,,7*77
$GNRMC,220127.00,A,4843.26096,N,00920.55419,E,0.011,,080225,,,A,V*1A
$GNGGA,220127.00,4843.26096,N,00920.55419,E,1,12,0.50,248.9,M,47.6,M,,*45
$GPGSV,4,1,13,01,76,114,46,02,70,133,46,03,73,278,,04,27,191,,1*61
$GPGSV,4,2,13,08,06,174,,09,02,206,,14,02,260,,17,43,292,33,1*68
$GPGSV,4,3,13,19,21,317,38,22,09,279,39,28,20,081,47,31,14,106,46,1*6B
$GPGSV,4,4,13,32,20,044,41,1*50
$GLGSV,3,1,10,67,27,039,42,68,79,048,31,69,45,215,32,75,03,319,41,1*7B
$GLGSV,3,2,10,76,08,012,38,77,00,053,,82,16,141,51,83,58,136,46,1*72
$GLGSV,3,3,10,84,51,322,15,85,01,321,,1*7A
$GAGSV,3,1,10,03,56,151,45,05,44,061,45,08,16,194,38,09,01,033,,7*77
$GAGSV,3,2,10,13,26,300,38,15,80,322,34,21,12,299,40,23,04,346,,7*77
$GNRMC,220128.00,A,4843.26099,N,00920.55420,E,0.006,,080225,,,A,V*16
$GNGGA,220128.00,4843.26099,N,00920.55420,E,1,12,0.51,249.1,M,47.6,M,,*47
$GPGSV,4,1,13,01,76,114,46,02,70,133,46,03,73,278,,04,27,191,,1*61
$GPGSV,4,2,13,08,06,174,,09,02,206,,14,02,260,,17,43,292,32,1*69
$GPGSV,4,3,13,19,21,317,38,22,09,279,39,28,20,081,47,31,14,106,46,1*6B
$GPGSV,4,4,13,32,20,044,41,1*50
$GLGSV,3,1,10,67,27,039,42,68,79,048,32,69,45,215,31,75,03,319,42,1*78
$GLGSV,3,2,10,76,08,012,38,77,00,053,,82,16,141,51,83,58,136,46,1*72
$GLGSV,3,3,10,84,51,322,15,85,01,321,,1*7A
$GAGSV,3,1,10,03,56,151,45,05,44,061,45,08,16,194,38,09,01,033,,7*77
$GAGSV,3,2,10,13,26,300,38,15,80,322,34,21,12,299,40,23,04,346,,7*77
$GNRMC,220129.00,A,4843.26101,N,00920.55420,E,0.002,,080225,,,A,V*13
$GNGGA,220129.00,4843.26101,N,00920.55420,E,1,12,0.50,249.2,M,47.6,M,,*44
$GPGSV,4,1,13,01,76,114,46,02,70,133,47,03,73,278,,04,27,191,,1*60
$GPGSV,4,2,13,08,06,174,,09,02,206,,14,02,260,,17,43,292,32,1*69
$GPGSV,4,3,13,19,21,317,38,22,09,279,39,28,20,081,47,31,14,106,46,1*6B
$GPGSV,4,4,13,32,20,044,41,1*50
$GLGSV,3,1,10,67,27,039,42,68,79,048,33,69,45,215,30,75,03,319,42,1*78
$GLGSV,3,2,10,76,08,012,38,77,00,053,,82,16,141,51,83,58,136,46,1*72
$GLGSV,3,3,10,84,51,322,20,85,01,321,,1*7C
$GAGSV,3,1,10,03,56,151,45,05,44,061,45,08,16,194,38,09,01,033,,7*77
$GNRMC,220130.00,A,4843.26103,N,00920.55421,E,0.008,,080225,,,A,V*12
$GNGGA,220130.00,4843.26103,N,00920.55421,E,1,12,0.50,249.3,M,47.6,M,,*4E
$GPGSV,4,1,13,01,76,114,46,02,70,133,46,03,73,278,,04,27,191,,1*61
$GPGSV,4,2,13,08,05,174,,09,02,206,,14,02,260,,17,43,292,32,1*6A
$GPGSV,4,3,13,19,21,317,38,22,09,279,39,28,20,081,47,31,14,106,46,1*6B
$GPGSV,4,4,13,32,20,044,41,1*50
$GLGSV,3,1,10,67,27,039,42,68,79,048,33,69,45,215,31,75,03,319,42,1*79
$GLGSV,3,2,10,76,08,012,38,77,00,053,,82,16,141,50,83,58,136,46,1*73
$GLGSV,3,3,10,84,51,322,22,85,01,321,,1*7E
$GAGSV,3,1,10,03,56,151,45,05,44,061,45,08,16,194,38,09,01,033,,7*77
$GNRMC,220131.00,A,4843.26106,N,00920.55422,E,0.009,,080225,,,A,V*14
$GNGGA,220131.00,4843.26106,N,00920.55422,E,1,12,0.50,249.4,M,47.6,M,,*4E
$GPGSV,4,1,13,01,76,114,46,02,70,133,47,03,73,278,,04,27,191,,1*60
$GPGSV,4,2,13,08,05,174,,09,02,206,,14,02,260,,17,43,292,32,1*6A
$GPGSV,4,3,13,19,21,317,38,22,09,279,39,28,20,081,47,31,14,106,46,1*6B
$GPGSV,4,4,13,32,20,044,41,1*50
$GLGSV,3,1,10,67,27,039,42,68,79,048,33,69,45,215,33,75,03,319,42,1*7B
$GLGSV,3,2,10,76,08,012,38,77,00,053,,82,16,141,50,83,58,136,46,1*73
$GLGSV,3,3,10,84,51,322,18,85,01,321,,1*77
$GAGSV,3,1,10,03,56,151,45,05,44,061,45,08,16,194,38,09,01,033,,7*77
$GAGSV,3,2,10,13,26,300,38,15,80,322,34,21,12,299,40,23,04,346,,7*77
$GNRMC,220132.00,A,4843.26108,N,00920.55423,E,0.008,,080225,,,A,V*19
$GNGGA,220132.00,4843.26108,N,00920.55423,E,1,12,0.50,249.5,M,47.6,M,,*43
