$GNRMC,180001.00,A,4843.26100,N,00920.55429,E,0.034,,070225,,,A,V*13
$GNGGA,180001.00,4843.26100,N,00920.55429,E,1,12,0.47,250.2,M,47.6,M,,*40
$GPGSV,4,1,13,01,03,249,,02,09,258,,07,07,292,30,08,53,299,36,1*69
$GPGSV,4,2,13,10,64,129,49,15,09,033,,16,37,191,36,18,14,068,42,1*62
$GPGSV,4,3,13,23,43,057,44,26,11,179,43,27,89,138,41,30,05,324,,1*61
$GPGSV,4,4,13,32,02,140,,1*50
$GLGSV,3,1,10,65,33,122,46,66,02,159,,71,05,010,38,72,33,051,47,1*7F
$GLGSV,3,2,10,78,27,223,38,79,41,286,44,80,14,339,37,81,37,287,36,1*78
$GLGSV,3,3,10,87,16,076,,88,67,024,39,1*7D
$GAGSV,3,1,09,03,15,080,46,05,09,031,20,08,04,127,,13,76,272,35,7*73
$GAGSV,3,2,09,15,45,060,47,21,57,249,31,23,28,313,41,26,23,250,35,7*7C
$GAGSV,3,3,09,27,29,181,41,7*49
$GBGSV,3,1,10,02,03,100,33,05,18,122,44,08,22,036,38,13,29,041,39,1*78
$GBGSV,3,2,10,19,08,027,34,21,33,139,44,22,38,073,43,23,23,300,,1*77
$GBGSV,3,3,10,24,02,198,,25,24,245,43,1*76
$GNRMC,180002.00,A,4843.26100,N,00920.55428,E,0.015,,070225,,,A,V*12
$GNGGA,180002.00,4843.26100,N,00920.55428,E,1,12,0.47,250.2,M,47.6,M,,*42
$GPGSV,4,1,13,01,03,249,,02,09,258,,07,07,292,30,08,53,299,36,1*69
$GPGSV,4,2,13,10,64,129,49,15,09,033,,16,36,191,36,18,13,068,42,1*64
$GPGSV,4,3,13,23,43,057,44,26,11,179,43,27,88,136,41,30,05,324,,1*6E
$GPGSV,4,4,13,32,02,140,,1*50
$GLGSV,3,1,10,65,33,122,46,66,02,159,,71,05,010,37,72,33,051,47,1*70
$GLGSV,3,2,10,78,27,223,39,79,41,286,44,80,14,339,37,81,37,287,35,1*7A
$GLGSV,3,3,10,87,16,076,,88,67,024,39,1*7D
$GAGSV,3,1,09,03,15,080,46,05,09,031,20,08,04,127,,13,76,272,35,7*73
$GAGSV,3,2,09,15,45,060,47,21,57,249,31,23,28,313,42,26,23,250,35,7*7F
$GAGSV,3,3,09,27,29,181,41,7*49
$GBGSV,3,1,10,02,03,100,33,05,18,122,44,08,22,036,38,13,29,041,39,1*78
$GBGSV,3,2,10,19,08,027,34,21,33,139,43,22,38,073,43,23,23,300,,1*70
$GBGSV,3,3,10,24,02,198,,25,24,245,43,1*76
$GNRMC,180003.00,A,4843.26099,N,00920.55428,E,0.017,,070225,,,A,V*10
$GNGGA,180003.00,4843.26099,N,00920.55428,E,1,12,0.47,250.2,M,47.6,M,,*42
$GPGSV,4,1,13,01,03,249,,02,09,258,,07,07,292,31,08,53,299,36,1*68
$GPGSV,4,2,13,10,64,129,49,15,09,033,,16,36,191,37,18,13,068,42,1*65
$GPGSV,4,3,13,23,43,057,44,26,11,179,43,27,88,136,41,30,05,324,,1*6E
$GPGSV,4,4,13,32,02,140,,1*50
$GLGSV,3,1,10,65,33,122,46,66,02,159,,71,05,010,40,72,33,051,47,1*70
$GLGSV,3,2,10,78,27,223,39,79,41,286,44,80,14,339,40,81,37,287,38,1*77
$GLGSV,3,3,10,87,16,076,,88,67,024,39,1*7D
$GAGSV,3,1,09,03,15,080,47,05,09,031,18,08,04,127,,13,76,272,34,7*78
$GAGSV,3,2,09,15,45,060,47,21,57,249,31,23,28,313,40,26,23,250,35,7*7D
$GAGSV,3,3,09,27,29,181,40,7*48
$GBGSV,3,1,10,02,03,100,33,05,18,122,44,08,22,036,38,13,29,041,39,1*78
$GBGSV,3,2,10,19,08,027,34,21,33,139,43,22,38,073,43,23,23,300,,1*70
$GBGSV,3,3,10,24,02,198,,25,24,245,43,1*76
$GNRMC,180004.00,A,4843.26098,N,00920.55428,E,0.011,,070225,,,A,V*10
$GNGGA,180004.00,4843.26098,N,00920.55428,E,1,12,0.47,250.1,M,47.6,M,,*47
$GPGSV,4,1,13,01,03,249,,02,09,258,,07,07,292,31,08,53,299,36,1*68
$GPGSV,4,2,13,10,64,129,48,15,09,033,,16,36,191,37,18,13,068,42,1*64
$GPGSV,4,3,13,23,43,057,44,26,11,179,42,27,88,136,41,30,05,324,,1*6F
$GPGSV,4,4,13,32,02,140,,1*50
$GLGSV,3,1,10,65,33,122,46,66,02,159,,71,05,010,34,72,33,051,47,1*73
$GLGSV,3,2,10,78,27,223,38,79,41,286,43,80,14,339,37,81,37,287,35,1*7C
$GLGSV,3,3,10,87,16,076,,88,67,024,40,1*73
$GAGSV,3,1,09,03,15,080,46,05,09,031,17,08,04,127,,13,76,272,34,7*76
$GAGSV,3,2,09,15,45,060,47,21,57,249,31,23,28,313,42,26,23,250,35,7*7F
$GAGSV,3,3,09,27,29,181,39,7*46
$GBGSV,3,1,10,02,03,100,33,05,18,122,44,08,22,036,38,13,29,041,39,1*78
$GBGSV,3,2,10,19,08,027,34,21,33,139,43,22,38,073,43,23,23,300,,1*70
$GBGSV,3,3,10,24,02,198,,25,24,245,43,1*76
$GNRMC,180005.00,A,4843.26097,N,00920.55429,E,0.006,,070225,,,A,V*19
$GNGGA,180005.00,4843.26097,N,00920.55429,E,1,12,0.47,250.2,M,47.6,M,,*4B
$GPGSV,4,1,13,01,03,249,,02,09,258,,07,07,292,31,08,53,299,36,1*68
$GPGSV,4,2,13,10,64,129,48,15,09,033,,16,36,191,38,18,13,069,42,1*6A
$GPGSV,4,3,13,23,43,057,44,26,11,179,42,27,88,136,41,30,05,324,,1*6F
$GPGSV,4,4,13,32,02,140,,1*50
$GLGSV,3,1,10,65,33,122,47,66,02,159,,71,05,010,40,72,33,051,47,1*71
$GLGSV,3,2,10,78,27,223,37,79,41,286,43,80,14,339,37,81,37,287,35,1*73
$GLGSV,3,3,10,87,16,076,,88,67,024,40,1*73
$GAGSV,3,1,09,03,15,080,47,05,09,031,1,08,04,127,,13,76,272,34,7*74
$GAGSV,3,2,09,15,45,060,47,21,57,249,30,23,28,313,42,26,23,250,35,7*7E
$GAGSV,3,3,09,27,29,181,38,7*47
$GBGSV,3,1,10,02,03,100,33,05,18,122,44,08,22,036,38,13,29,041,39,1*78
$GBGSV,3,2,10,19,08,027,34,21,33,139,43,22,38,073,43,23,23,300,,1*70
$GBGSV,3,3,10,24,02,198,,25,24,245,43,1*76
$GNGGA,180006.00,4843.26096,N,00920.55429,E,1,12,0.47,250.2,M,47.6,M,,*49
$GPGSV,4,1,13,01,03,249,,02,09,258,,07,07,292,31,08,53,299,36,1*68
$GPGSV,4,2,13,10,64,129,48,15,09,033,,16,36,191,38,18,13,069,42,1*6A
$GPGSV,4,3,13,23,43,057,44,26,11,179,42,27,88,136,41,30,05,324,,1*6F
$GPGSV,4,4,13,32,02,140,,1*50
$GLGSV,3,1,10,65,33,122,47,66,02,159,,71,05,010,40,72,33,051,46,1*70
$GLGSV,3,2,10,78,27,223,38,79,41,286,42,80,14,339,36,81,37,287,34,1*7D
$GLGSV,3,3,10,87,16,076,,88,67,024,40,1*73
$GAGSV,3,1,09,03,15,080,46,05,09,031,12,08,04,127,,13,76,272,34,7*73
$GAGSV,3,2,09,15,45,060,47,21,57,249,30,23,28,313,42,26,23,250,35,7*7E
$GAGSV,3,3,09,27,29,181,37,7*48
$GBGSV,3,1,10,02,03,100,34,05,18,122,44,08,22,036,38,13,29,041,39,1*7F
$GBGSV,3,2,10,19,08,027,34,21,33,139,44,22,38,073,43,23,23,300,,1*77
$GBGSV,3,3,10,24,02,198,,25,24,245,43,1*76
$GNRMC,180007.00,A,4843.26095,N,00920.55429,E,0.007,,070225,,,A,V*18
$GNGGA,180007.00,4843.26095,N,00920.55429,E,1,12,0.47,250.1,M,47.6,M,,*48
$GPGSV,4,1,13,01,03,249,,02,09,258,,07,07,292,32,08,53,299,36,1*6B
$GPGSV,4,2,13,10,64,129,48,15,09,033,,16,36,191,39,18,13,069,42,1*6B
$GPGSV,4,3,13,23,43,057,44,26,11,179,42,27,88,136,41,30,05,324,,1*6F
$GPGSV,4,4,13,32,02,140,,1*50
$GLGSV,3,1,10,65,33,122,47,66,02,159,,71,05,010,39,72,33,051,46,1*7E
$GLGSV,3,2,10,78,27,223,37,79,41,286,42,80,14,339,36,81,37,287,34,1*72
$GLGSV,3,3,10,87,16,076,,88,67,024,41,1*72
$GAGSV,3,1,09,03,15,080,47,05,09,031,12,08,04,127,,13,76,272,34,7*72
$GAGSV,3,2,09,15,45,060,47,21,57,249,30,23,28,313,42,26,23,250,35,7*7E
$GAGSV,3,3,09,27,29,181,37,7*48
$GBGSV,3,1,10,02,03,100,33,05,18,122,44,08,22,036,38,13,29,041,39,1*78
$GBGSV,3,2,10,19,08,027,34,21,33,139,44,22,38,073,43,23,23,300,,1*77
$GBGSV,3,3,10,24,02,198,,25,24,245,43,1*76
$GNRMC,180008.00,A,4843.26094,N,00920.55430,E,0.011,,070225,,,A,V*19
$GNGGA,180008.00,4843.26094,N,00920.55430,E,1,12,0.47,250.1,M,47.6,M,,*4E
$GPGSV,4,1,13,01,03,249,,02,09,258,,07,07,292,31,08,53,299,36,1*68
$GPGSV,4,2,13,10,64,129,49,15,09,033,,16,36,191,39,18,13,069,42,1*6A
$GPGSV,4,3,13,23,43,057,44,26,11,179,42,27,88,136,41,30,05,324,,1*6F
$GPGSV,4,4,13,32,02,140,,1*50
$GLGSV,3,1,10,65,33,122,47,66,02,159,,71,05,010,39,72,33,051,46,1*7E
$GLGSV,3,2,10,78,27,22,36,79,41,286,42,80,14,339,35,81,37,287,35,1*71
$GLGSV,3,3,10,87,16,076,,88,67,024,41,1*72
$GAGSV,3,1,09,03,15,080,47,05,09,031,14,08,04,127,,13,76,272,34,7*74
$GAGSV,3,2,09,15,45,060,47,21,57,249,29,23,28,313,42,26,23,250,35,7*76
$GAGSV,3,3,09,27,29,181,37,7*48
$GBGSV,3,1,10,02,03,100,33,05,18,122,44,08,22,036,38,13,29,041,39,1*78
$GBGSV,3,2,10,19,08,027,33,21,33,139,44,22,38,073,43,23,23,300,,1*70
$GBGSV,3,3,10,24,02,198,,25,24,245,43,1*76
$GNRMC,180009.00,A,4843.26093,N,00920.55429,E,0.010,,070225,,,A,V*16
$GNGGA,180009.00,4843.26093,N,00920.55429,E,1,12,0.47,250.1,M,47.6,M,,*40
$GPGSV,4,1,13,01,03,249,,02,09,258,,07,07,292,31,08,53,299,36,1*68
$GPGSV,4,2,13,10,64,129,49,15,09,033,,16,36,191,39,18,13,069,42,1*6A
$GPGSV,4,3,13,23,43,057,44,26,11,179,42,27,88,136,41,30,05,324,,1*6F
$GPGSV,4,4,13,32,02,140,,1*50
$GLGSV,3,1,10,65,33,122,47,66,02,159,,71,05,010,36,72,33,051,45,1*72
$GLGSV,3,2,10,78,27,223,36,79,41,286,41,80,14,339,35,81,37,287,35,1*72
$GLGSV,3,3,10,87,16,076,,88,67,024,41,1*72
$GAGSV,3,1,09,03,15,080,47,05,09,031,15,08,04,127,,13,76,272,34,7*75
$GAGSV,3,2,09,15,45,060,47,21,57,249,29,23,28,313,42,26,23,250,35,7*76
$GAGSV,3,3,09,27,29,181,36,7*49
$GBGSV,3,1,10,02,03,100,33,05,18,122,44,08,22,036,38,13,29,041,39,1*78
$GBGSV,3,2,10,19,08,027,33,21,33,139,44,22,38,073,43,23,23,300,,1*70
$GBGSV,3,3,10,24,02,198,,25,24,245,43,1*76
$GNRMC,180010.00,A,4843.26092,N,00920.55428,E,0.012,,070225,,,A,V*1C
$GNGGA,180010.00,4843.26092,N,00920.55428,E,1,12,0.47,250.1,M,47.6,M,,*48
$GPGSV,4,1,13,01,03,249,,02,09,258,,07,07,292,31,08,53,299,36,1*68
$GPGSV,,2,13,10,64,129,49,15,09,033,,16,36,191,39,18,13,069,42,1*6A
$GPGSV,4,3,13,23,43,057,45,26,11,179,41,27,88,136,41,30,05,324,,1*6D
$GPGSV,4,4,13,32,02,140,,1*50
$GLGSV,3,1,10,65,33,122,48,66,02,159,,71,05,010,30,72,33,050,46,1*79
$GLGSV,3,2,10,78,27,223,36,79,41,286,41,80,14,339,34,81,37,288,36,1*7F
$GLGSV,3,3,10,87,16,076,,88,67,024,41,1*72
$GAGSV,3,1,09,03,15,080,47,05,09,031,17,08,04,127,,13,76,272,34,7*77
$GAGSV,3,2,09,15,45,060,47,21,57,249,29,23,28,313,42,26,23,250,35,7*76
$GAGSV,3,3,09,27,29,181,36,7*49
$GBGSV,3,1,10,02,03,100,33,05,18,122,44,08,22,036,38,13,29,041,39,1*78
$GBGSV,3,2,10,19,08,027,32,21,33,139,44,22,38,073,43,23,23,300,,1*71
$GBGSV,3,3,10,24,02,198,,25,24,245,43,1*76
$GNRMC,180011.00,A,4843.26090,N,00920.55427,E,0.018,,070225,,,A,V*1A
$GNGGA,180011.00,4843.26090,N,00920.55427,E,1,12,0.47,250.0,M,47.6,M,,*45
$GPGSV,4,1,13,01,03,249,,02,09,258,,07,07,292,31,08,53,299,36,1*68
$GPGSV,4,2,13,10,64,129,49,15,09,033,,16,36,191,40,18,13,069,42,1*64
$GPGSV,4,3,13,23,43,057,44,26,11,179,41,27,88,136,40,30,05,324,,1*6D
$GPGSV,4,4,13,32,02,140,,1*50
$GLGSV,3,1,10,65,33,122,48,66,02,159,,71,05,010,28,72,33,050,46,1*70
$GLGSV,3,2,10,78,27,223,35,9,41,286,41,80,14,339,33,81,37,288,37,1*7A
$GLGSV,3,3,10,87,16,076,,88,67,024,41,1*72
$GAGSV,3,1,09,03,15,080,47,05,09,031,18,08,04,127,,13,76,272,34,7*78
$GAGSV,3,2,09,15,45,060,47,21,57,249,30,23,28,313,42,26,23,250,35,7*7E
$GAGSV,3,3,09,27,29,181,36,7*49
$GBGSV,3,1,10,02,03,100,33,05,18,122,44,08,22,036,38,13,29,041,39,1*78
$GBGSV,3,2,10,19,08,027,33,21,33,139,44,22,38,073,44,23,23,300,,1*77
$GBGSV,3,3,10,24,02,198,,25,24,245,43,1*76
$GNRMC,180012.00,A,4843.26089,N,00920.55426,E,0.015,,070225,,,A,V*1D
$GNGGA,180012.00,4843.26089,N,00920.55426,E,1,12,0.47,249.9,M,47.6,M,,*4E
$GPGSV,4,1,13,01,03,249,,02,09,258,,07,07,292,31,08,53,299,36,1*68
$GPGSV,4,2,13,10,64,129,49,15,09,033,,16,36,191,40,1,13,069,43,1*65
$GPGSV,4,3,13,23,43,057,44,26,11,179,41,27,88,136,40,30,05,324,,1*6D
$GPGSV,4,4,13,32,02,140,,1*50
$GLGSV,3,1,10,65,33,122,48,66,02,159,,71,05,010,26,72,33,050,46,1*7E
$GLGSV,3,2,10,78,27,223,36,79,41,286,41,80,14,339,34,81,37,288,38,1*71
$GLGSV,3,3,10,87,16,076,,88,67,024,41,1*72
$GAGSV,3,1,09,03,15,080,47,05,09,031,20,08,04,127,,13,76,272,34,7*73
$GAGSV,3,2,09,15,45,060,47,21,57,249,30,23,28,313,42,26,23,250,35,7*7E
$GAGSV,3,3,09,27,29,181,36,7*49
$GBGSV,3,1,10,02,03,100,33,05,18,122,44,08,22,036,38,13,29,041,39,1*78
$GBGSV,3,2,10,19,08,027,33,21,33,139,44,22,38,073,44,23,23,300,,1*77
$GBGSV,3,3,10,24,02,198,,25,24,245,43,1*76
$GNRMC,180013.00,A,4843.26088,N,00920.55424,E,0.027,,070225,,,A,V*1E
$GNGGA,180013.00,4843.26088,N,00920.55424,E,1,12,0.47,249.8,M,47.6,M,,*4D
$GPGSV,4,1,13,01,03,249,,02,09,258,,07,07,292,31,08,53,299,36,1*68
$GPGSV,4,2,13,10,64,129,49,15,09,033,,16,36,191,40,18,13,069,43,1*65
$GPGSV,4,4,13,32,02,140,,1*50
$GLGSV,3,1,10,65,33,122,48,66,02,159,,71,05,010,40,72,33,050,46,1*7E
$GLGSV,3,2,10,78,27,223,34,79,41,286,41,80,14,339,33,81,37,288,38,1*74
$GLGSV,3,3,10,87,16,076,,88,67,024,41,1*72
$GAGSV,3,1,09,03,15,080,47,05,09,031,19,08,04,127,,13,76,272,34,7*79
$GAGSV,3,2,09,15,45,060,47,21,57,249,30,23,28,313,42,26,23,250,35,7*7E
$GAGSV,3,3,09,27,29,181,36,7*49
$GBGSV,3,1,10,02,03,100,33,05,18,122,44,08,22,036,38,13,29,041,38,1*79
$GBGSV,3,2,10,19,08,027,33,21,33,139,44,22,38,073,44,23,23,300,,1*77
$GBGSV,3,3,10,24,02,198,,25,24,245,43,1*76
$GNRMC,180014.00,A,4843.26086,N,00920.55421,E,0.021,,070225,,,A,V*14
$GNGGA,180014.00,4843.26086,N,00920.55421,E,1,12,0.47,249.7,M,47.6,M,,*4E
$GPGSV,4,1,13,01,03,249,,02,09,258,,07,07,292,31,08,53,299,36,1*68
$GPGSV,4,2,13,10,64,129,50,15,09,033,,16,36,191,41,18,13,069,43,1*6C
$GPGSV,4,3,13,23,43,057,44,26,11,179,40,27,88,136,39,30,05,324,,1*62
$GPGSV,4,4,13,32,02,140,,1*50
$GLGSV,3,1,10,65,33,122,48,66,02,159,,71,05,010,40,72,33,050,46,1*7E
$GLGSV,3,2,10,78,27,223,34,79,41,286,41,80,14,339,32,81,37,288,38,1*75
$GLGSV,3,3,10,87,16,076,,88,67,024,41,1*72
$GAGSV,3,1,09,03,15,080,47,05,09,031,16,08,04,127,,13,76,272,34,7*76
$GAGSV,3,2,09,15,45,060,47,21,57,249,30,23,28,313,42,26,23,250,35,7*7E
$GAGSV,3,3,09,27,29,181,37,7*48
$GBGSV,3,1,10,02,03,100,33,05,18,122,44,08,22,036,38,13,29,041,39,1*78
$GBGSV,3,2,10,19,08,027,33,21,33,139,45,22,38,073,44,23,23,300,,1*76
$GBGSV,3,3,10,24,02,198,,25,24,245,43,1*76
$GNRMC,180015.00,A,4843.26084,N,00920.55419,E,0.018,,070225,,,A,V*16
$GNGGA,180015.00,4843.26084,N,00920.55419,E,1,12,0.47,249.6,M,47.6,M,,*47
$GPGSV,4,1,13,01,03,249,,02,09,258,,07,07,292,30,08,53,299,36,1*69
$GPGSV,4,2,13,10,64,129,49,15,09,033,,16,36,191,41,18,13,069,44,1*63
$GPGSV,4,3,13,23,43,057,44,26,11,179,41,27,88,136,39,30,05,324,,1*63
$GPGSV,4,4,13,32,02,140,,1*50
$GLGSV,3,1,10,65,33,122,47,66,02,159,,71,05,010,40,72,33,050,46,1*71
$GLGSV,3,2,10,78,27,223,35,79,41,286,41,80,14,339,31,81,37,288,38,1*77
$GLGSV,3,3,10,87,16,076,,88,67,024,41,1*72
$GAGSV,3,1,09,03,15,080,47,05,09,031,13,08,04,127,,13,76,272,34,7*73
$GAGSV,3,2,09,15,45,060,46,21,57,249,29,23,28,313,41,26,23,250,35,7*74
$GAGSV,3,3,09,27,29,181,37,7*48
$GBGSV,3,1,10,02,03,100,34,05,18,122,44,08,22,036,38,13,29,041,39,1*7F
$GBGSV,3,2,10,19,08,027,34,21,33,139,46,22,38,073,44,23,23,300,,1*72
$GBGSV,3,3,10,24,02,198,,25,24,245,43,1*76
$GNRMC,180016.00,A,4843.26082,N,00920.55416,E,0.013,,070225,,,A,V*17
$GNGGA,180016.00,4843.26082,N,00920.55416,E,1,12,0.47,249.4,M,47.6,M,,*4F
$GPGSV,4,1,13,01,03,249,,02,09,258,,07,07,292,29,08,53,299,37,1*60
$GPGSV,4,2,13,10,64,129,50,15,09,033,,16,36,191,42,18,13,069,44,1*68
$GPGSV,4,3,13,23,43,057,43,26,10,179,41,27,88,136,39,30,05,324,,1*65
$GPGSV,4,4,13,32,02,140,,1*50
$GLGSV,3,1,10,65,33,122,46,66,02,159,,71,05,010,40,72,33,050,46,1*70
$GLGSV,3,2,10,78,27,223,34,79,41,286,40,80,14,339,32,81,37,288,38,1*74
$GLGSV,3,3,10,87,16,076,,88,67,024,41,1*72
$GAGSV,3,1,09,03,15,080,46,05,09,031,16,08,04,127,,13,76,272,34,7*77
$GAGSV,3,2,09,15,45,060,46,21,57,249,28,23,28,313,41,26,23,250,35,7*75
$GAGSV,3,3,09,27,29,181,38,7*47
$GBGSV,3,1,10,02,03,100,34,05,18,122,45,08,22,036,38,13,29,041,38,1*7F
$GBGSV,3,2,10,19,07,027,34,21,33,139,45,22,38,072,44,23,23,300,,1*7F
$GBGSV,3,3,10,24,02,198,,25,24,244,43,1*77
$GNRMC,180017.00,A,4843.26080,N,00920.55413,E,0.021,,070225,,,A,V*10
$GNGGA,180017.00,4843.26080,N,00920.55413,E,1,12,0.47,249.3,M,47.6,M,,*4E
$GPGSV,4,1,13,01,03,249,,02,09,258,,07,07,292,33,08,53,299,36,1*6A
$GPGSV,4,2,13,10,64,129,50,15,09,033,,16,36,191,42,18,13,069,43,1*6F
$GPGSV,4,3,13,23,43,057,43,26,10,179,41,27,88,136,40,30,05,324,,1*6B
$GPGSV,4,4,13,32,02,140,,1*50
$GLGSV,3,1,10,65,33,122,48,66,02,159,,71,05,010,40,72,33,050,46,1*7E
$GLGSV,3,2,10,78,27,223,33,79,41,286,40,80,14,339,34,81,37,288,38,1*75
$GLGSV,3,3,10,87,16,076,,88,67,024,41,1*72
$GAGSV,3,1,09,03,15,080,47,05,09,031,18,08,04,127,,13,76,272,34,7*78
$GAGSV,3,2,09,15,45,060,46,21,57,249,29,23,28,313,42,26,23,250,35,7*77
$GAGSV,3,3,09,27,29,181,39,7*46
$GBGSV,3,1,10,02,03,100,34,05,18,122,44,08,22,036,38,13,29,041,38,1*7E
$GBGSV,3,2,10,19,07,027,34,21,33,139,45,22,38,072,44,23,23,300,,1*7F
$GBGSV,3,3,10,24,02,198,,25,24,244,42,1*76
$GNRMC,180018.00,A,4843.26079,N,00920.55411,E,0.016,,070225,,,A,V*1F
$GNGGA,180018.00,4843.26079,N,00920.55411,E,1,12,0.47,249.2,M,47.6,M,,*44
$GPGSV,4,1,13,01,03,249,,02,09,258,,07,07,292,32,08,53,299,35,1*68
$GPGSV,4,2,13,10,64,129,50,15,09,033,,16,36,191,42,18,13,069,44,1*68
$GPGSV,4,3,13,23,43,057,43,26,10,179,42,27,88,136,40,30,05,324,,1*68
$GPGSV,4,4,13,32,02,140,,1*50
$GLGSV,3,1,10,65,33,122,48,66,02,159,,71,05,010,40,72,33,050,46,1*7E
$GLGSV,3,2,10,78,27,223,32,79,41,286,40,80,14,339,33,81,37,288,38,1*73
$GLGSV,3,3,10,87,16,076,,88,67,024,41,1*72
$GAGSV,3,1,09,03,15,080,47,05,09,031,18,08,04,127,,13,76,272,33,7*7F
$GAGSV,3,2,09,15,45,060,46,21,57,249,30,23,28,313,42,26,23,250,34,7*7E
$GAGSV,3,3,09,27,29,181,39,7*46
$GBGSV,3,1,10,02,03,100,34,05,18,122,44,08,22,036,38,13,29,041,38,1*7E
$GBGSV,3,2,10,19,07,027,34,21,33,139,45,22,38,072,44,23,23,300,,1*7F
$GNRMC,180019.00,A,4843.26077,N,00920.55408,E,0.014,,070225,,,A,V*1A
$GNGGA,180019.00,4843.26077,N,00920.55408,E,1,12,0.47,249.2,M,47.6,M,,*43
$GPGSV,4,1,13,01,03,249,,02,09,258,,07,07,292,31,08,53,299,34,1*6A
$GPGSV,4,2,13,10,64,129,50,15,09,033,,16,36,191,42,18,13,069,44,1*68
$GPGSV,4,3,13,23,43,057,42,26,10,179,42,27,88,136,40,30,05,324,,1*69
$GPGSV,4,4,13,32,02,140,,1*50
$GLGSV,3,1,10,65,33,122,49,6,02,159,,71,05,010,41,72,33,050,46,1*7E
$GLGSV,3,2,10,78,27,223,34,79,41,286,40,80,14,339,32,81,37,288,38,1*74
$GLGSV,3,3,10,87,16,076,,88,67,024,41,1*72
$GAGSV,3,1,09,03,15,080,46,05,09,031,17,08,04,127,,13,76,272,33,7*71
$GAGSV,3,2,09,15,45,060,46,21,57,249,30,23,28,313,42,26,23,250,34,7*7E
$GAGSV,3,3,09,27,29,181,40,7*48
$GBGSV,3,1,10,02,03,100,33,05,18,122,44,08,22,036,38,13,29,041,38,1*79
$GBGSV,3,2,10,19,07,027,34,21,33,139,45,22,38,072,44,23,23,300,,1*7F
$GBGSV,3,3,10,24,02,198,,25,24,244,42,1*76
$GNRMC,180020.00,A,4843.26076,N,00920.55406,E,0.019,,070225,,,A,V*12
$GNGGA,180020.00,4843.26076,N,00920.55406,E,1,12,0.47,249.1,M,47.6,M,,*45
$GPGSV,4,1,13,01,03,249,,02,09,258,,07,07,292,31,08,53,299,34,1*6A
$GPGSV,4,2,13,10,64,129,50,15,09,033,,16,36,191,42,18,13,069,44,1*68
$GPGSV,4,3,13,23,43,057,42,26,10,179,40,27,88,136,40,30,05,323,,1*6C
$GPGSV,4,4,13,32,02,140,,1*50
$GLGSV,3,1,10,65,33,122,49,66,02,159,,71,05,010,41,72,33,050,46,1*7E
$GLGSV,3,2,10,78,27,223,35,79,41,286,40,80,14,339,31,81,37,288,38,1*76
$GLGSV,3,3,10,87,16,076,,88,67,024,41,1*72
$GAGSV,3,1,09,03,15,080,46,05,09,031,13,08,04,127,,13,76,272,34,7*72
$GAGSV,3,2,09,15,45,060,46,21,57,249,29,23,28,313,42,26,23,250,34,7*76
$GAGSV,3,3,09,27,29,181,40,7*48
$GBGSV,3,1,10,02,03,100,33,05,18,122,44,08,22,036,38,13,29,041,39,1*78
$GBGSV,3,2,10,19,07,027,34,21,33,139,45,22,38,072,44,23,23,300,,1*7F
$GBGSV,3,3,10,24,02,198,,25,24,244,42,1*76
$GNRMC,180021.00,A,4843.26074,N,00920.55403,E,0.013,,070225,,,A,V*1E
$GNGGA,180021.00,4843.26074,N,00920.55403,E,1,12,0.47,249.0,M,47.6,M,,*42
$GPGSV,4,1,13,01,03,249,,02,09,258,,07,07,292,31,08,53,299,34,1*6A
$GPGSV,4,2,13,10,64,129,50,15,09,033,,16,36,191,42,18,13,069,44,1*68
$GPGSV,4,3,13,23,43,057,41,26,10,179,40,27,88,136,41,30,05,323,,1*6E
$GPGSV,4,4,13,32,02,140,,1*50
$GLGSV,3,1,10,65,33,122,49,66,02,159,,71,05,010,41,72,33,050,46,1*7E
$GLGSV,3,2,10,78,27,223,35,79,41,286,40,80,14,339,31,81,37,288,39,1*77
$GLGSV,3,3,10,87,16,076,,88,67,024,41,1*72
$GAGSV,3,1,09,03,15,080,46,05,09,031,15,08,04,127,,13,76,272,33,7*73
$GAGSV,3,2,09,15,45,060,46,21,57,249,30,23,28,313,42,26,23,250,35,7*7F
$GAGSV,3,3,09,27,29,181,41,7*49
$GBGSV,3,1,10,02,03,100,34,05,18,122,44,08,22,036,38,13,29,041,39,1*7F
$GBGSV,3,2,10,19,07,027,35,21,33,139,45,22,38,072,44,23,23,300,,1*7E
$GBGSV,3,3,10,24,02,198,,25,24,244,43,1*77
$GNRMC,180022.00,A,4843.26073,N,00920.55400,E,0.010,,070225,,,A,V*1A
$GNGGA,180022.00,4843.26073,N,00920.55400,E,1,12,0.46,249.0,M,47.6,M,,*44
$GPGSV,4,1,13,01,03,249,,02,09,258,,07,07,292,31,08,53,299,33,1*6D
$GPGSV,4,2,13,10,64,129,50,15,09,033,,16,36,191,42,18,13,069,44,1*68
$GPGSV,4,3,13,23,43,057,41,26,10,179,40,27,88,136,41,30,05,323,,1*6E
$GPGSV,4,4,13,32,02,140,,1*50
$GLGSV,3,1,10,65,33,122,49,66,02,159,,71,05,010,42,72,33,050,46,1*7D
$GLGSV,3,2,10,78,27,223,36,79,41,286,39,80,14,339,31,81,37,288,39,1*7A
$GLGSV,3,3,10,87,16,076,,88,67,024,41,1*72
$GAGSV,3,1,09,03,15,080,46,05,09,031,18,08,04,127,,13,76,272,33,7*7E
$GAGSV,3,2,09,15,45,060,46,21,57,249,30,23,28,313,42,26,23,250,35,7*7F
$GAGSV,3,3,09,27,29,181,41,7*49
$GBGSV,3,1,10,02,03,100,33,05,18,122,44,08,22,036,38,13,29,041,38,1*79
$GBGSV,3,2,10,19,07,027,35,21,33,139,45,22,38,072,44,23,23,300,,1*7E
$GBGSV,3,3,10,24,02,198,,25,24,244,42,1*76
$GNRMC,180023.00,A,4843.26072,N,00920.55398,E,0.011,,070225,,,A,V*1D
$GNGGA,180023.00,4843.26072,N,00920.55398,E,1,12,0.47,248.9,M,47.6,M,,*4B
$GPGSV,4,1,13,01,03,249,,02,09,258,,07,07,292,31,08,53,299,33,1*6D
$GPGSV,4,2,13,10,64,129,50,15,09,033,,16,36,191,42,18,13,069,44,1*68
$GPGSV,4,3,13,23,43,057,41,26,10,179,40,27,88,136,41,30,05,323,,1*6E
$GPGSV,4,4,13,32,02,140,,1*50
$GLGSV,3,1,10,65,33,122,49,66,02,159,,71,05,010,41,72,33,050,46,1*7E
$GLGSV,3,2,10,78,27,223,36,79,41,286,40,80,14,339,31,81,37,288,39,1*74
$GLGSV,3,3,10,87,16,076,,88,67,024,42,1*71
$GAGSV,3,1,09,03,15,080,46,05,09,031,20,08,04,127,,13,76,272,33,7*75
$GAGSV,3,2,09,15,45,060,46,21,57,249,30,23,28,313,42,26,23,250,34,7*7E
$GAGSV,3,3,09,27,29,181,42,7*4A
$GBGSV,3,1,10,02,03,100,33,05,18,122,44,08,22,036,38,13,29,041,39,1*78
$GBGSV,3,2,10,19,07,027,35,21,33,139,45,22,38,072,44,23,23,300,,1*7E
$GBGSV,3,3,10,24,02,198,,25,24,244,43,1*77
$GNRMC,180024.00,A,4843.26071,N,00920.55396,E,0.004,,070225,,,A,V*13
$GNGGA,180024.00,4843.26071,N,00920.55396,E,1,12,0.47,248.8,M,47.6,M,,*40
$GPGSV,4,1,13,01,03,249,,02,09,258,,07,07,292,32,08,53,299,33,1*6E
$GPGSV,4,2,13,10,64,129,50,15,09,033,,16,36,191,42,18,13,069,44,1*68
$GPGSV,4,3,13,23,43,057,41,26,10,179,39,27,88,136,41,30,05,323,,1*60
$GPGSV,4,4,13,32,02,140,,1*50
$GLGSV,3,1,10,65,33,122,49,66,02,159,,71,05,010,42,72,33,050,46,1*7D
$GLGSV,3,2,10,78,27,223,35,79,41,286,40,80,14,339,31,81,37,288,40,1*79
$GLGSV,3,3,10,87,16,076,,88,67,024,43,1*70
$GAGSV,3,1,09,03,15,080,46,05,09,031,14,08,04,127,,13,76,272,33,7*72
$GAGSV,3,2,09,15,45,060,46,21,57,249,30,23,28,313,42,26,23,250,35,7*7F
$GAGSV,3,3,09,27,29,181,42,7*4A
$GBGSV,3,1,10,02,03,100,33,05,18,122,44,08,22,036,38,13,29,041,38,1*79
$GBGSV,3,2,10,19,07,027,35,21,33,139,44,22,38,072,44,23,23,300,,1*7F
$GBGSV,3,3,10,24,02,198,,25,24,244,43,1*77
$GNRMC,180025.00,A,4843.26070,N,00920.55394,E,0.005,,070225,,,A,V*10
$GNGGA,180025.00,4843.26070,N,00920.55394,E,1,12,0.47,248.8,M,47.6,M,,*42
$GPGSV,4,1,13,01,03,249,,02,09,258,,07,07,292,32,08,53,299,33,1*6E
$GPGSV,4,2,13,10,64,129,50,15,09,033,,16,36,191,42,18,13,069,44,1*68
$GPGSV,4,3,13,23,43,057,41,26,10,179,39,27,88,136,41,30,05,323,,1*60
$GPGSV,4,4,13,32,02,140,,1*50
$GLGSV,3,1,10,65,33,122,49,66,02,159,,71,05,010,41,72,33,050,46,1*7E
$GLGSV,3,2,10,78,27,223,36,79,41,286,40,80,14,339,32,81,37,288,40,1*79
$GLGSV,3,3,10,87,16,076,,88,67,024,43,1*70
$GAGSV,3,1,09,03,15,080,46,05,09,031,15,08,04,127,,13,76,272,33,7*73
$GAGSV,3,2,09,15,45,060,46,21,56,248,30,23,28,313,42,26,23,250,35,7*7F
$GAGSV,3,3,09,27,29,181,43,7*4B
$GBGSV,3,1,10,02,03,100,34,05,18,122,44,08,22,036,38,13,29,041,39,1*7F
$GBGSV,3,2,10,19,07,027,35,21,33,139,44,22,38,072,44,23,23,300,,1*7F
$GBGSV,3,3,10,24,02,198,,25,24,244,43,1*77
$GNRMC,180026.00,A,4843.26069,N,00920.55393,E,0.018,,070225,,,A,V*10
$GNGGA,180026.00,4843.26069,N,00920.55393,E,1,12,0.47,248.7,M,47.6,M,,*41
$GPGSV,4,1,13,01,03,249,,02,09,258,,07,07,292,31,08,53,299,33,1*6D
$GPGSV,4,2,13,10,64,129,50,15,09,033,,16,36,191,42,18,13,069,45,1*69
$GPGSV,4,3,13,23,43,057,41,26,10,179,39,27,88,136,41,30,05,323,,1*60
$GPGSV,4,4,13,32,02,140,,1*50
$GLGSV,3,1,10,65,33,122,49,66,02,159,,71,05,010,41,72,33,050,46,1*7E
$GLGSV,3,2,10,78,27,223,36,79,41,286,40,80,14,339,32,81,37,288,40,1*79
$GLGSV,3,3,10,87,16,076,,88,67,024,42,1*71
$GAGSV,3,1,09,03,16,080,47,05,09,031,16,08,04,127,,13,76,272,33,7*72
$GAGSV,3,2,09,15,45,060,46,21,56,248,30,23,28,313,42,26,23,250,35,7*7F
$GAGSV,3,3,09,27,29,181,43,7*4B
$GBGSV,3,1,10,02,03,100,34,05,18,122,44,08,22,036,38,13,29,041,38,1*7E
$GBGSV,3,2,10,19,07,027,36,21,33,139,44,22,38,072,44,23,23,300,,1*7C
$GBGSV,3,3,10,24,02,198,,25,24,244,43,1*77
$GNRMC,180027.00,A,4843.26068,N,00920.55391,E,0.014,,070225,,,A,V*1E
$GNGGA,180027.00,4843.26068,N,00920.55391,E,1,12,0.47,248.7,M,47.6,M,,*43
$GPGSV,4,1,13,01,03,249,,02,09,258,,07,07,292,31,08,53,299,33,1*6D
$GPGSV,4,2,13,10,64,129,50,15,09,033,,16,36,191,42,18,13,069,45,1*69
$GPGSV,4,3,13,23,43,057,41,26,10,179,39,27,88,136,41,30,05,323,,1*60
$GPGSV,4,4,13,32,02,140,,1*50
$GLGSV,3,1,10,65,33,122,49,66,02,159,,71,05,010,41,72,33,050,46,1*7E
$GLGSV,3,2,10,78,27,223,36,79,41,286,40,80,14,339,33,81,37,288,40,1*78
$GLGSV,3,3,10,87,16,076,,88,67,024,42,1*71
$GAGSV,3,1,09,03,16,080,47,05,09,031,19,08,04,127,,13,76,272,33,7*7D
$GAGSV,3,2,09,15,45,060,46,21,56,248,30,23,28,313,42,26,23,250,35,7*7F
$GAGSV,3,3,09,27,29,81,43,7*4B
$GBGSV,3,1,10,02,03,100,34,05,18,122,44,08,22,036,38,13,29,041,39,1*7F
$GBGSV,3,2,10,19,07,027,36,21,33,139,44,22,38,072,44,23,23,300,,1*7C
$GBGSV,3,3,10,24,02,198,,25,24,244,43,1*77
$GNRMC,180028.00,A,4843.26067,N,00920.55389,E,0.007,,070225,,,A,V*15
$GNGGA,180028.00,4843.26067,N,00920.55389,E,1,12,0.47,248.7,M,47.6,M,,*4A
$GPGSV,4,1,13,01,03,249,,02,09,258,,07,07,292,31,08,53,299,34,1*6A
$GPGSV,4,2,13,10,64,129,49,15,09,033,,16,36,191,42,18,13,069,45,1*61
$GPGSV,4,3,13,23,43,057,41,26,10,179,39,27,88,136,40,30,05,323,,1*61
$GPGSV,4,4,13,32,02,140,,1*50
$GLGSV,3,1,10,65,33,122,49,66,02,159,,71,05,010,41,72,33,050,46,1*7E
$GLGSV,3,2,10,78,27,223,3679,41,286,40,80,14,339,34,81,37,288,40,1*7F
$GLGSV,3,3,10,87,16,076,,88,67,024,42,1*71
$GAGSV,3,1,09,03,16,080,47,05,09,031,20,08,04,127,,13,76,272,32,7*76
$GAGSV,3,2,09,15,45,060,46,21,56,248,31,23,28,313,42,26,23,250,34,7*7F
$GAGSV,3,3,09,27,29,181,44,7*4C
$GBGSV,3,1,10,02,03,100,34,05,18,122,44,08,22,036,38,13,29,041,39,1*7F
$GBGSV,3,2,10,19,07,027,36,21,33,139,44,22,38,072,44,23,23,300,,1*7C
$GBGSV,3,3,10,24,02,198,,25,24,244,43,1*77
$GNRMC,180029.00,A,4843.26067,N,00920.55388,E,0.003,,070225,,,A,V*11
$GNGGA,180029.00,4843.26067,N,00920.55388,E,1,12,0.47,248.6,M,47.6,M,,*4B
$GPGSV,4,1,13,01,03,249,,02,09,258,,07,07,292,32,08,53,299,34,1*69
$GPGSV,4,2,13,10,64,129,49,15,09,033,,16,36,191,42,18,13,069,45,1*61
$GPGSV,4,3,13,23,43,057,41,26,10,179,40,27,88,136,39,30,05,323,,1*61
$GPGSV,4,4,13,32,02,140,,1*50
$GLGSV,3,1,10,65,33,122,49,66,02,159,,71,05,010,41,72,33,05046,1*7E
$GLGSV,3,2,10,78,27,223,36,79,41,286,40,80,14,339,35,81,37,288,39,1*70
$GLGSV,3,3,10,87,16,076,,88,67,024,42,1*71
$GAGSV,3,1,09,03,16,080,47,05,09,031,21,08,04,127,,13,76,272,32,7*77
$GAGSV,3,2,09,15,45,060,46,21,56,248,31,23,28,313,42,26,23,250,34,7*7F
$GAGSV,3,3,09,27,29,181,44,7*4C
$GBGSV,3,1,10,02,03,100,34,05,18,122,44,08,22,036,38,13,29,041,39,1*7F
$GBGSV,3,2,10,19,07,027,36,21,33,139,44,22,38,072,44,23,23,300,,1*7C
$GBGSV,3,3,10,24,02,198,,25,24,244,43,1*77
$GNRMC,180030.00,A,4843.26067,N,00920.55386,E,0.004,,070225,,,A,V*10
$GNGGA,180030.00,4843.26067,N,00920.55386,E,1,12,0.47,248.5,M,47.6,M,,*4E
$GPGSV,4,1,13,01,03,249,,02,09,258,,07,07,292,32,08,53,299,35,1*68
$GPGSV,4,2,13,10,64,129,49,15,09,033,,16,36,191,42,18,13,069,45,1*61
$GPGSV,4,3,13,23,43,057,41,26,10,179,40,27,88,136,39,30,05,323,,1*61
$GPGSV,4,4,13,32,02,140,,1*50
$GLGSV,3,1,10,65,33,122,49,66,02,159,,71,05,010,41,72,33,050,46,1*7E
$GLGSV,3,2,10,78,27,223,35,79,41,286,40,80,14,339,35,81,37,288,38,1*72
$GLGSV,3,3,10,87,16,076,,88,67,024,42,1*71
$GAGSV,3,1,09,03,16,080,47,05,09,031,22,08,04,127,,13,76,272,32,7*74
$GAGSV,3,2,09,15,45,060,46,21,56,248,31,23,28,313,42,26,23,250,34,7*7F
$GAGSV,3,3,09,27,29,181,44,7*4C
$GBGSV,3,1,10,02,03,100,34,05,18,122,44,08,22,036,38,13,29,041,38,1*7E
$GBGSV,3,2,10,19,07,027,36,21,33,139,44,22,38,072,44,23,23,300,,1*7C
$GBGSV,3,3,10,24,02,198,,25,24,244,43,1*77
$GNRMC,180031.00,A,4843.26066,N,00920.55385,E,0.006,,070225,,,A,V*11
$GNGGA,180031.00,4843.26066,N,00920.55385,E,1,12,0.47,248.5,M,47.6,M,,*4D
$GPGSV,4,1,13,01,03,249,,02,09,258,,07,07,292,32,08,53,299,35,1*68
$GPGSV,4,2,13,10,64,129,49,15,09,033,,16,36,191,42,18,13,069,45,1*61
$GPGSV,4,3,13,23,43,057,40,26,10,179,40,27,88,136,38,30,05,323,,1*61
$GPGSV,4,4,13,32,02,140,,1*50
$GLGSV,3,1,10,65,33,122,49,66,02,159,,71,05,010,41,72,33,050,46,1*7E
$GLGSV,3,2,10,78,27,223,35,79,41,286,40,80,14,339,36,81,37,288,38,1*71
$GLGSV,3,3,10,87,16,076,,88,67,024,43,1*70
$GAGSV,3,1,09,03,16,080,47,05,09,031,22,08,04,127,,13,76,272,32,7*74
$GAGSV,3,2,09,15,45,060,46,21,56,248,31,23,28,313,42,26,23,250,34,7*7F
$GAGSV,3,3,09,27,29,181,45,7*4D
$GBGSV,3,1,10,02,03,100,34,05,18,122,44,08,22,036,38,13,29,041,38,1*7E
$GBGSV,3,2,10,19,07,027,35,21,33,139,44,22,38,072,45,23,23,300,,1*7E
$GBGSV,3,3,10,24,02,198,,25,24,244,43,1*77
$GNRMC,180032.00,A,4843.26066,N,00920.55383,E,0.011,,070225,,,A,V*12
$GNGGA,180032.00,4843.26066,N,00920.55383,E,1,12,0.47,248.4,M,47.6,M,,*49
$GPGSV,4,1,13,01,03,249,,02,09,258,,07,07,292,32,08,53,299,36,1*6B
$GPGSV,4,2,13,10,64,129,49,15,09,033,,16,36,191,42,18,13,069,45,1*61
$GPGSV,4,3,13,23,43,057,40,26,10,179,40,27,88,136,38,30,05,323,,1*61
$GPGSV,4,4,13,32,02,140,,1*50
$GLGSV,3,1,10,65,33,122,50,66,02,159,,71,05,010,42,72,33,050,46,1*75
$GLGSV,3,2,10,78,27,223,35,79,41,286,40,80,14,339,36,81,37,288,37,1*7E
$GLGSV,3,3,10,87,16,076,,88,67,024,43,1*70
$GAGSV,3,1,09,03,16,080,46,05,09,031,22,08,04,127,,13,76,272,31,7*76
$GAGSV,3,2,09,15,45,060,46,21,56,248,31,23,28,313,42,26,23,250,34,7*7F
$GAGSV,3,3,09,27,29,181,45,7*4D
$GBGSV,3,1,10,02,03,100,34,05,18,122,44,08,22,036,38,13,29,041,38,1*7E
$GBGSV,3,2,10,19,07,027,35,21,33,139,44,22,38,072,45,23,23,300,,1*7E
$GBGSV,3,3,10,24,02,198,,25,24,244,43,1*77
$GNRMC,180033.00,A,4843.26065,N,00920.55381,E,0.003,,070225,,,A,V*11
$GNGGA,180033.00,4843.26065,N,00920.55381,E,1,12,0.47,248.3,M,47.6,M,,*4E
$GPGSV,4,1,13,01,03,249,,02,09,258,,07,07,292,33,08,53,299,36,1*6A
$GPGSV,4,2,13,10,64,129,49,15,09,033,,16,36,191,42,18,13,069,45,1*61
$GPGSV,4,3,13,23,43,057,40,26,10,179,40,27,88,136,38,30,05,323,,1*61
$GPGSV,4,4,13,32,02,140,,1*50
$GLGSV,3,1,10,65,33,122,50,66,02,159,,71,05,010,36,72,33,050,46,1*76
$GLGSV,3,2,10,78,27,223,34,79,41,286,41,80,14,339,36,81,37,288,37,1*7E
$GLGSV,3,3,10,87,16,076,,88,67,024,43,1*70
$GAGSV,3,1,09,03,16,080,46,05,09,031,22,08,04,127,,13,76,272,31,7*76
$GAGSV,3,2,09,15,45,060,45,21,56,248,31,23,28,313,42,26,23,250,35,7*7D
$GAGSV,3,3,09,27,29,181,45,7*4D
$GBGSV,3,1,10,02,03,100,34,05,18,122,44,08,22,036,38,13,29,041,38,1*7E
$GBGSV,3,2,10,19,07,027,35,21,33,139,44,22,38,072,45,23,23,300,,1*7E
$GBGSV,3,3,10,24,02,198,,25,24,244,431*77
$GNRMC,180034.00,A,4843.26065,N,0920.55379,E,0.006,,070225,,,A,V*14
$GNGGA,180034.00,4843.26065,N,00920.55379,E,1,12,0.47,248.3,M,47.6,M,,*4E
$GPGSV,4,1,13,01,03,249,,02,09,258,,07,07,292,33,08,53,299,36,1*6A
$GPGSV,4,2,13,10,64,129,49,15,09,033,,16,36,191,42,18,13,069,45,1*61
$GPGSV,4,3,13,23,43,057,40,26,10,179,40,27,88,136,38,30,05,323,,1*61
$GPGSV,4,4,13,32,02,140,,1*50
$GLGSV,3,1,10,65,33,122,50,66,02,159,,71,05,010,31,72,33,050,46,1*71
$GLGSV,3,2,10,78,27,223,32,79,41,286,40,80,14,339,37,81,37,288,37,1*78
$GLGSV,3,3,10,87,16,076,,88,67,024,42,1*71
$GAGSV,3,1,09,03,16,080,46,05,09,031,22,08,04,127,,13,76,272,31,7*76
$GAGSV,3,2,09,15,45,060,45,21,56,248,31,23,28,313,42,26,23,250,35,7*7D
$GAGSV,3,3,09,27,29,181,45,7*4D
$GBGSV,3,1,10,02,03,100,33,05,18,122,44,08,22,036,38,13,29,041,38,1*79
$GBGSV,3,2,10,19,07,027,36,21,33,139,45,22,38,072,45,23,23,300,,1*7C
$GBGSV,3,3,10,24,02,198,,25,24,244,43,1*77
$GNRMC,180035.00,A,4843.26065,N,00920.55376,E,0.005,,070225,,,A,V*19
$GNGGA,180035.00,4843.26065,N,00920.55376,E,1,12,0.47,248.2,M,47.6,M,,*41
$GPGSV,4,1,13,01,03,249,,02,09,258,,07,07,292,33,08,53,299,36,1*6A
$GPGSV,4,2,13,10,64,129,50,15,09,033,,16,36,191,42,18,13,069,45,1*69
$GPGSV,4,3,13,23,43,057,40,26,10,179,40,27,88,136,39,30,05,323,,1*60
$GPGSV,4,4,13,32,02,140,,1*50
$GLGSV,3,1,10,65,33,122,50,66,02,159,,71,05,010,35,72,33,050,46,1*75
$GLGSV,3,2,10,78,27,223,32,79,41,286,40,80,14,339,37,81,37,288,36,1*79
$GLGSV,3,3,10,87,16,076,,88,67,024,42,1*71
$GAGSV,3,1,09,03,16,080,46,05,09,031,23,08,04,127,,13,76,272,31,7*77
$GAGSV,3,2,09,15,45,060,45,21,56,248,31,23,28,313,42,26,23,250,35,7*7D
$GAGSV,3,3,09,27,29,181,46,7*4E
$GBGSV,3,1,10,02,03,100,34,05,18,122,44,08,22,036,38,13,29,041,38,1*7E
$GBGSV,3,2,10,19,07,027,36,21,33,139,45,22,38,072,45,23,23,300,,1*7C
$GBGSV,3,3,10,24,02,198,,25,24,244,43,1*77
$GNRMC,180036.00,A,4843.26065,N,00920.55375,E,0.005,,070225,,,A,V*19
$GNGGA,180036.00,4843.26065,N,00920.55375,E,1,12,0.46,248.1,M,47.6,M,,*43
$GPGSV,4,1,13,01,03,249,,02,09,258,,07,07,292,32,08,53,299,36,1*6B
$GPGSV,4,2,13,10,64,129,50,15,09,033,,16,36,191,41,18,13,069,45,1*6A
$GPGSV,4,3,13,23,43,057,40,26,10,179,40,27,88,136,39,30,05,323,,1*60
$GPGSV,4,4,13,32,02,140,,1*50
$GLGSV,3,1,10,65,33,122,50,66,02,159,,71,05,010,40,72,33,050,46,1*77
$GLGSV,3,2,10,78,27,223,31,79,41,286,40,80,14,339,36,81,37,288,36,1*7B
$GLGSV,3,3,10,87,16,076,,88,67,024,43,1*70
$GAGSV,3,1,09,03,16,080,46,05,09,031,23,08,04,127,,13,76,275,31,7*70
$GAGSV,3,2,09,15,45,060,45,21,56,248,30,23,28,313,42,26,23,250,34,7*7D
$GAGSV,3,3,09,27,29,181,46,7*4E
$GBGSV,3,1,10,02,03,100,33,05,18,122,44,08,22,036,38,13,29,041,38,1*79
$GBGSV,3,2,10,19,07,027,35,21,33,139,45,22,38,072,45,23,23,300,,1*7F
$GBGSV,3,3,10,24,02,198,,25,24,244,43,1*77
$GNRMC,180037.00,A,4843.26065,N,00920.55373,E,0.025,,070225,,,A,V*1C
$GNGGA,180037.00,4843.26065,N,00920.55373,E,1,12,0.46,248.1,M,47.6,M,,*44
$GPGSV,4,1,13,01,03,249,,02,09,258,,07,07,292,33,08,53,299,36,1*6A
$GPGSV,4,2,13,10,64,129,50,15,09,033,,16,36,191,42,18,13,069,45,1*69
$GPGSV,4,3,13,23,43,057,40,26,10,179,40,27,88,136,40,30,05,323,,1*6E
$GPGSV,4,4,13,32,02,140,,1*50
$GLGSV,3,1,10,65,33,122,50,66,02,159,,71,05,010,24,72,33,050,47,1*74
$GLGSV,3,2,10,78,27,223,30,79,41,286,40,80,14,339,32,81,37,288,37,1*7F
$GLGSV,3,3,10,87,16,076,,88,67,024,43,1*70
$GAGSV,3,1,09,03,16,080,46,05,09,031,22,08,04,127,,13,76,275,31,7*71
$GAGSV,3,2,09,15,45,060,45,21,56,248,30,23,28,313,42,26,23,250,35,7*7C
$GAGSV,3,3,09,27,29,181,46,7*4E
$GBGSV,3,1,10,02,03,100,34,05,18,122,44,08,22,036,38,13,29,041,38,1*7E
$GBGSV,3,2,10,19,07,027,35,21,33,139,45,22,38,072,46,23,23,300,,1*7C
$GBGSV,3,3,10,24,02,198,,25,24,244,43,1*77
$GNRMC,180038.00,A,4843.26065,N,00920.55371,E,0.017,,070225,,,A,V*10
$GNGGA,180038.00,4843.26065,N,00920.55371,E,1,12,0.46,248.1,M,47.6,M,,*49
$GPGSV,4,1,13,01,03,249,,02,09,258,,07,07,292,32,08,53,299,37,1*6A
$GPGSV,4,2,13,10,64,129,50,15,09,033,,16,36,191,41,18,13,069,45,1*6A
$GPGSV,4,3,13,23,43,057,40,26,10,179,40,27,88,136,40,30,05,323,,1*6E
$GPGSV,4,4,13,32,02,140,,1*50
$GLGSV,3,1,10,65,33,122,50,66,02,159,,71,05,010,27,72,33,050,47,1*77
$GLGSV,3,2,10,78,27,223,28,79,41,286,40,80,14,339,31,81,37,288,36,1*74
$GLGSV,3,3,10,87,16,076,,88,67,024,43,1*70
$GAGSV,3,1,09,03,16,080,46,05,09,031,24,08,04,127,,13,76,275,30,7*76
$GAGSV,3,2,09,15,45,060,45,21,56,248,31,23,28,313,41,26,23,250,35,7*7E
$GAGSV,3,3,09,27,29,181,46,7*4E
$GBGSV,3,1,10,02,03,100,34,05,18,122,44,08,22,036,38,13,29,041,38,1*7E
$GBGSV,3,2,10,19,07,027,36,21,33,139,45,22,38,072,45,23,23,300,,1*7C
$GBGSV,3,3,10,24,02,198,,25,24,244,43,1*77
$GNRMC,180039.00,A,4843.26065,N,00920.55368,E,0.016,,070225,,,A,V*18
$GNGGA,180039.00,4843.26065,N,00920.55368,E,1,12,0.46,248.1,M,47.6,M,,*40
$GPGSV,4,1,13,01,03,249,,02,09,258,,07,07,292,31,08,53,299,38,1*66
$GPGSV,4,2,13,10,64,129,50,15,09,033,,16,36,191,42,18,13,069,45,1*69
$GPGSV,4,3,13,23,43,057,41,26,10,179,40,27,88,136,41,30,05,323,,1*6E
$GPGSV,4,4,13,32,02,140,,1*50
$GLGSV,3,1,10,65,33,122,50,66,02,159,,71,05,010,42,72,33,050,47,1*74
$GLGSV,3,2,10,78,27,223,28,79,41,286,39,80,14,339,36,81,37,288,37,1*7C
$GLGSV,3,3,10,87,16,076,,88,67,024,43,1*70
$GAGSV,3,1,09,03,16,080,46,05,09,031,25,08,04,127,,13,76,275,31,7*76
$GAGSV,3,2,09,15,45,060,45,21,56,248,31,23,28,313,42,26,23,250,34,7*7C
$GAGSV,3,3,09,27,29,181,47,7*4F
$GBGSV,3,1,10,02,03,100,33,05,18,122,44,08,22,036,38,13,29,041,38,1*79
$GBGSV,3,2,10,19,07,027,36,21,33,139,45,22,38,072,45,23,23,300,,1*7C
$GBGSV,3,3,10,24,02,198,,25,24,244,43,1*77
$GNRMC,180040.00,A,4843.26065,N,00920.55367,E,0.015,,070225,,,A,V*1A
$GNGGA,180040.00,4843.26065,N,00920.55367,E,1,12,0.46,248.1,M,47.6,M,,*41
$GPGSV,4,1,13,01,03,249,,02,09,258,,07,07,292,31,08,53,299,37,1*69
$GPGSV,4,2,13,10,64,129,50,15,09,033,,16,36,191,42,18,13,069,46,1*6A
$GPGSV,4,3,13,23,43,057,41,26,10,179,40,27,88,136,41,30,05,323,,1*6E
$GPGSV,4,4,13,32,02,140,,1*50
$GLGSV,3,1,10,65,33,122,51,66,02,159,,71,05,010,42,72,33,050,47,1*75
$GLGSV,3,2,10,78,27,223,29,79,41,286,39,80,14,339,36,81,37,288,36,1*7C
$GLGSV,3,3,10,87,16,076,,88,67,024,44,1*77
$GAGSV,3,1,09,03,16,080,46,05,09,031,26,08,04,127,,13,76,275,31,7*75
$GAGSV,3,2,09,15,45,060,45,21,56,248,31,23,28,313,42,26,23,250,33,7*7B
$GAGSV,3,3,09,27,29,181,47,7*4F
$GBGSV,3,1,10,02,03,100,34,05,18,122,44,08,22,036,38,13,29,041,37,1*71
$GBGSV,3,2,10,19,07,027,35,21,33,139,46,22,38,072,46,23,23,300,,1*7F
$GBGSV,3,3,10,24,02,198,,25,24,244,43,1*77
$GNRMC,180041.00,A,4843.26065,N,00920.55365,E,0.006,,070225,,,A,V*1B
$GNGGA,180041.00,4843.26065,N,00920.55365,E,1,12,0.46,248.1,M,47.6,M,,*42
$GPGSV,4,1,13,01,03,249,,02,09,258,,07,07,292,32,08,53,299,37,1*6A
$GPGSV,4,2,13,10,64,129,50,15,09,033,,16,36,191,42,18,13,069,46,1*6A
$GPGSV,4,3,13,23,43,057,41,26,10,179,40,27,88,136,41,30,05,323,,1*6E
$GPGSV,4,4,13,32,02,140,,1*50
$GLGSV,3,1,10,65,33,122,50,66,02,159,,71,05,010,44,72,33,050,47,1*72
$GLGSV,3,2,10,78,27,223,27,79,41,286,39,80,14,339,33,81,37,288,36,1*77
$GLGSV,3,3,10,87,16,076,,88,67,024,44,1*77
$GAGSV,3,1,09,03,16,080,46,05,09,031,26,08,04,127,,13,76,275,30,7*74
$GAGSV,3,2,09,15,45,060,45,21,56,248,31,23,28,313,41,26,23,250,34,7*7F
$GAGSV,3,3,09,27,29,181,47,7*4F
$GBGSV,3,1,10,02,03,100,34,05,18,122,44,08,22,036,38,13,29,041,37,1*71
$GBGSV,3,2,10,19,07,027,35,21,33,139,46,22,38,072,46,23,23,300,,1*7F
$GBGSV,3,3,10,24,02,198,,25,24,244,43,1*77
$GNRMC,180042.00,A,4843.26065,N,00920.55362,E,0.025,,070225,,,A,V*1E
$GNGGA,180042.00,4843.26065,N,00920.55362,E,1,12,0.46,248.1,M,47.6,M,,*46
$GPGSV,4,1,13,01,03,249,,02,09,258,,07,07,292,30,08,53,299,37,1*68
$GPGSV,4,2,13,10,64,129,50,15,09,033,,16,36,191,42,18,13,069,46,1*6A
$GLGSV,3,1,10,65,33,122,50,66,02,159,,71,05,010,44,72,33,050,48,1*7D
$GLGSV,3,2,10,78,27,223,25,79,41,286,40,80,14,339,39,81,37,288,36,1*71
$GLGSV,3,3,10,87,16,076,,88,67,024,44,1*77
$GAGSV,3,1,09,03,16,080,47,05,09,031,27,08,04,127,,13,76,275,30,7*74
$GAGSV,3,2,09,15,45,060,45,21,56,248,31,23,28,313,41,26,23,250,35,7*7E
$GAGSV,3,3,09,27,29,181,47,7*4F
$GBGSV,3,1,10,02,03,100,33,05,18,122,44,08,22,036,38,13,29,041,38,1*79
$GBGSV,3,2,10,19,07,027,35,21,33,139,47,22,38,072,45,23,23,300,,1*7D
$GBGSV,3,3,10,24,02,198,,25,24,244,43,1*77
$GNRMC,180043.00,A,4843.26065,N,00920.55360,E,0.005,,070225,,,A,V*1F
$GNGGA,180043.00,4843.26065,N,00920.55360,E,1,12,0.46,248.1,M,47.6,M,,*45
$GPGSV,4,1,13,01,03,249,,02,09,258,,07,07,292,28,08,53,299,37,1*61
$GPGSV,4,2,13,10,64,129,49,15,09,033,,16,36,191,42,18,13,069,45,1*61
$GPGSV,4,3,13,23,43,057,42,26,10,179,40,27,88,136,41,30,05,323,,1*6D
$GPGSV,4,4,13,32,02,140,,1*50
$GLGSV,3,1,10,65,33,122,50,66,02,159,,71,05,010,44,72,33,050,47,1*72
$GLGSV,3,2,10,78,27,223,24,79,41,286,41,80,14,339,36,81,37,288,36,1*7E
$GLGSV,3,3,10,87,16,076,,88,67,024,44,1*77
$GAGSV,3,1,09,03,16,080,46,05,09,031,28,08,04,127,,13,76,275,30,7*7A
$GAGSV,3,2,09,15,45,060,45,21,56,248,32,23,28,313,41,26,23,250,34,7*7C
$GAGSV,3,3,09,27,29,181,47,7*4F
$GBGSV,3,1,10,02,03,100,34,05,18,122,44,08,22,036,37,13,29,041,38,1*71
$GBGSV,3,2,10,19,07,027,35,21,33,139,47,22,38,072,45,23,23,300,,1*7D
$GBGSV,3,3,10,24,02,198,,25,24,244,43,1*77
$GNRMC,180044.00,A,4843.26064,N,00920.55359,E,0.007,,070225,,,A,V*11
$GNGGA,180044.00,4843.26064,N,00920.55359,E,1,12,0.46,248.1,M,47.6,M,,*49
$GPGSV,4,1,13,01,03,249,,02,09,258,,07,07,292,25,08,53,299,37,1*6C
$GPGSV,4,2,13,10,64,129,50,15,09,033,,16,36,191,42,18,13,069,45,1*69
$GPGSV,4,3,13,23,43,057,42,26,10,179,40,27,88,136,41,30,05,323,,1*6D
$GPGSV,4,4,13,32,02,140,,1*50
$GLGSV,3,1,10,65,33,122,50,66,02,159,,71,05,010,43,72,33,050,47,1*75
$GLGSV,3,2,10,78,27,223,25,79,41,286,41,80,14,339,37,81,37,288,36,1*7E
$GLGSV,3,3,10,87,16,076,,88,67,024,44,1*77
$GAGSV,3,1,09,03,16,080,46,05,09,031,28,08,04,127,,13,76,275,31,7*7B
$GAGSV,3,2,09,15,45,060,45,21,56,248,32,23,28,313,41,26,23,250,33,7*7B
$GAGSV,3,3,09,27,29,181,47,7*4F
$GBGSV,3,1,10,02,03,100,33,05,18,122,44,08,22,036,37,13,29,041,37,1*79
$GBGSV,3,2,10,19,07,027,34,21,33,139,47,22,38,072,45,23,23,300,,1*7C
$GBGSV,3,3,10,24,02,198,,25,24,244,43,1*77
$GNRMC,180045.00,A,4843.26063,N,00920.55359,E,0.014,,070225,,,A,V*15
$GNGGA,180045.00,4843.26063,N,00920.55359,E,1,12,0.46,248.1,M,47.6,M,,*4F
$GPGSV,4,1,13,01,03,249,,02,09,258,,07,07,292,33,08,53,299,37,1*6B
$GPGSV,4,2,13,10,64,129,50,15,09,033,,16,36,191,43,18,13,069,45,1*68
$GPGSV,4,3,13,23,43,057,42,26,10,179,39,27,88,136,41,30,05,323,,1*63
$GPGSV,4,4,13,32,02,140,,1*50
$GLGSV,3,1,10,65,33,122,50,66,02,159,,71,05,010,44,72,33,050,47,1*72
$GLGSV,3,2,10,78,27,223,28,79,41,286,40,80,14,339,38,81,37,288,36,1*7D
$GLGSV,3,3,10,87,16,076,,88,67,024,44,1*77
$GAGSV,3,1,09,03,16,080,46,05,09,031,28,08,04,127,,13,76,275,32,7*78
$GAGSV,3,2,09,15,45,060,45,21,56,248,32,23,28,313,41,26,23,250,33,7*7B
$GAGSV,3,3,09,27,28,181,47,7*4E
$GBGSV,3,1,10,02,03,100,34,05,18,122,43,08,22,036,38,13,29,041,37,1*76
$GBGSV,3,2,10,19,07,027,34,21,33,139,47,22,38,072,45,23,23,300,,1*7C
$GBGSV,3,3,10,24,02,198,25,24,244,43,1*77
$GNRMC,180046.00,A,4843.26062,N,00920.55357,E,0.022,,070225,,,A,V*1C
$GNGGA,180046.00,4843.26062,N,00920.55357,E,1,12,0.46,248.1,M,47.6,M,,*43
$GPGSV,4,1,13,01,03,249,,02,09,258,,07,07,292,33,08,53,299,37,1*6B
$GPGSV,4,2,13,10,64,129,50,15,09,033,,16,36,191,43,18,13,069,45,1*68
$GPGSV,4,3,13,23,43,057,42,26,10,179,38,27,88,136,41,30,05,323,,1*62
$GPGSV,4,4,13,32,02,140,,1*50
$GLGSV,3,1,10,65,33,122,50,66,02,159,,71,05,010,43,72,33,050,47,1*75
$GLGSV,3,2,10,78,27,223,30,79,41,286,40,80,14,339,38,81,37,288,36,1*74
$GLGSV,3,3,10,87,16,076,,88,67,024,43,1*70
$GAGSV,3,1,09,03,16,080,46,05,09,031,28,08,04,127,,13,76,275,32,7*78
$GAGSV,3,2,09,15,45,060,45,21,56,248,31,23,28,313,41,26,23,250,33,7*78
$GAGSV,3,3,09,27,28,181,47,7*4E
$GBGSV,3,1,10,02,03,100,34,05,18,122,44,08,22,036,38,13,29,041,37,1*71
$GBGSV,3,2,10,19,07,027,34,21,33,139,47,22,38,072,44,23,23,300,,1*7D
$GBGSV,3,3,10,24,02,198,,25,24,244,43,1*77
$GNRMC,180047.00,A,4843.26062,N,00920.55356,E,0.025,,070225,,,A,V*1B
$GNGGA,180047.00,4843.26062,N,00920.55356,E,1,12,0.46,248.1,M,47.6,M,,*43
$GPGSV,4,1,13,01,03,249,,02,09,258,,07,07,292,34,08,53,299,37,1*6C
$GPGSV,4,2,13,10,64,129,50,15,09,033,,16,36,191,42,18,13,069,45,1*69
$GPGSV,4,3,13,23,43,057,42,26,10,179,38,27,88,136,41,30,05,323,,1*62
$GPGSV,4,4,13,32,02,140,,1*50
$GLGSV,3,1,10,65,33,122,50,66,02,159,,71,05,010,43,72,33,050,47,1*75
$GLGSV,3,2,10,78,27,223,31,79,41,286,41,80,14,339,39,81,37,288,37,1*74
$GLGSV,3,3,10,87,16,076,,88,67,024,42,1*71
$GAGSV,3,1,09,03,16,080,46,05,09,031,28,08,04,127,,13,76,275,32,7*78
$GAGSV,3,2,09,15,45,060,45,21,56,248,30,23,28,313,41,26,23,250,33,7*79
$GAGSV,3,3,09,27,28,181,47,7*4E
$GBGSV,3,1,10,02,03,100,33,05,18,122,44,08,22,036,38,13,29,041,37,1*76
$GBGSV,3,2,10,19,07,027,34,21,33,139,47,22,38,072,44,23,23,300,,1*7D
$GBGSV,3,3,10,24,02,198,,25,24,244,43,1*77
$GNRMC,180048.00,A,4843.26061,N,00920.55355,E,0.005,,070225,,,A,V*16
$GNGGA,180048.00,4843.2606,N,00920.55355,E,1,12,0.46,248.1,M,47.6,M,,*4C
$GPGSV,4,1,13,01,03,249,,02,09,258,,07,07,292,34,08,53,299,37,1*6C
$GPGSV,4,2,13,10,64,129,50,15,09,033,,16,36,191,43,18,13,069,45,1*68
$GPGSV,4,3,13,23,43,057,42,26,10,179,38,27,88,136,41,30,05,323,,1*62
$GPGSV,4,4,13,32,02,140,,1*50
$GLGSV,3,1,10,65,33,122,50,66,02,159,,71,05,010,44,72,33,050,47,1*72
$GLGSV,3,2,10,78,27,223,32,79,41,286,42,80,14,339,39,81,37,288,37,1*74
$GLGSV,3,3,10,87,16,076,,88,67,024,42,1*71
$GAGSV,3,1,09,03,16,080,46,05,09,031,29,08,04,127,,13,76,275,33,7*78
$GAGSV,3,2,09,15,45,060,45,21,56,248,30,23,28,313,41,26,23,250,34,7*7E
$GAGSV,3,3,09,27,28,181,47,7*4E
$GBGSV,3,1,10,02,03,100,34,05,18,122,44,08,22,036,38,13,29,041,37,1*71
$GBGSV,3,2,10,19,07,027,35,21,33,139,47,22,38,072,44,23,23,300,,1*7C
$GBGSV,3,3,10,24,02,198,,25,24,244,43,1*77
$GNRMC,180049.00,A,4843.26060,N,00920.55356,E,0.024,,070225,,,A,V*16
$GNGGA,180049.00,4843.26060,N,00920.55356,E,1,12,0.46,248.1,M,47.6,M,,*4F
$GPGSV,4,1,13,01,03,249,,02,09,258,,07,07,292,29,08,53,299,36,1*61
$GPGSV,4,2,13,10,64,129,50,15,09,033,,16,36,191,43,18,13,069,45,1*68
$GPGSV,4,3,13,23,43,057,42,26,10,179,38,27,88,136,40,30,05,323,,1*63
$GPGSV,4,4,13,32,02,140,,1*50
$GLGSV,3,1,10,65,33,122,50,66,02,159,,71,05,010,43,72,33,050,47,1*75
$GLGSV,3,2,10,78,27,223,34,79,41,286,42,80,14,339,40,81,37,288,37,1*7C
$GLGSV,3,3,10,87,16,076,,88,67,024,42,1*71
$GAGSV,3,1,09,03,16,080,46,05,09,031,29,08,04,127,,13,76,275,33,7*78
$GAGSV,3,2,09,15,45,060,45,21,56,248,30,23,28,313,40,26,23,250,35,7*7E
$GAGSV,3,3,09,27,28,181,47,7*4E
$GBGSV,3,1,10,02,03100,34,05,18,122,44,08,22,036,37,13,29,041,37,1*7E
$GBGSV,3,2,10,19,07,027,34,21,33,139,47,22,38,072,45,23,23,300,,1*7C
$GBGSV,3,3,10,24,02,198,,25,24,244,43,1*77
$GNRMC,180050.00,A,4843.26060,N,00920.55355,E,0.004,,070225,,,A,V*1F
$GNGGA,180050.00,4843.26060,N,00920.55355,E,1,12,0.46,248.1,M,47.6,M,,*44
$GPGSV,4,1,13,01,03,249,,02,09,258,,07,07,292,35,08,53,299,36,1*6C
$GPGSV,4,2,13,10,64,129,50,15,09,033,,16,36,191,43,18,13,069,44,1*69
$GPGSV,4,3,13,23,43,057,43,26,10,179,37,27,88,136,40,30,05,323,,1*6D
$GPGSV,4,4,13,32,02,140,,1*50
$GLGSV,3,1,10,65,33,122,50,66,02,159,,71,05,010,36,72,33,050,47,1*77
$GLGSV,3,2,10,78,27,223,34,79,41,286,41,80,14,339,37,81,37,288,36,1*7E
$GLGSV,3,3,10,87,16,076,,88,67,024,42,1*71
$GAGSV,3,1,09,03,16,080,46,05,09,031,28,08,04,127,,13,76,275,34,7*7E
$GAGSV,3,2,09,15,45,060,45,21,56,248,30,23,28,313,41,26,23,250,37,7*7D
$GAGSV,3,3,09,27,28,181,47,7*4E
$GBGSV,3,1,10,02,03,100,34,05,18,122,44,08,22,036,38,13,29,041,37,1*71
$GBGSV,3,2,10,19,07,027,5,21,33,139,47,22,38,072,44,23,23,300,,1*7C
$GBGSV,3,3,10,24,02,198,,25,24,244,43,1*77
$GNRMC,180051.00,A,4843.26059,N,00920.55356,E,0.006,,070225,,,A,V*15
$GNGGA,180051.00,4843.26059,N,00920.55356,E,1,12,0.46,248.2,M,47.6,M,,*4F
$GPGSV,4,1,13,01,03,249,,02,09,258,,07,07,292,35,08,53,299,36,1*6C
$GPGSV,4,2,13,10,64,129,50,15,09,033,,16,36,191,42,18,13,069,44,1*68
$GPGSV,4,3,13,23,43,057,43,26,10,179,36,27,88,136,40,30,05,323,,1*6C
$GPGSV,4,4,13,32,02,140,,1*50
$GLGSV,3,1,10,65,33,122,50,66,02,159,,71,05,010,43,72,33,050,47,1*75
$GLGSV,3,2,10,78,27,223,35,79,41,286,41,80,14,339,37,81,37,288,36,1*7F
$GLGSV,3,3,10,87,16,076,,88,67,024,42,1*71
$GAGSV,3,1,09,03,16,080,46,05,09,031,28,08,04,127,,13,76,275,34,7*7E
$GAGSV,3,2,09,15,45,060,45,21,56,248,30,23,28,313,41,26,23,250,37,7*7D
$GAGSV,3,3,09,27,28,181,47,7*4E
$GBGSV,3,1,10,02,03,100,33,05,18,122,44,08,22,036,38,13,29,041,37,1*76
$GBGSV,3,2,10,19,07,027,34,21,33,139,47,22,38,072,44,23,23,300,,1*7D
$GBGSV,3,3,10,24,02,198,,25,24,244,43,1*77
$GNRMC,180052.00,A,4843.26059,N,00920.55356,E,0.013,,070225,,,A,V*12
$GNGGA,180052.00,4843.26059,N,00920.55356,E,1,12,0.46,248.2,M,47.6,M,,*4C
$GPGSV,4,1,13,01,03,249,,02,09,258,,07,07,292,34,08,53,299,36,1*6D
$GPGSV,4,2,13,10,64,129,50,15,09,033,,16,36,191,43,18,13,069,44,1*69
$GPGSV,4,3,13,23,43,057,43,26,10,179,36,27,88,136,41,30,05,323,,1*6D
$GPGSV,4,4,13,32,02,140,,1*50
$GLGSV,3,1,10,65,33,122,50,66,02,159,,71,05,010,43,72,33,050,47,1*75
$GLGSV,3,2,10,78,27,223,36,79,41,286,41,80,14,339,36,81,37,288,36,1*7D
$GLGSV,3,3,10,87,16,076,,88,67,024,42,1*71
$GAGSV,3,1,09,03,16,080,46,05,09,031,27,08,04,127,,13,76,275,34,7*71
$GAGSV,3,2,09,15,45,060,45,21,56,248,30,23,28,313,41,26,23,250,38,7*72
$GAGSV,3,3,09,27,28,181,47,7*4E
$GBGSV,3,1,10,02,03,100,34,05,18,122,44,08,22,036,38,13,29,041,37,1*71
$GBGSV,3,2,10,19,07,027,35,21,33,139,47,22,38,072,44,23,23,300,,1*7C
$GBGSV,3,3,10,24,02,198,,25,24,244,43,1*77
$GNRMC,180053.00,A,4843.26058,N,00920.55356,E,0.001,,070225,,,A,V*11
$GNGGA,180053.00,4843.26058,N,00920.55356,E,1,12,0.46,48.2,M,47.6,M,,*4C
$GPGSV,4,1,13,01,03,249,,02,09,258,,07,07,292,35,08,53,299,36,1*6C
$GPGSV,4,2,13,10,64,129,50,15,09,033,,16,36,191,43,18,13,069,44,1*69
$GPGSV,4,3,13,23,43,057,43,26,10,179,36,27,88,136,41,30,05,323,,1*6D
$GPGSV,4,4,13,32,02,140,,1*50
$GLGSV,3,1,10,65,33,122,50,66,02,159,,71,05,010,44,72,33,050,47,1*72
$GLGSV,3,2,10,78,27,223,36,79,41,286,42,80,14,339,37,81,37,288,35,1*7C
$GLGSV,3,3,10,87,16,076,,88,67,024,41,1*72
$GAGSV,3,1,09,03,16,080,45,05,09,031,27,08,04,127,,13,76,275,35,7*73
$GAGSV,3,2,09,15,45,060,44,21,56,248,30,23,28,313,41,26,23,250,37,7*7C
$GAGSV,3,3,09,27,28,181,46,7*4F
$GBGSV,3,1,10,02,03,100,34,05,18,122,44,08,22,036,38,13,29,041,37,1*71
$GBGSV,3,2,10,19,07,027,35,21,33,139,47,22,38,072,44,23,23,300,,1*7C
$GBGSV,3,3,10,24,02,198,,25,24,244,43,1*77
$GNRMC,180054.00,A,4843.26057,N,00920.55358,E,0.025,,070225,,,A,V*11
$GNGGA,180054.00,4843.26057,N,00920.55358,E,1,12,0.46,248.2,M,47.6,M,,*4A
$GPGSV,4,1,13,01,03,249,,02,09,258,,07,07,292,35,08,53,299,36,1*6C
$GPGSV,4,2,13,10,64,129,50,15,09,033,,16,36,191,42,18,13,069,44,1*68
$GPGSV,4,3,13,23,43,057,43,26,10,179,36,27,88,136,41,30,05,323,,1*6D
$GPGSV,4,4,13,32,02,140,,1*50
$GLGSV,3,1,10,65,33,122,50,66,02,159,,71,05,010,44,72,33,050,47,1*72
$GLGSV,3,2,10,78,27,223,37,79,41,286,42,80,14,339,41,81,37,288,36,1*7F
$GLGSV,3,3,10,87,16,076,,88,67,024,41,1*72
$GAGSV,3,1,09,03,16,080,45,05,09,031,26,08,04,127,,13,76,275,35,7*72
$GAGSV,3,2,09,15,45,060,44,21,56,248,30,23,28,313,41,26,23,250,37,7*7C
$GAGSV,3,3,09,27,28,181,46,7*4F
$GBGSV,3,1,10,02,03,100,33,05,18,122,44,08,22,036,38,13,29,041,37,1*76
$GBGSV,3,2,10,19,07,027,34,21,33,139,47,22,38,072,45,23,23,300,,1*7C
$GBGSV,3,3,10,24,02,198,,25,24,244,43,1*77
$GNRMC,180055.00,A,4843.26056,N,00920.55359,E,0.017,,070225,,,A,V*11
$GNGGA,180055.00,4843.26056,N,00920.55359,E,1,12,0.46,248.2,M,47.6,M,,*4B
$GPGSV,4,1,13,01,03,249,,02,09,258,,07,07,292,35,08,53,299,36,1*6C
$GPGSV,4,2,13,10,64,129,50,15,09,033,,16,36,191,42,18,13,069,45,1*69
$GPGSV,4,3,13,23,43,057,43,26,10,179,36,27,88,136,41,30,05,323,,1*6D
$GPGSV,4,4,13,32,02,140,,1*50
$GLGSV,3,1,10,65,33,122,50,66,02,159,,71,05,010,43,72,33,050,47,1*75
$GLGSV,3,2,10,78,27,223,37,79,41,286,42,80,14,339,39,81,37,288,34,1*72
$GLGSV,3,3,10,87,16,076,,88,67,024,41,1*72
$GAGSV,3,1,09,03,16,080,45,05,09,031,26,08,04,127,,13,76,275,35,7*72
$GAGSV,3,2,09,15,45,060,44,21,56,248,30,23,28,313,41,26,23,250,36,7*7D
$GAGSV,3,3,09,27,28,181,46,7*4F
$GBGSV,3,1,10,02,03,100,34,05,18,122,44,08,22,036,38,13,29,041,37,1*71
$GBGSV,3,2,10,19,07,027,34,21,33,139,47,22,38,072,45,23,23,300,,1*7C
$GBGSV,3,3,10,24,02,198,,25,24,244,43,1*77
$GNRMC,180056.00,A,4843.26056,N,00920.55360,E,0.003,,070225,,,A,V*1D
$GNGGA,180056.00,4843.2605,N,00920.55360,E,1,12,0.46,248.2M,47.6,M,,*42
$GPGSV,4,1,13,01,03,249,,02,09,258,,07,07,292,34,08,53,299,36,1*6D
$GPGSV,4,2,13,10,64,129,50,15,09,033,,16,36,191,42,18,13,069,45,1*69
$GPGSV,4,3,13,23,43,057,43,26,10,179,36,27,88,136,41,30,05,323,,1*6D
$GLGSV,3,1,10,65,33,122,50,66,02,159,,71,05,010,43,72,33,050,47,1*75
$GLGSV,3,2,10,78,27,223,37,79,41,286,42,80,14,339,38,81,37,288,34,1*73
$GLGSV,3,3,10,87,16,076,,88,67,024,41,1*72
$GAGSV,3,1,09,03,16,080,45,05,09,031,26,08,04,127,,13,76,275,35,7*72
$GAGSV,3,2,09,15,45,060,44,21,56,248,31,23,28,313,41,26,23,250,36,7*7C
$GAGSV,3,3,09,27,28,181,46,7*4F
$GBGSV,3,1,10,02,03,100,34,05,18,122,44,08,22,036,38,13,29,041,37,1*71
$GBGSV,3,2,10,19,07,027,34,21,33,139,47,22,38,072,45,23,23,300,,1*7C
$GBGSV,3,3,10,24,02,198,,25,24,244,43,1*77
$GNRMC,180057.00,A,4843.26055,N,00920.55361,E,0.008,,070225,,,A,V*15
$GNGGA,180057.00,4843.26055,N,00920.55361,E,1,12,0.46,248.1,M,47.6,M,,*42
$GPGSV,4,1,13,01,03,249,,02,09,258,,07,07,292,33,08,53,299,35,1*69
$GPGSV,4,2,13,10,64,129,50,15,09,033,,16,36,191,41,18,13,069,44,1*6B
$GPGSV,4,3,13,23,43,057,43,26,10,179,37,27,88,136,41,30,05,323,,1*6C
$GPGSV,4,4,13,32,02,140,,1*50
$GLGSV,3,1,10,65,33,122,50,66,02,19,,71,05,010,43,72,33,050,46,1*74
$GLGSV,3,2,10,78,27,223,36,79,41,286,42,80,14,339,38,81,37,288,33,1*75
$GLGSV,3,3,10,87,16,076,,88,67,024,41,1*72
$GAGSV,3,1,09,03,16,080,45,05,09,031,28,08,04,127,,13,76,275,35,7*7C
$GAGSV,3,2,09,15,45,060,44,21,56,248,31,23,28,313,41,26,23,250,36,7*7C
$GAGSV,3,3,09,27,28,181,46,7*4F
$GBGSV,3,1,10,02,03,100,34,05,18,122,44,08,22,036,38,13,29,041,37,1*71
$GBGSV,3,2,10,19,07,027,34,21,33,139,47,22,38,072,45,23,23,300,,1*7C
$GBGSV,3,3,10,24,02,198,,25,24,244,43,1*77
$GNRMC,180058.00,A,4843.26055,N,00920.55363,E,0.014,,070225,,,A,V*15
$GNGGA,180058.00,4843.26055,N,0090.55363,E,1,12,0.46,248.1,M,47.6,M,,*4F
$GPGSV,4,1,13,01,03,249,,02,09,258,,07,07,292,33,08,53,299,35,1*69
$GPGSV,4,2,13,10,64,129,50,15,09,033,,16,36,191,41,18,13,069,44,1*6B
$GPGSV,4,3,13,23,43,057,43,26,10,179,37,27,88,136,41,30,05,323,,1*6C
$GPGSV,4,4,13,32,02,140,,1*50
$GLGSV,3,1,10,65,33,122,50,66,02,159,,71,05,010,43,72,33,050,46,1*74
$GLGSV,3,2,10,78,27,223,36,79,41,286,43,80,14,339,37,81,37,288,34,1*7C
$GLGSV,3,3,10,87,16,076,,88,67,024,41,1*72
$GAGSV,3,1,09,03,16,080,45,05,09,031,27,08,04,127,,13,76,275,36,7*70
$GAGSV,3,2,09,15,45,060,43,21,56,248,31,23,28,313,41,26,23,250,36,7*7B
$GAGSV,3,3,09,27,28,181,46,7*4F
$GBGSV,3,1,10,02,03,100,33,05,18,122,44,08,22,036,38,13,29,041,37,1*76
$GBGSV,3,2,10,19,07,027,34,21,33,139,47,22,38,072,45,23,23,300,,1*7C
$GBGSV,3,3,10,24,2,198,,25,24,244,43,1*77
$GNRMC,180059.00,A,4843.26055,N,00920.55364,E,0.004,,070225,,,A,V*12
$GNGGA,180059.00,4843.26055,N,00920.55364,E,1,12,0.46,248.1,M,47.6,M,,*49
$GPGSV,4,1,13,01,03,249,,02,09,258,,07,07,292,33,08,53,299,35,1*69
$GPGSV,4,2,13,10,64,129,50,15,09,033,,16,36,191,41,18,13,069,44,1*6B
$GPGSV,4,3,13,23,43,057,43,26,10,179,37,27,88,136,41,30,05,323,,1*6C
$GPGSV,4,4,13,32,02,140,,1*50
$GLGSV,3,1,10,65,33,122,50,66,02,159,,71,05,010,43,72,33,050,46,1*74
$GLGSV,3,2,10,78,27,223,37,79,41,286,43,80,14,339,37,81,37,288,34,1*7D
$GLGSV,3,3,10,87,16,076,,88,67,024,41,1*72
$GAGSV,3,1,09,03,16,080,45,05,09,031,28,08,04,127,,13,76,275,36,7*7F
$GAGSV,3,2,09,15,45,060,43,21,56,248,31,23,28,313,40,26,23,250,36,7*7A
$GAGSV,3,3,09,27,28,181,46,7*4F
$GBGSV,3,1,10,02,03,100,33,05,18,122,44,08,22,036,38,13,29,041,37,1*76
$GBGSV,3,2,10,19,07,027,35,21,33,139,48,22,38,072,45,23,23,300,,1*72
$GBGSV,3,3,10,24,02,198,,25,24,244,43,1*77
$GNRMC,180100.00,A,4843.26054,N,00920.55366,E,0.010,,070225,,,A,V*19
$GNGGA,180100.00,4843.26054,N,00920.55366,E,1,12,0.46,248.1,M,47.6,M,,*47
$GPGSV,4,1,13,01,03,249,,02,09,258,,07,07,292,33,08,53,299,36,1*6A
$GPGSV,4,2,13,10,64,129,50,15,09,033,,16,36,191,40,18,13,069,44,1*6A
$GPGSV,4,3,13,23,43,057,43,26,10,179,37,27,88,136,41,30,05,323,,1*6C
$GPGSV,4,4,13,32,02,140,,1*50
$GLGSV,3,1,10,65,33,122,50,66,02,159,,71,05,010,43,72,33,050,47,1*75
$GLGSV,3,2,10,78,27,223,36,79,41,286,42,80,14,339,37,81,37,288,35,1*7C
$GLGSV,3,3,10,87,16,076,,88,67,024,41,1*72
$GAGSV,3,1,09,03,16,080,45,05,09,031,27,08,04,127,,13,76,275,36,7*70
$GAGSV,3,2,09,15,45,060,43,21,56,248,31,23,28,313,40,26,23,250,36,7*7A
$GAGSV,3,3,09,27,28,181,45,7*4C
$GBGSV,3,1,10,02,03,100,34,05,18122,44,08,22,036,38,13,29,041,37,1*71
$GBGSV,3,2,10,19,07,027,35,21,33,139,48,22,38,072,45,23,23,300,,1*72
$GBGSV,3,3,10,24,02,198,,25,24,244,43,1*77
$GNRMC,180101.00,A,4843.26054,N,00920.55367,E,0.014,,070225,,,A,V*1D
$GNGGA,180101.00,4843.26054,N,00920.55367,E,1,12,0.46,248.1,M,47.6,M,,*47
$GPGSV,4,1,13,01,03,249,,02,09,258,,07,07,292,33,08,53,299,36,1*6A
$GPGSV,4,2,13,10,64,129,50,15,09,033,,16,36,191,40,18,13,069,44,1*6A
$GPGSV,4,3,13,23,43,057,43,26,10,179,38,27,88,136,41,30,05,323,,1*63
$GPGSV,4,4,13,32,02,140,,1*50
$GLGSV,3,1,10,65,33,122,50,66,02,159,,71,05,010,43,72,33,050,46,1*74
$GLGSV,3,2,10,78,27,223,36,79,41,286,42,80,14,339,36,81,37,288,36,1*7E
$GLGSV,3,3,10,87,16,076,,88,67,024,41,1*72
$GAGSV,3,1,09,03,16,080,45,05,09,031,26,08,04,127,,13,76,275,36,7*71
$GAGSV,3,2,09,15,45,060,43,21,56,248,31,23,28,313,40,26,23,250,36,7*7A
$GAGSV,3,3,09,27,28,181,45,7*4C
$GBGSV,3,1,10,02,03,100,34,05,18,122,44,08,22,036,38,13,29,041,37,1*71
$GBGSV,3,2,10,19,07,027,35,21,33,139,48,22,38,072,45,23,23,300,,1*72
$GBGSV,3,3,10,24,02,198,,25,24,244,43,1*77
$GNRMC,180102.00,A,4843.26055,N,00920.55368,E,0.003,,070225,,,A,V*16
$GNGGA,180102.00,4843.26055,N,00920.55368,E,1,12,0.46,248.1,M,47.6,M,,*4A
$GPGSV,4,1,13,01,03,249,,02,09,258,,07,07,292,33,08,53,299,36,1*6A
$GPGSV,4,2,13,10,64,129,50,15,09,033,,16,36,191,40,18,13,069,44,1*6A
$GPGSV,4,3,13,23,43,057,44,26,10,179,38,27,88,136,41,30,05,323,,1*64
$GPGSV,4,4,13,32,02,140,,1*50
$GLGSV,3,1,10,65,33,122,50,66,02,159,,71,05,010,43,72,33,050,46,1*74
$GLGSV,3,2,10,78,27,223,37,79,41,286,42,80,14,339,36,81,37,288,36,1*7F
$GLGSV,3,3,10,87,16,076,,88,67,024,41,1*72
$GAGSV,3,1,09,03,16,080,45,05,09,031,25,08,04,127,,13,76,275,36,7*72
$GAGSV,3,2,09,15,45,060,42,21,56,248,31,23,28,313,40,26,23,250,37,7*7A
$GAGSV,3,3,09,27,28,181,45,7*4C
$GBGSV,3,1,10,02,03,100,34,05,18,122,44,08,22,036,38,13,29,041,37,1*71
$GBGSV,3,2,10,19,07,027,35,21,33,139,48,22,38,072,45,23,23,300,,1*72
$GBGSV,3,3,10,24,02,198,,25,24,244,43,1*77
$GNRMC,180103.00,A,4843.26055,N,00920.55370,E,0.002,,070225,,,A,V*1F
$GNGGA,180103.00,4843.26055,N,00920.55370,E,1,12,0.46,248.1,M,47.6,M,,*42
$GPGSV,4,1,13,01,03,249,,02,09,258,,07,07,292,33,08,53,299,37,1*6B
$GPGSV,4,2,13,10,64,129,50,15,09,033,,16,36,191,39,18,13,069,44,1*64
$GPGSV,4,3,13,23,43,057,44,26,10,179,37,27,88,136,40,30,05,323,,1*6A
$GPGSV,4,4,13,32,02,140,,1*50
$GLGSV,3,1,10,65,33,122,50,66,02,159,,71,05,010,43,72,33,050,46,1*74
$GLGSV,3,2,10,78,27,223,37,79,41,286,43,80,14,339,37,81,37,288,36,1*7F
$GLGSV,3,3,10,87,16,076,,88,67,024,40,1*73
$GAGSV,3,1,09,03,16,080,45,05,09,031,25,08,04,127,,13,76,275,36,7*72
$GAGSV,3,2,09,15,45,060,42,21,56,248,31,23,28,313,40,26,23,250,37,7*7A
$GAGSV,3,3,09,27,28,181,45,7*4C
$GBGSV,3,1,10,02,03,100,34,05,18,122,44,08,22,036,38,13,29,041,37,1*71
$GBGSV,3,2,10,19,07,027,35,21,33,139,48,22,38,072,45,23,23,300,,1*72
$GBGSV,3,3,10,24,02,198,,25,24,244,43,1*77
$GNGGA,180104.00,4843.26056,N,00920.55371,E,1,12,0.46,248.1,M,47.6,M,,*47
$GPGSV,4,1,13,01,03,249,,02,09,258,,07,07,292,33,08,53,299,37,1*6B
$GPGSV,4,2,13,10,64,129,50,15,09,033,,16,36,191,39,18,13,069,44,1*64
$GPGSV,4,3,13,23,43,057,44,26,10,179,38,27,88,136,40,30,05,323,,1*65
$GPGSV,4,4,13,32,02,140,,1*50
$GLGSV,3,1,10,65,33,122,50,66,02,159,,71,05,010,42,72,33,050,46,1*75
$GLGSV,3,2,10,78,27,223,37,79,41,286,42,80,14,339,36,81,37,288,37,1*7E
$GLGSV,3,3,10,87,16,076,,88,67,024,40,1*73
$GAGSV,3,1,09,03,16,080,45,05,09,031,25,08,04,127,,13,76,275,36,7*72
$GAGSV,3,2,09,15,45,060,42,21,56,248,32,23,28,313,40,26,23,250,37,7*79
$GAGSV,3,3,09,27,28,181,44,7*4D
$GBGSV,3,1,10,02,03,100,34,05,18,122,44,08,22,036,38,13,29,041,37,1*71
$GBGSV,3,2,10,19,07,027,35,21,33,139,48,22,38,072,45,23,23,300,,1*72
$GBGSV,3,3,10,24,02,198,,25,24,244,43,1*77
$GNRMC,180105.00,A,4843.26057,N,00920.55373,E,0.007,,070225,,,A,V*1D
$GNGGA,180105.00,4843.26057,N,00920.55373,E,1,12,0.46,248.1,M,47.6,M,,*45
$GPGSV,4,1,13,01,03,249,,02,09,258,,07,07,292,33,08,53,299,37,1*6B
$GPGSV,4,2,13,10,64,129,50,15,09,033,,16,36,191,38,18,13,069,44,1*65
$GPGSV,4,3,13,23,43,057,44,26,10,179,38,27,88,136,40,30,05,323,,1*65
$GPGSV,4,4,13,32,02,140,,1*50
$GLGSV,3,1,10,65,33,122,50,66,02,159,,71,05,010,42,72,33,050,46,1*75
$GLGSV,3,2,10,78,27,223,36,79,41,286,42,80,14,339,37,81,37,288,37,1*7E
$GLGSV,3,3,10,87,16,076,,88,67,024,40,1*73
$GAGSV,3,1,09,03,16,080,45,05,09,031,26,08,04,127,,13,76,275,36,7*71
$GAGSV,3,2,09,15,45,060,42,21,56,248,31,23,28,313,40,26,23,250,37,7*7A
$GAGSV,3,3,09,27,28,181,44,7*4D
$GBGSV,3,1,10,02,03,100,34,05,18,122,44,08,22,036,38,13,29,041,37,1*71
$GBGSV,3,2,10,19,07,027,35,21,34,139,48,22,38,072,45,23,23,300,,1*75
$GBGSV,3,3,10,24,02,198,,25,24,244,43,1*77
$GNRMC,180106.00,A,4843.26057,N,00920.55375,E,0.012,,070225,,,A,V*1C
$GNGGA,180106.00,4843.26057,N,00920.55375,E,1,12,0.46,248.1,M,47.6,M,,*40
$GPGSV,4,1,13,01,03,249,,02,09,258,,07,07,292,33,08,53,299,37,1*6B
$GPGSV,4,2,13,10,64,129,50,15,09,033,,16,36,191,38,18,13,069,44,1*65
$GPGSV,4,3,13,23,43,057,44,26,10,179,39,27,88,136,40,30,05,323,,1*64
$GPGSV,4,4,13,32,02,140,,1*50
$GLGSV,3,1,10,65,33,122,50,66,02,159,,71,05,010,42,72,33,050,46,1*75
$GLGSV,3,2,10,78,27,223,36,79,41,286,42,80,14,339,36,81,37,288,37,1*7F
$GLGSV,3,3,10,87,16,076,,88,67,024,40,1*73
$GAGSV,3,1,09,03,16,080,45,05,09,031,27,08,04,127,,13,76,275,36,7*70
$GAGSV,3,2,09,15,45,060,42,21,56,248,32,23,28,313,40,26,23,250,37,7*79
$GAGSV,3,3,09,27,28,181,44,7*4D
$GBGSV,3,1,10,02,03,100,34,05,18,122,44,08,22,036,37,13,29,041,37,1*7E
