$GNRMC,190000.00,A,4843.26029,N,00920.55357,E,0.017,,080225,,,A,V*19
$GNGGA,190000.00,4843.26029,N,00920.55357,E,1,12,0.46,248.4,M,47.6,M,,*4A
$GPGSV,3,1,09,01,26,266,34,02,33,275,43,08,78,258,35,10,59,065,48,1*66
$GPGSV,3,2,09,14,08,328,,16,09,185,39,23,18,046,41,27,57,146,48,1*67
$GPGSV,3,3,09,32,25,123,50,1*5E
$GLGSV,3,1,10,65,18,026,43,66,50,076,45,67,33,151,33,73,25,312,44,1*70
$GLGSV,3,2,10,74,06,352,,80,24,251,46,81,47,077,46,82,64,336,43,1*72
$GLGSV,3,3,10,83,28,295,,88,00,099,13,1*74
$GAGSV,3,1,10,02,19,193,38,04,11,031,,05,16,134,42,06,21,054,44,7*7A
$GAGSV,3,2,10,09,27,079,46,15,23,266,28,27,27,311,43,30,44,249,,7*76
$GNRMC,190001.00,A,4843.26030,N,00920.55359,E,0.006,,080225,,,A,V*1E
$GNGGA,190001.00,4843.26030,N,00920.55359,E,1,12,0.46,248.4,M,47.6,M,,*4D
$GPGSV,3,1,09,01,26,266,34,02,33,275,43,08,78,258,35,10,59,065,48,1*66
$GPGSV,3,2,09,14,08,328,,16,09,185,39,23,18,046,41,27,57,146,48,1*67
$GPGSV,3,3,09,32,25,123,50,1*5E
$GLGSV,3,1,10,65,18,026,43,66,50,076,46,67,33,151,33,73,25,312,44,1*73
$GLGSV,3,2,10,74,06,352,,80,24,251,46,81,47,077,46,82,64,336,43,1*72
$GLGSV,3,3,10,83,28,295,,88,00,099,13,1*74
$GAGSV,3,1,10,02,19,193,38,04,11,031,,05,16,134,42,06,21,054,44,7*7A
$GAGSV,3,2,10,09,27,079,46,15,23,266,29,27,27,311,43,30,44,249,,7*77
$GAGSV,3,3,10,34,74,298,35,36,46,069,34,7*7C
$GNRMC,190002.00,A,4843.26031,N,00920.55360,E,0.008,,080225,,,A,V*18
$GNGGA,190002.00,4843.26031,N,00920.55360,E,1,12,0.46,248.3,M,47.6,M,,*42
$GPGSV,3,1,09,01,26,266,33,02,33,275,43,08,78,258,34,10,59,065,48,1*60
$GPGSV,3,2,09,14,08,328,,16,09,185,39,23,18,046,41,27,57,146,48,1*67
$GPGSV,3,3,09,32,25,123,50,1*5E
$GLGSV,3,1,10,65,18,026,43,66,50,076,46,67,33,151,34,73,25,312,44,1*74
$GLGSV,3,2,10,74,06,352,,80,24,251,46,81,47,077,46,82,64,336,43,1*72
$GLGSV,3,3,10,83,28,295,,88,00,099,13,1*74
$GAGSV,3,1,10,0,19,193,38,04,11,031,,05,16,134,42,06,21,054,44,7*7A
$GAGSV,3,2,10,09,27,079,46,15,23,266,29,27,27,311,43,30,44,249,,7*77
$GAGSV,3,3,10,34,74,298,35,36,46,069,34,7*7C
$GBGSV,3,1,12,02,04,100,38,05,19,122,41,08,12,041,33,11,15,291,,1*72
$GNRMC,190003.00,A,4843.26032,N,00920.55361,E,0.003,,080225,,,A,V*10
$GNGGA,190003.00,4843.26032,N,00920.55361,E,1,12,0.46,248.2,M,47.6,M,,*40
$GPGSV,3,1,09,01,26,266,33,02,33,275,43,08,78,258,35,10,59,065,48,1*61
$GPGSV,3,2,09,14,08,328,16,09,185,39,23,18,046,41,27,57,146,49,1*66
$GPGSV,3,3,09,32,25,123,50,1*5E
$GLGSV,3,1,10,65,18,026,43,66,50,076,46,67,33,151,35,73,25,312,44,1*75
$GLGSV,3,2,10,74,06,352,,80,24,251,46,81,47,077,46,82,64,336,43,1*72
$GLGSV,3,3,10,83,28,295,,88,00,099,09,1*7F
$GAGSV,3,1,10,02,19,193,38,04,11,031,,05,16,134,42,06,21,054,44,7*7A
$GAGSV,3,2,10,09,27,079,46,15,23,266,29,27,27,311,43,30,44,249,,7*77
$GNRMC,190004.00,A,4843.26033,N,00920.55362,E,0.009,,080225,,,A,V*1F
$GNGGA,190004.00,4843.26033,N,00920.55362,E,1,12,0.46,248.1,M,47.6,M,,*46
$GPGSV,3,1,09,01,26,266,33,02,33,275,43,08,78,258,35,10,59,065,48,1*61
$GPGSV,3,2,09,14,08,328,,16,09,185,38,23,18,046,41,27,57,146,49,1*67
$GPGSV,3,3,09,32,25,123,50,1*5E
$GLGSV,3,1,10,65,18,026,43,66,50,076,47,67,33,151,35,73,25,312,44,1*74
$GLGSV,3,2,10,74,06,352,,80,24,251,46,81,47,077,47,82,64,336,43,1*73
$GLGSV,3,3,10,83,28,295,,88,00,099,13,1*74
$GAGSV,3,1,10,02,19,193,38,04,11,031,,05,16,134,42,06,21,054,44,7*7A
$GAGSV,3,2,10,09,27,079,46,15,23,266,29,27,27,311,43,30,44,249,,7*77
$GAGSV,3,3,10,34,74,298,35,36,46,069,33,7*7B
$GBGSV,3,1,12,02,04,100,38,05,19,122,41,08,12,041,33,11,15,291,,1*72
$GNRMC,190005.00,A,4843.26033,N,00920.55363,E,0.004,,080225,,,A,V*12
$GNGGA,190005.00,4843.26033,N,00920.55363,E,1,12,0.46,248.0,M,47.6,M,,*47
$GPGSV,3,1,09,01,26,266,33,02,33,275,43,08,78,258,35,10,59,065,48,1*61
$GPGSV,3,2,09,14,08,328,,16,09,185,38,23,18,046,41,27,57,146,49,1*67
$GPGSV,3,3,09,32,25,123,50,1*5E
$GLGSV,3,1,10,65,18,026,43,66,50,076,47,67,33,151,37,73,25,312,44,1*76
$GLGSV,3,2,10,74,06,352,,80,24,251,46,81,47,077,47,82,64,336,43,1*73
$GLGSV,3,3,10,83,28,295,,88,00,099,11,1*76
$GAGSV,3,1,10,02,19,193,38,04,11,031,,05,16,134,42,06,21,054,44,7*7A
$GAGSV,3,2,10,09,27,079,46,15,23,266,29,27,27,311,43,30,44,249,,7*77
$GAGSV,3,3,10,34,74,298,35,36,46,069,33,7*7B
$GNRMC,190006.00,A,4843.26034,N,00920.55364,E,0.012,,080225,,,A,V*16
$GNGGA,190006.00,4843.26034,N,00920.55364,E,1,12,0.46,248.0,M,47.6,M,,*44
$GPGSV,3,1,09,01,26,266,33,02,33,275,43,08,78,258,35,10,59,065,48,1*61
$GPGSV,3,2,09,14,08,328,,16,09,185,38,23,18,046,41,27,57,146,49,1*67
$GPGSV,3,3,09,32,25,123,50,1*5E
$GLGSV,3,1,10,65,18,026,43,66,50,076,46,67,33,151,38,73,25,312,44,1*78
$GLGSV,3,2,10,74,06,352,,80,24,251,46,81,47,077,47,82,64,336,43,1*73
$GLGSV,3,3,10,83,28,295,,88,00,099,13,1*74
$GAGSV,3,1,10,02,19,193,37,04,11,031,,05,16,134,42,06,21,054,44,7*75
$GAGSV,3,2,10,09,27,079,46,15,23,266,29,27,27,311,43,30,44,249,,7*77
$GAGSV,3,3,10,34,74,298,35,36,46,069,33,7*7B
$GNRMC,190007.00,A,4843.26034,N,00920.55364,E,0.004,,080225,,,A,V*10
$GNGGA,190007.00,4843.26034,N,00920.55364,E,1,12,0.46,247.9,M,47.6,M,,*43
$GPGSV,3,1,09,01,26,266,33,02,33,275,43,08,78,258,35,10,59,065,48,1*61
$GPGSV,3,2,09,14,08,328,,16,09,185,38,23,18,046,40,27,57,146,48,1*67
$GPGSV,3,3,09,32,25,123,50,1*5E
$GLGSV,3,1,10,65,18,026,42,66,50,076,46,67,33,151,38,73,25,312,45,1*78
$GLGSV,3,2,10,74,06,352,,80,24,251,46,81,47,077,47,82,64,336,43,1*73
$GLGSV,3,3,10,83,28,295,,88,00,099,12,1*75
$GAGSV,3,1,10,02,19,193,37,04,11,031,,05,16,134,42,06,21,054,44,7*75
$GAGSV,3,2,10,09,27,079,46,15,23,266,29,27,27,311,43,30,44,249,,7*77
$GAGSV,3,3,10,34,74,298,35,36,46,069,33,7*7B
$GBGSV,3,1,12,02,04,100,38,05,19,122,41,08,12,041,32,11,15,291,,1*73
$GNRMC,190008.00,A,4843.26035,N,00920.55365,E,0.008,,080225,,,A,V*13
$GNGGA,190008.00,4843.26035,N,00920.55365,E,1,12,0.46,247.8,M,47.6,M,,*4D
$GPGSV,3,1,09,01,26,266,26,02,33,275,41,08,78,258,35,10,59,065,47,1*68
$GPGSV,3,2,09,14,08,328,,16,09,185,37,23,18,046,40,27,57,146,48,1*68
$GPGSV,3,3,09,32,25,123,49,1*56
$GLGSV,3,1,10,65,18,026,43,66,50,076,46,67,33,151,38,73,25,312,45,1*79
$GLGSV,3,2,10,74,06,352,,80,24,251,45,8,47,077,47,82,64,336,43,1*70
$GLGSV,3,3,10,83,28,295,,88,00,099,11,1*76
$GAGSV,3,1,10,02,19,193,37,04,11,031,,05,16,134,43,06,21,054,44,7*74
$GAGSV,3,2,10,09,27,079,46,15,23,266,28,27,27,311,41,30,44,249,,7*74
$GAGSV,3,3,10,34,74,298,35,36,46,069,33,7*7B
$GNRMC,190009.00,A,4843.26035,N,00920.55364,E,0.045,,080225,,,A,V*1A
$GNGGA,190009.00,4843.26035,N,00920.55364,E,1,12,0.46,247.8,M,47.6,M,,*4D
$GPGSV,3,1,09,01,26,266,31,02,33,275,43,08,78,258,35,10,59,065,48,1*63
$GPGSV,3,2,09,14,08,328,,16,09,185,38,23,18,046,41,27,57,146,48,1*66
$GPGSV,3,3,09,32,25,123,50,1*5E
$GLGSV,3,1,10,65,18,026,43,66,50,076,46,67,33,151,40,73,25,312,45,1*76
$GLGSV,3,2,10,74,06,352,,80,24,251,45,81,47,077,48,82,64,336,43,1*7F
$GLGSV,3,3,10,83,28,295,,88,00,099,11,1*76
$GAGSV,3,1,10,02,19,193,37,04,11,031,,05,16,134,43,06,21,054,44,7*74
$GAGSV,3,2,10,09,27,079,46,15,23,266,29,27,27,311,43,30,44,249,,7*77
$GAGSV,3,3,10,34,74,298,35,36,46,069,33,7*7B
$GBGSV,3,1,12,02,04,100,38,05,19,122,41,08,12,041,32,11,15,291,,1*73
$GNRMC,190010.00,A,4843.26035,N,00920.55365,E,0.015,,080225,,,A,V*16
$GNGGA,190010.00,4843.26035,N,00920.55365,E,1,12,0.46,247.7,M,47.6,M,,*4B
$GPGSV,3,1,09,01,26,266,33,02,33,275,43,08,78,258,36,10,59,065,48,1*62
$GPGSV,3,2,09,14,08,328,,16,09,185,38,23,18,046,41,27,57,146,48,1*66
$GPGSV,3,3,09,32,25,123,50,1*5E
$GLGSV,3,1,10,65,17,026,43,66,50,075,46,67,34,151,39,73,25,311,45,1*70
$GLGSV,3,2,10,74,06,352,,80,23,251,45,81,47,078,48,82,65,338,43,1*78
$GLGSV,3,3,10,83,28,295,,88,00,099,09,1*7F
$GAGSV,3,1,10,02,19,193,36,04,11,031,,05,16,134,43,06,21,054,44,7*75
$GAGSV,3,2,10,09,27,079,46,15,23,266,29,27,27,311,43,30,44,249,,7*77
$GNRMC,190011.00,A,4843.26035,N,00920.55365,E,0.008,,080225,,,A,V*1B
$GNGGA,190011.00,4843.26035,N,00920.55365,E,1,12,0.46,247.6,M,47.6,M,,*4B
$GPGSV,3,1,09,01,26,266,34,02,33,275,43,08,78,258,36,10,59,065,48,1*65
$GPGSV,3,2,09,14,08,328,,16,09,185,37,23,18,046,41,27,57,146,48,1*69
$GPGSV,3,3,09,32,25,123,49,1*56
$GLGSV,3,1,10,65,17,026,43,66,50,075,46,67,34,151,40,73,25,311,45,1*7E
$GLGSV,3,2,10,74,06,352,,80,23,251,45,81,47,078,48,82,65,338,43,1*78
$GLGSV,3,3,10,83,28,295,,88,00,099,13,1*74
$GAGSV,3,1,10,02,19,193,36,04,11,031,,05,16,134,43,06,21,054,44,7*75
$GAGSV,3,2,10,09,27,079,46,15,23,266,29,27,27,311,43,30,44,249,,7*77
$GAGSV,3,3,10,34,74,298,36,36,46,069,34,7*7F
$GBGSV,3,1,12,02,04,100,38,05,19,122,41,08,12,041,32,11,15,291,,1*73
$GNRMC,190012.00,A,4843.26035,N,00920.55365,E,0.006,,080225,,,A,V*16
$GNGGA,190012.00,4843.26035,N,00920.55365,E,1,12,0.46,247.6,M,47.6,M,,*48
$GPGSV,3,1,09,01,26,266,34,02,33,275,43,08,78,258,36,10,59,065,48,1*65
$GPGSV,3,2,09,14,08,328,,16,09,185,37,23,18,046,41,27,57,146,49,1*68
$GPGSV,3,3,09,32,25,123,49,1*56
$GLGSV,3,2,10,74,06,352,,80,23,251,45,81,47,078,48,82,65,338,43,1*78
$GLGSV,3,3,10,83,28,295,,88,00,099,10,1*77
$GAGSV,3,1,10,02,19,193,35,04,11,031,,05,16,134,43,06,21,054,44,7*76
$GAGSV,3,2,10,09,27,079,46,15,23,266,29,27,27,311,43,30,44,249,,7*77
$GAGSV,3,3,10,34,74,298,36,36,46,069,34,7*7F
$GNRMC,190013.00,A,4843.26034,N,00920.55366,E,0.004,,080225,,,A,V*17
$GNGGA,190013.00,4843.26034,N,00920.55366,E,1,12,0.46,247.5,M,47.6,M,,*48
$GPGSV,3,1,09,01,26,266,34,02,33,275,43,08,78,258,36,10,59,065,48,1*65
$GPGSV,3,2,09,14,08,328,,16,09,185,37,23,18,046,41,27,57,146,49,1*68
$GPGSV,3,3,09,32,25,123,49,1*56
$GLGSV,3,1,10,65,17,026,43,66,50,075,46,67,34,151,41,73,25,311,45,1*7F
$GLGSV,3,2,10,74,06,352,,80,23,251,45,81,47,078,48,82,65,338,42,1*79
$GLGSV,3,3,10,83,28,295,,88,00,099,12,1*75
$GAGSV,3,1,10,02,19,193,35,04,11,031,,05,16,134,43,06,21,054,44,7*76
$GAGSV,3,2,10,09,27,079,46,15,23,266,29,27,27,311,43,30,44,249,,7*77
$GAGSV,3,3,10,34,74,298,36,36,46,069,34,7*7F
$GBGSV,3,1,12,02,04,100,38,05,19,122,41,08,12,041,32,11,15,291,,1*73
$GNRMC,190014.00,A,4843.26033,N,00920.55366,E,0.005,,080225,,,A,V*16
$GNGGA,190014.00,4843.26033,N,00920.55366,E,1,12,0.46,247.5,M,47.6,M,,*48
$GPGSV,3,1,09,01,26,266,34,02,33,275,44,08,78,258,37,10,59,065,48,1*63
$GPGSV,3,2,09,14,08,328,,16,09,185,37,23,18,046,41,27,57,146,49,1*68
$GPGSV,3,3,09,32,25,123,49,1*56
$GLGSV,3,1,10,65,17,026,43,66,50,075,47,67,34,151,42,73,25,311,45,1*7D
$GLGSV,3,2,10,74,06,352,,80,23,251,44,81,47,078,48,82,65,338,42,1*78
$GLGSV,3,3,10,83,28,295,,88,00,099,15,1*72
$GAGSV,3,1,10,02,19,193,35,04,11,031,,05,16,134,44,06,21,054,43,7*76
$GAGSV,3,2,10,09,27,079,46,15,23,266,28,27,27,311,43,30,44,249,,7*76
$GNRMC,190015.00,A,4843.26033,N,00920.55367,E,0.015,,080225,,,A,V*17
$GNGGA,190015.00,4843.26033,N,00920.55367,E,1,12,0.46,247.4,M,47.6,M,,*49
$GPGSV,3,1,09,01,26,266,35,02,33,275,44,08,78,258,37,10,59,065,48,1*62
$GPGSV,3,2,09,14,08,328,,16,09,185,37,23,18,046,41,27,57,146,49,1*68
$GPGSV,3,3,09,32,25,123,49,1*56
$GLGSV,3,1,10,65,17,026,43,66,50,075,47,67,34,151,42,73,25,311,45,1*7D
$GLGSV,3,2,10,74,06,352,,80,23,251,44,81,47,078,48,82,65,338,42,1*78
$GLGSV,3,3,10,83,28,295,,88,00,099,10,1*77
$GAGSV,3,1,10,02,19,193,34,04,11,031,,05,16,134,44,06,21,054,43,7*77
$GAGSV,3,2,10,09,27,079,46,15,23,266,29,27,27,311,43,30,44,249,,7*77
$GAGSV,3,3,10,34,74,298,36,36,46,069,35,7*7E
$GBGSV,3,1,12,02,04,100,38,05,19,122,41,08,12,041,32,11,15,291,,1*73
$GNRMC,190016.00,A,4843.26031,N,00920.55367,E,0.005,,080225,,,A,V*17
$GNGGA,190016.00,4843.26031,N,00920.55367,E,1,12,0.46,247.4,M,47.6,M,,*48
$GPGSV,3,1,09,01,26,266,35,02,33,275,44,08,78,258,37,10,59,065,48,1*62
$GPGSV,3,2,09,14,08,328,,16,09,185,37,23,18,046,41,27,57,146,49,1*68
$GPGSV,3,3,09,32,25,123,49,1*56
$GLGSV,3,1,10,65,17,026,43,66,50,075,47,67,34,151,43,73,25,311,45,1*7C
$GLGSV,3,2,10,74,06,352,,80,23,251,44,81,47,078,47,82,65,338,42,1*77
$GLGSV,3,3,10,83,28,295,,88,00,099,11,1*76
$GAGSV,3,1,10,02,19,193,33,04,11,031,,05,16,134,44,06,21,05,43,7*70
$GAGSV,3,2,10,09,27,079,46,15,23,266,29,27,27,311,43,30,44,249,,7*77
$GAGSV,3,3,10,34,74,298,36,36,46,069,36,7*7D
$GNRMC,190017.00,A,4843.26030,N,00920.55367,E,0.011,,080225,,,A,V*12
$GNGGA,190017.00,4843.26030,N,00920.55367,E,1,12,0.46,247.3,M,47.6,M,,*4F
$GPGSV,3,1,09,01,26,266,35,02,33,275,44,08,78,258,37,10,59,065,47,1*6D
$GPGSV,3,2,09,14,08,328,,16,09,185,37,23,18,046,42,27,57,146,49,1*6B
$GPGSV,3,3,09,32,25,123,49,1*56
$GLGSV,3,1,10,65,17,026,43,66,50,075,47,67,34,151,43,73,25,311,45,1*7C
$GLGSV,3,2,10,74,06,352,,80,23,251,44,81,47,078,47,82,65,338,42,1*77
$GLGSV,3,3,10,83,28,295,,88,00,099,14,1*73
$GAGSV,3,1,10,02,19,193,32,04,11,031,,05,16,134,44,06,21,054,43,7*71
$GAGSV,3,2,10,09,27,079,46,15,23,266,29,27,27,311,43,30,44,249,,7*77
$GAGSV,3,3,10,34,74,298,36,36,46,069,37,7*7C
$GNRMC,190018.00,A,4843.26029,N,00920.55367,E,0.013,,080225,,,A,V*17
$GNGGA,190018.00,4843.26029,N,00920.55367,E,1,12,0.46,247.2,M,47.6,M,,*49
$GPGSV,3,1,09,01,26,266,35,02,33,275,44,08,78,258,38,10,59,065,48,1*6D
$GPGSV,3,2,09,14,08,328,,16,09,185,37,23,18,046,42,27,57,146,49,1*6B
$GPGSV,3,3,09,32,25,123,49,1*56
$GLGSV,3,1,10,65,17,026,43,66,50,075,48,67,34,151,44,73,25,311,45,1*74
$GLGSV,3,2,10,74,06,352,,80,23,251,44,81,47,078,47,82,65,338,42,1*77
$GLGSV,3,3,10,83,28,295,,88,00,099,12,1*75
$GAGSV,3,1,10,02,19,193,32,04,11,031,,05,16,134,45,06,21,054,44,7*77
$GAGSV,3,2,10,09,27,079,46,15,23,266,30,27,27,311,43,30,44,249,,7*7F
$GAGSV,3,3,10,34,74,298,36,36,46,069,38,7*73
$GBGSV,3,1,12,02,04,100,38,05,19,122,41,08,12,041,31,11,15,291,,1*70
$GNRMC,190019.00,A,4843.26028,N,00920.55367,E,0.007,,080225,,,A,V*12
$GNGGA,190019.00,4843.26028,N,00920.55367,E,1,12,0.46,247.1,M,47.6,M,,*4A
$GPGSV,3,1,09,01,26,266,35,02,33,275,44,08,78,258,38,10,59,065,47,1*62
$GPGSV,3,2,09,14,08,328,,16,09,185,37,23,18,046,42,27,57,146,49,1*6B
$GPGSV,3,3,09,32,25,123,48,1*57
$GLGSV,3,1,10,65,17,026,43,66,50,075,48,67,34,151,44,73,25,311,45,1*74
$GLGSV,3,2,10,74,07,351,,80,23,251,44,81,47,078,46,82,65,338,41,1*77
$GLGSV,3,3,10,83,28,295,,88,00,099,11,1*76
$GAGSV,3,1,10,02,19,193,31,04,11,031,,05,16,134,45,06,21,054,44,7*74
$GAGSV,3,2,10,09,27,079,46,15,23,266,30,27,27,311,43,30,44,249,,7*7F
$GAGSV,3,3,10,34,74,298,36,36,46,069,38,7*73
$GNRMC,190020.00,A,4843.26027,N,00920.55367,E,0.012,,080225,,,A,V*13
$GNGGA,190020.00,4843.26027,N,00920.55367,E,1,12,0.46,247.1,M,47.6,M,,*4F
$GPGSV,3,1,09,01,26,266,36,02,33,275,44,08,78,258,38,10,59,065,47,1*61
$GPGSV,3,2,09,14,08,328,,16,09,185,37,23,18,046,42,27,57,146,49,1*6B
$GPGSV,3,3,09,32,25,123,48,1*57
$GLGSV,3,1,10,65,17,026,42,66,50,075,47,67,34,151,44,73,25,311,45,1*7A
$GLGSV,3,2,10,74,07,351,,80,23,251,44,81,47,078,46,82,65,338,41,1*77
$GLGSV,3,3,10,83,28,295,,88,00,099,14,1*73
$GAGSV,3,1,10,02,19,193,31,04,11,031,,05,16,134,45,06,21,054,44,7*74
$GAGSV,3,2,10,09,27,079,46,15,23,266,29,27,27,311,43,30,44,249,,7*77
$GAGSV,3,3,10,34,74,298,36,36,46,069,39,7*72
$GNRMC,190021.00,A,4843.26026,N,00920.55366,E,0.003,,080225,,,A,V*12
$GNGGA,190021.00,4843.26026,N,00920.55366,E,1,12,0.46,247.0,M,47.6,M,,*4F
$GPGSV,3,1,09,01,26,266,36,02,33,275,44,08,78,258,38,10,59,065,47,1*61
$GPGSV,3,2,09,14,08,328,,16,09,185,37,23,18,046,42,27,57,146,49,1*6B
$GPGSV,3,3,09,32,25,123,48,1*57
$GLGSV,3,1,10,65,17,026,42,66,50,075,48,67,34,151,44,73,25,311,46,1*76
$GLGSV,3,2,10,74,07,351,,80,23,251,44,81,47,078,46,82,65,338,41,1*77
$GLGSV,3,3,10,83,28,295,,88,00,099,14,1*73
$GAGSV,3,1,10,02,19,193,31,04,11,031,,05,16,134,45,06,21,054,44,7*74
$GNRMC,190022.00,A,4843.26025,N,00920.55366,E,0.004,,080225,,,A,V*15
$GNGGA,190022.00,4843.26025,N,00920.55366,E,1,12,0.46,246.9,M,47.6,M,,*47
$GPGSV,3,1,09,01,26,266,36,02,33,275,44,08,78,258,38,10,59,065,47,1*61
$GPGSV,3,2,09,14,08,328,,16,09,185,37,23,18,046,42,27,57,146,49,1*6B
$GPGSV,3,3,09,32,25,123,48,1*57
$GLGSV,3,1,10,65,17,026,42,66,50,075,48,67,34,151,44,73,25,311,46,1*76
$GLGSV,3,2,10,74,07,351,,80,23,251,44,81,47,078,46,82,65,338,41,1*77
$GLGSV,3,3,10,83,28,295,,88,00,099,12,1*75
$GAGSV,3,1,10,02,19,193,31,04,11,031,,05,16,134,45,06,21,054,44,7*74
$GAGSV,3,2,10,09,27,079,46,15,23,266,30,27,27,311,43,30,44,249,,7*7F
$GAGSV,3,3,10,34,74,298,36,36,46,069,39,7*72
$GNRMC,190023.00,A,4843.26023,N,00920.55365,E,0.011,,080225,,,A,V*15
$GNGGA,190023.00,4843.26023,N,00920.55365,E,1,12,0.46,246.9,M,47.6,M,,*43
$GPGSV,3,1,09,01,26,266,37,02,33,275,44,08,78,258,38,10,59,065,47,1*60
$GPGSV,3,2,09,14,08,328,,16,09,185,38,23,18,046,42,27,57,146,49,1*64
$GPGSV,3,3,09,32,25,123,48,1*57
$GLGSV,3,1,10,65,17,026,42,66,50,075,47,67,34,151,44,73,25,311,45,1*7A
$GLGSV,3,2,10,74,07,351,,80,23,251,44,81,47,078,45,82,65,338,41,1*74
$GLGSV,3,3,10,83,28,295,,88,00,099,13,1*74
$GAGSV,3,1,10,02,19,193,31,04,11,031,,05,16,134,45,06,21,054,43,7*73
$GAGSV,3,2,10,09,27,079,46,15,23,266,29,27,27,311,43,30,44,249,,7*77
$GAGSV,3,3,10,34,74,298,36,36,46,069,40,7*7C
$GNRMC,190024.00,A,4843.26022,N,00920.55364,E,0.006,,080225,,,A,V*14
$GNGGA,190024.00,4843.26022,N,00920.55364,E,1,12,0.46,246.8,M,47.6,M,,*45
$GPGSV,3,1,09,01,26,266,37,02,33,275,44,08,78,258,38,10,59,065,47,1*60
$GPGSV,3,2,09,14,08,328,,16,09,185,37,23,18,046,42,27,57,146,49,1*6B
$GPGSV,3,3,09,32,25,123,48,1*57
$GLGSV,3,1,10,65,17,026,42,66,50,075,47,67,34,151,45,73,25,311,46,1*78
$GLGSV,3,2,10,74,07,351,,80,23,251,44,81,47,078,45,82,65,338,41,1*74
$GLGSV,3,3,10,83,28,295,,88,00,099,11,1*76
$GAGSV,3,1,10,02,19,193,30,04,11,031,,05,16,134,46,06,21,054,43,7*71
$GAGSV,3,2,10,09,27,079,46,15,23,266,29,27,27,311,43,30,44,249,,7*77
$GAGSV,3,3,10,34,74,298,36,36,46,069,40,7*7C
$GNRMC,190025.00,A,4843.26021,N,00920.55363,E,0.006,,080225,,,A,V*11
$GNGGA,190025.00,4843.26021,N,00920.55363,E,1,12,0.46,246.7,M,47.6,M,,*4F
$GPGSV,3,1,09,01,26,266,37,02,33,275,44,08,78,258,38,10,59,065,48,1*6F
$GPGSV,3,2,09,14,08,328,,16,09,185,38,23,18,046,42,27,57,146,49,1*64
$GPGSV,3,3,09,32,25,123,48,1*57
$GLGSV,3,1,10,65,17,026,42,66,50,075,46,67,34,151,45,73,25,311,46,1*79
$GLGSV,3,2,10,74,07,351,,80,23,251,44,81,47,078,44,82,65,338,41,1*75
$GLGSV,3,3,10,83,28,295,,88,00,099,13,1*74
$GAGSV,3,1,10,02,19,193,29,04,11,031,,05,16,134,46,06,21,054,43,7*79
$GAGSV,3,2,10,09,27,079,46,15,23,266,30,27,27,31143,30,44,249,,7*7F
$GAGSV,3,3,10,34,74,298,36,36,46,069,40,7*7C
$GNRMC,190026.00,A,4843.26021,N,00920.55361,E,0.007,,080225,,,A,V*11
$GNGGA,190026.00,4843.26021,N,00920.55361,E,1,12,0.46,246.7,M,47.6,M,,*4E
$GPGSV,3,1,09,01,26,266,37,02,33,275,44,08,78,258,37,10,59,065,48,1*60
$GLGSV,3,1,10,65,17,026,42,66,50,075,46,67,34,151,45,73,25,311,46,1*79
$GLGSV,3,2,10,74,07,351,,80,23,251,43,81,47,078,44,82,65,338,41,1*72
$GLGSV,3,3,10,83,28,295,,88,00,099,10,1*77
$GAGSV,3,1,10,02,19,193,28,04,11,031,,05,16,134,46,06,21,054,43,7*78
$GAGSV,3,2,10,09,27,079,46,15,23,266,29,27,27,311,43,30,44,249,,7*77
$GAGSV,3,3,10,34,74,298,36,36,46,069,40,7*7C
$GNRMC,190027.00,A,4843.26021,N,00920.55360,E,0.004,,080225,,,A,V*12
$GNGGA,190027.00,4843.26021,N,00920.55360,E,1,12,0.46,246.7,M,47.6,M,,*4E
$GPGSV,3,1,09,01,26,266,37,02,33,275,44,08,78,258,37,10,59,065,48,1*60
$GPGSV,3,2,09,14,08,328,,16,09,185,37,23,18,046,42,27,57,146,49,1*6B
$GPGSV,3,3,09,32,25,123,49,1*56
$GLGSV,3,1,10,65,17,026,42,66,50,075,46,67,34,151,45,73,25,311,46,1*79
$GLGSV,3,2,10,74,07,351,,80,23,251,43,81,47,078,42,82,65,338,41,1*74
$GLGSV,3,3,10,83,28,295,,88,00,099,13,1*74
$GAGSV,3,1,10,02,19,193,26,04,11,031,,05,16,134,46,06,21,054,43,7*76
$GAGSV,3,2,10,09,27,079,46,15,23,266,29,27,27,311,43,30,44,249,,7*77
$GAGSV,3,3,10,34,74,298,36,36,46,069,41,7*7D
$GBGSV,3,1,12,02,04,100,37,05,19,122,41,08,12,041,30,11,15,291,,1*7E
$GNRMC,190028.00,A,4843.26021,N,00920.55358,E,0.007,,080225,,,A,V*15
$GNGGA,190028.00,4843.26021,N,00920.55358,E,1,12,0.46,246.6,M,47.6,M,,*4B
$GPGSV,3,1,09,01,26,266,38,02,33,275,43,08,78,258,37,10,59,065,48,1*68
$GPGSV,3,2,09,14,08,328,,16,09,185,38,23,18,046,42,27,57,146,49,1*64
$GPGSV,3,3,09,32,25,123,49,1*56
$GLGSV,3,1,10,65,17,026,42,66,50,075,46,67,34,151,46,73,25,311,46,1*7A
$GLGSV,3,2,10,74,07,351,,80,23,251,43,81,47,078,42,82,65,338,42,1*77
$GLGSV,3,3,10,83,29,296,,88,00,099,12,1*77
$GAGSV,3,1,10,02,19,193,24,04,11,031,,05,16,134,46,06,21,054,43,7*74
$GAGSV,3,2,10,09,27,079,46,15,23,266,29,27,27,311,43,30,44,249,,7*77
$GAGSV,3,3,10,34,74,298,36,36,46,069,41,7*7D
$GNRMC,190029.00,A,4843.26022,N,00920.55356,E,0.005,,080225,,,A,V*1B
$GNGGA,190029.00,4843.26022,N,00920.55356,E,1,12,0.46,246.6,M,47.6,M,,*47
$GPGSV,3,1,09,01,26,266,37,02,33,275,43,08,78,258,37,10,59,065,48,1*67
$GPGSV,3,2,09,14,08,328,,16,09,185,37,23,18,046,42,27,57,146,49,1*6B
$GPGSV,3,3,09,32,25,123,49,1*56
$GLGSV,3,1,10,65,17,026,42,66,50,075,46,67,34,151,47,73,25,311,45,1*78
$GLGSV,3,2,10,74,07,351,,80,23,251,43,81,47,078,41,82,65,338,42,1*74
$GLGSV,3,3,10,83,29,296,,88,00,099,14,1*71
$GAGSV,3,1,10,02,19,193,22,04,11,031,,05,16,134,47,06,21,054,43,7*73
$GAGSV,3,2,10,09,27,079,46,15,23,266,29,27,27,311,43,30,44,249,,7*77
$GAGSV,3,3,10,34,74,298,36,36,46,069,41,7*7D
$GNRMC,190030.00,A,4843.26023,N,00920.5536,E,0.012,,080225,,,A,V*14
$GNGGA,190030.00,4843.26023,N,00920.55356,E,1,12,0.46,246.6,M,47.6,M,,*4E
$GPGSV,3,1,09,01,26,266,37,02,33,275,43,08,78,258,36,10,59,065,48,1*66
$GPGSV,3,2,09,14,08,328,,16,09,185,37,23,18,046,42,27,57,146,49,1*6B
$GPGSV,3,3,09,32,25,123,49,1*56
$GLGSV,3,1,10,65,17,026,42,66,50,075,46,67,34,151,46,73,25,311,45,1*79
$GLGSV,3,2,10,74,07,351,,80,23,251,43,81,47,078,40,82,65,338,42,1*75
$GLGSV,3,3,10,83,29,296,,88,00,099,12,1*77
$GAGSV,3,1,10,02,19,193,20,04,11,031,,05,16,134,47,06,21,054,43,7*71
$GAGSV,3,2,10,09,27,079,46,15,23,266,29,27,27,311,43,30,44,249,,7*77
$GAGSV,3,3,10,34,74,298,37,36,46,069,42,7*7F
$GBGSV,3,1,12,02,04,100,38,05,19,122,41,08,12,041,29,11,15,291,,1*79
$GNRMC,190031.00,A,4843.26024,N,00920.55355,E,0.006,,080225,,,A,V*14
$GNGGA,190031.00,4843.26024,N,00920.55355,E,1,12,0.47,246.7,M,47.6,M,,*4B
$GPGSV,3,1,09,01,26,266,37,02,33,275,43,08,78,258,36,10,59,065,48,1*66
$GPGSV,3,2,09,14,08,328,,16,09,185,38,23,18,046,42,27,57,146,49,1*64
$GPGSV,3,3,09,32,25,123,49,1*56
$GLGSV,3,1,10,65,17,026,42,66,50,075,46,67,34,151,47,73,25,311,45,1*78
$GLGSV,3,2,10,74,07,351,,80,23,251,43,81,47,078,40,82,65,338,42,1*75
$GLGSV,3,3,10,83,29,296,,88,00,099,11,1*74
$GAGSV,3,1,10,02,19,193,17,04,11,031,,05,16,134,47,06,21,054,43,7*75
$GAGSV,3,2,10,09,27,079,46,15,23,266,30,27,27,311,43,30,44,249,,7*7F
$GAGSV,3,3,10,34,74,298,37,36,46,069,42,7*7F
$GNRMC,190032.00,A,4843.26025,N,00920.55354,E,0.008,,080225,,,A,V*19
$GNGGA,190032.00,4843.26025,N,00920.55354,E,1,12,0.47,246.7,M,47.6,M,,*48
$GPGSV,3,1,09,01,26,266,38,02,33,275,43,08,78,258,36,10,59,065,48,1*69
$GPGSV,3,2,09,14,08,328,,16,09,185,38,23,18,046,42,27,57,146,49,1*64
$GPGSV,3,3,09,32,25,123,49,1*56
$GLGSV,3,1,10,65,17,026,42,66,50,075,46,67,34,151,46,73,25,311,45,1*79
$GLGSV,3,2,10,74,07,351,,80,23,251,43,81,47,078,39,82,65,338,42,1*7B
$GLGSV,3,3,10,83,29,296,,88,00,099,13,1*76
$GNRMC,190033.00,A,4843.26026,N,00920.55353,E,0.007,,080225,,,A,V*13
$GNGGA,190033.00,4843.26026,N,00920.55353,E,1,12,0.47,246.6,M,47.6,M,,*4C
$GPGSV,3,1,09,01,26,266,38,02,33,275,43,08,78,258,36,10,59,065,48,1*69
$GPGSV,3,2,09,14,08,328,,16,09,185,37,23,18,046,42,27,57,146,49,1*6B
$GPGSV,3,3,09,32,25,123,49,1*56
$GLGSV,3,1,09,65,17,026,42,66,50,075,47,67,34,151,46,73,25,311,44,1*71
$GLGSV,3,2,09,74,07,351,,80,23,251,43,81,47,078,39,82,65,338,42,1*73
$GLGSV,3,3,09,83,29,296,,1*4C
$GAGSV,3,1,10,02,19,193,16,04,11,031,,05,16,134,47,06,21,054,43,7*74
$GAGSV,3,2,10,09,27,079,46,15,23,266,29,27,27,311,43,30,44,249,,7*77
$GAGSV,3,3,10,34,74,298,36,36,46,069,42,7*7E
$GNRMC,190034.00,A,4843.26026,N,00920.55353,E,0.004,,080225,,,A,V*17
$GNGGA,190034.00,4843.26026,N,00920.55353,E,1,12,0.47,246.6,M,47.6,M,,*4B
$GPGSV,3,1,09,01,26,266,38,02,33,275,43,08,78,258,35,10,59,065,48,1*6A
$GPGSV,3,2,09,14,08,328,,16,09,185,38,23,18,046,42,27,57,146,48,1*65
$GPGSV,3,3,09,32,25,123,49,1*56
$GLGSV,3,1,09,65,17,026,42,66,50,075,47,67,34,151,46,73,25,311,44,1*71
$GLGSV,3,2,09,74,07,351,,80,23,251,43,81,47,078,39,82,65,338,43,1*72
$GLGSV,3,3,09,83,29,296,37,1*48
$GAGSV,3,1,10,02,19,193,18,04,11,031,,05,16,134,47,06,21,054,43,7*7A
$GAGSV,3,2,10,09,27,079,46,15,23,266,29,27,27,311,43,30,44,249,,7*77
$GAGSV,3,3,10,34,74,298,37,36,46,069,42,7*7F
$GNRMC,190035.00,A,4843.26027,N,00920.55352,E,0.014,,080225,,,A,V*17
$GNGGA,190035.00,4843.26027,N,00920.55352,E,1,12,0.46,246.6,M,47.6,M,,*4B
$GPGSV,3,1,09,01,27,266,38,02,33,275,43,08,78,258,35,10,59,065,47,1*64
$GPGSV,3,2,09,14,08,328,,16,09,185,38,23,18,046,42,27,57,146,48,1*65
$GPGSV,3,3,09,32,25,123,49,1*56
$GLGSV,3,1,09,65,17,026,42,66,50,075,45,67,34,151,47,73,25,311,44,1*72
$GLGSV,3,2,09,74,07,351,,80,23,251,43,81,47,078,41,82,65,338,43,1*7D
$GLGSV,3,3,09,83,29,296,37,1*48
$GAGSV,3,1,10,02,19,193,21,04,11,031,,05,16,134,47,06,21,054,43,7*70
$GAGSV,3,2,10,09,27,079,46,15,23,266,28,27,27,311,43,30,44,249,,7*76
$GAGSV,3,3,10,34,74,298,37,36,46,069,42,7*7F
$GNRMC,190036.00,A,4843.26028,N,00920.55353,E,0.002,,080225,,,A,V*1D
$GNGGA,190036.00,4843.26028,N,00920.55353,E,1,12,0.46,246.6,M,47.6,M,,*46
$GPGSV,3,1,09,01,27,266,37,02,33,276,43,08,78,258,35,10,59,065,47,1*68
$GPGSV,3,2,09,14,08,328,,16,09,185,38,23,18,046,42,27,57,146,49,1*64
$GPGSV,3,3,09,32,25,123,48,1*57
$GLGSV,3,1,09,65,17,026,42,66,50,075,46,67,34,151,47,73,25,311,44,1*71
$GLGSV,3,2,09,74,07,351,,80,23,25,43,81,47,078,41,82,65,338,43,1*7D
$GLGSV,3,3,09,83,29,296,37,1*48
$GAGSV,3,1,10,02,19,193,25,04,11,031,,05,16,134,47,06,21,054,43,7*74
$GAGSV,3,2,10,09,27,079,46,15,23,266,28,27,27,311,43,30,44,249,,7*76
$GAGSV,3,3,10,34,74,298,37,36,46,069,43,7*7E
$GNRMC,190037.00,A,4843.26029,N,00920.55353,E,0.026,,080225,,,A,V*1B
$GNGGA,190037.00,4843.26029,N,00920.55353,E,1,12,0.46,246.5,M,47.6,M,,*45
$GPGSV,3,1,09,01,27,266,36,02,33,276,41,08,78,258,35,10,59,065,47,1*6B
$GPGSV,3,2,09,14,08,328,,16,09,185,37,23,18,046,42,27,57,146,49,1*6B
$GPGSV,3,3,09,32,25,123,48,1*57
$GLGSV,3,1,09,65,17,026,42,66,50,075,46,67,34,151,47,73,25,311,45,1*70
$GLGSV,3,2,09,74,07,351,,80,23,251,44,81,47,078,39,82,65,338,43,1*75
$GLGSV,3,3,09,83,29,296,32,1*4D
$GAGSV,3,1,10,02,19,193,28,04,11,031,,05,16,134,47,06,21,054,43,7*79
$GAGSV,3,2,10,09,27,079,46,15,23,266,29,27,27,311,41,30,44,249,,7*75
$GAGSV,3,3,10,34,74,298,37,36,46,069,43,7*7E
$GBGSV,3,1,12,02,04,100,38,05,19,122,41,08,12,041,29,11,15,291,,1*79
$GNRMC,190038.00,A,4843.26030,N,00920.55354,E,0.002,,080225,,,A,V*1D
$GNGGA,190038.00,4843.26030,N,00920.55354,E,1,12,0.46,246.5,M,47.6,M,,*45
$GPGSV,3,1,09,01,27,266,38,02,33,276,43,08,78,258,35,10,59,065,47,1*67
$GPGSV,3,2,09,14,08,328,,16,09,185,38,23,18,046,42,27,57,146,49,1*64
$GPGSV,3,3,09,32,25,123,49,1*56
$GLGSV,3,1,09,65,17,026,42,66,50,075,46,67,34,151,47,73,25,311,44,1*71
$GLGSV,3,2,09,74,07,351,,80,23,251,44,81,47,078,39,82,65,338,43,1*75
$GLGSV,3,3,09,83,29,296,36,1*49
$GAGSV,3,1,10,02,19,193,28,04,11,031,,05,16,134,47,06,21,054,43,7*79
$GAGSV,3,2,10,09,27,079,46,15,23,266,28,27,27,311,43,30,44,249,,7*76
$GAGSV,3,3,10,34,74,298,37,36,46,069,43,7*7E
$GNRMC,190039.00,A,4843.26031,N,00920.55354,E,0.013,,080225,,,A,V*1D
$GNGGA,190039.00,4843.26031,N,00920.55354,E,1,12,0.46,246.5,M,47.6,M,,*45
$GPGSV,3,1,09,01,27,266,38,02,33,276,43,08,78,258,34,10,59,065,47,1*66
$GPGSV,3,2,09,14,08,328,,16,09,185,38,23,18,046,42,27,57,146,48,1*65
$GPGSV,3,3,09,32,25,123,48,1*57
$GLGSV,3,1,09,65,17,026,42,66,50,075,46,67,34,151,48,73,25,311,43,1*79
$GLGSV,3,2,09,74,07,351,,80,23,251,44,81,47,078,38,82,65,338,42,1*75
$GLGSV,3,3,09,83,29,296,36,1*49
$GAGSV,3,1,10,02,19,193,29,04,11,031,,05,16,134,47,06,21,054,43,7*78
$GAGSV,3,2,10,09,27,079,46,15,23,266,27,27,27,311,42,30,44,249,,7*78
$GAGSV,3,3,10,34,74,298,37,36,46,069,44,7*79
$GNRMC,190040.00,A,4843.26032,N,00920.55354,E,0.014,,080225,,,A,V*17
$GNGGA,190040.00,4843.26032,N,00920.55354,E,1,12,0.46,246.5,M,47.6,M,,*48
$GPGSV,3,1,09,01,27,266,38,02,33,276,42,08,78,258,34,10,59,065,47,1*67
$GPGSV,3,2,09,14,08,328,,16,09,185,38,23,18,046,42,27,57,146,48,1*65
$GPGSV,3,3,09,32,25,123,49,1*56
$GLGSV,3,1,09,65,17,026,42,66,50,075,46,67,34,151,48,73,25,311,43,1*79
$GLGSV,3,2,09,74,07,351,,80,23,251,44,81,47,078,38,82,65,338,41,1*76
$GLGSV,3,3,09,83,29,296,36,1*49
$GAGSV,3,1,10,02,19,193,30,04,11,031,,05,16,134,47,06,21,054,43,7*70
$GAGSV,3,2,10,09,27,079,45,15,23,266,27,27,27,311,42,30,44,249,,7*7B
$GAGSV,3,3,10,34,74,298,37,36,46,069,43,7*7E
$GBGSV,3,1,12,02,04,100,38,05,19,122,41,08,12,041,29,11,15,291,,1*79
$GNRMC,190041.00,A,4843.26033,N,00920.55355,E,0.016,,080225,,,A,V*14
$GNGGA,190041.00,4843.26033,N,00920.55355,E,1,12,0.46,246.4,M,47.6,M,,*48
$GPGSV,3,1,09,01,27,266,37,02,33,276,42,08,78,258,35,10,59,065,46,1*68
$GPGSV,3,2,09,14,08,328,,16,09,185,37,23,18,046,42,27,57,146,49,1*6B
$GPGSV,3,3,09,32,25,123,49,1*56
$GLGSV,3,1,09,65,17,026,42,66,50,075,47,67,34,151,48,73,25,311,4,1*78
$GLGSV,3,2,09,74,07,351,,80,23,251,42,81,47,078,30,82,65,338,41,1*78
$GLGSV,3,3,09,83,29,296,37,1*48
$GAGSV,3,1,10,02,19,193,31,04,11,031,,05,16,134,48,06,21,054,42,7*7F
$GAGSV,3,2,10,09,27,079,45,15,23,266,28,27,27,311,39,30,44,249,,7*78
$GAGSV,3,3,10,34,74,298,37,36,46,069,44,7*79
$GNRMC,190042.00,A,4843.26034,N,00920.55354,E,0.017,,080225,,,A,V*10
$GNGGA,190042.00,4843.26034,N,00920.55354,E,1,12,0.45,246.4,M,47.6,M,,*4E
$GPGSV,3,1,09,01,27,266,37,02,33,276,42,08,78,254,34,10,59,065,45,1*66
$GPGSV,3,2,09,14,08,328,,16,09,185,38,23,18,046,42,27,57,146,49,1*64
$GPGSV,3,3,09,32,25,123,49,1*56
$GLGSV,3,1,09,65,17,026,42,66,50,075,45,67,34,151,48,73,25,311,43,1*7A
$GLGSV,3,2,09,74,07,351,,80,23,251,43,81,47,078,31,82,65,338,40,1*79
$GLGSV,3,3,09,83,29,296,33,1*4C
$GAGSV,3,1,10,02,19,193,31,04,11,031,,05,16,134,48,06,21,054,43,7*7E
$GAGSV,3,2,10,09,27,079,46,15,23,266,26,27,27,311,40,30,44,249,,7*7B
$GAGSV,3,3,10,34,74,298,37,36,46,069,44,7*79
$GBGSV,3,1,12,02,04,100,37,05,19,122,40,08,12,041,29,11,15,291,,1*77
$GNRMC,190043.00,A,4843.26036,N,00920.55354,E,0.001,,080225,,,A,V*14
$GNGGA,190043.00,4843.26036,N,00920.55354,E,1,12,0.45,246.3,M,47.6,M,,*4A
$GPGSV,3,1,09,01,27,266,38,02,33,276,43,08,78,254,35,10,59,065,47,1*6B
$GPGSV,3,2,09,14,08,328,,16,09,185,39,23,18,046,42,27,57,146,49,1*65
$GPGSV,3,3,09,32,25,123,48,1*57
$GLGSV,3,1,09,65,17,026,42,66,50,075,46,67,34,151,48,73,25,311,43,1*79
$GLGSV,3,2,09,74,07,351,,80,23,251,44,81,47,078,36,82,65,338,40,1*79
$GLGSV,3,3,09,83,29,296,35,1*4A
$GAGSV,3,1,10,02,19,193,32,04,11,031,,05,16,134,48,06,21,054,43,7*7D
$GAGSV,3,2,10,09,27,079,45,15,23,266,26,27,27,311,42,30,44,249,,7*7A
$GNRMC,190044.00,A,4843.26038,N,00920.55355,E,0.004,,080225,,,A,V*19
$GNGGA,190044.00,4843.26038,N,00920.55355,E,1,12,0.46,246.3,M,47.6,M,,*41
$GPGSV,3,1,09,01,27,266,38,02,33,276,43,08,78,254,35,10,58,064,47,1*6B
$GPGSV,3,2,09,14,08,328,,16,09,185,39,23,18,046,42,27,57,146,49,1*65
$GPGSV,3,3,09,32,25,123,48,1*57
$GLGSV,3,1,09,65,17,026,42,66,50,075,45,67,34,151,48,73,25,311,42,1*7B
$GLGSV,3,2,09,74,07,351,,80,23,251,44,81,47,078,36,82,65,338,40,1*79
$GLGSV,3,3,09,83,29,296,36,1*49
$GAGSV,3,1,10,02,19,193,32,04,11,031,,05,16,134,48,06,21,054,43,7*7D
$GAGSV,3,2,10,09,27,079,46,15,23,266,25,27,27,311,42,30,44,249,,7*7A
$GAGSV,3,3,10,34,74,298,37,36,46,069,44,7*79
$GNRMC,190045.00,A,4843.26041,N,00920.55355,E,0.009,,080225,,,A,V*1B
$GNGGA,190045.00,4843.26041,N,00920.55355,E,1,12,0.46,246.3,M,47.6,M,,*4E
$GPGSV,3,1,09,01,27,266,38,02,33,276,43,08,78,254,35,10,58,064,47,1*6B
$GPGSV,3,2,09,14,08,328,,16,09,185,39,23,18,046,42,27,57,146,49,1*65
$GPGSV,3,3,09,32,25,123,48,1*57
$GLGSV,3,1,09,65,17,026,41,66,50,075,45,67,34,151,48,73,25,311,42,1*78
$GLGSV,3,2,09,74,07,351,,80,23,251,44,81,47,078,36,82,65,338,41,1*78
$GLGSV,3,3,09,83,29,296,36,1*49
$GAGSV,3,1,10,02,19,193,33,04,11,031,,05,16,134,48,06,21,054,43,7*7C
$GAGSV,3,2,10,09,27,079,45,15,23,266,25,27,27,311,42,30,44,249,,7*79
$GAGSV,3,3,10,34,74,298,37,36,46,069,44,7*79
$GBGSV,3,1,12,02,04,100,38,05,19,122,41,08,12,041,29,11,15,291,,1*79
$GNRMC,190046.00,A,4843.26043,N,00920.55356,E,0.003,,080225,,,A,V*13
$GNGGA,190046.00,4843.26043,N,00920.55356,E,1,12,0.46,246.3,M,47.6,M,,*4C
$GPGSV,3,1,09,01,27,266,38,02,33,276,43,08,78,254,35,10,58,064,47,1*6B
$GPGSV,3,2,09,14,08,328,,16,09,185,39,23,18,046,42,27,57,146,49,1*65
$GPGSV,3,3,09,32,25,123,48,1*57
$GLGSV,3,1,09,65,17,026,41,66,50,075,45,67,34,151,48,73,25,311,42,1*78
$GLGSV,3,2,09,74,07,351,,80,23,251,44,81,47,078,35,82,65,338,41,1*7B
$GLGSV,3,3,09,83,29,296,36,1*49
$GAGSV,3,1,10,02,19,193,33,04,11,031,,05,16,134,48,06,21,054,43,7*7C
$GAGSV,3,2,10,09,27,079,45,15,23,266,26,27,27,311,42,30,44,249,,7*7A
$GNRMC,190047.00,A,4843.26045,N,00920.55356,E,0.009,,080225,,,A,V*1E
$GNGGA,190047.00,843.26045,N,00920.55356,E,1,12,0.46,246.3,M,47.6,M,,*4B
$GPGSV,3,1,09,01,27,266,38,02,33,276,43,08,78,254,35,10,58,064,47,1*6B
$GPGSV,3,2,09,14,08,328,,16,09,185,39,23,18,046,42,27,57,146,49,1*65
$GPGSV,3,3,09,32,25,123,48,1*57
$GLGSV,3,1,09,65,17,026,41,66,50,075,45,67,34,151,48,73,25,311,42,1*78
$GLGSV,3,2,09,74,07,351,,80,23,251,44,81,47,078,34,82,65,338,41,1*7A
$GLGSV,3,3,09,83,29,296,36,1*49
$GAGSV,3,1,10,02,19,193,34,04,11,031,,05,16,134,48,06,21,054,43,7*7B
$GAGSV,3,2,10,09,27,079,45,15,23,266,25,27,27,311,42,30,44,249,,7*79
$GAGSV,3,3,10,34,74,298,36,36,46,069,44,7*78
$GBGSV,3,1,12,02,04,100,37,05,19122,41,08,12,041,30,11,15,291,,1*7E
$GNRMC,190048.00,A,4843.26048,N,00920.55356,E,0.009,,080225,,,A,V*1C
$GNGGA,190048.00,4843.26048,N,00920.55356,E,1,12,0.46,246.3,M,47.6,M,,*49
$GPGSV,3,1,09,01,27,266,38,02,33,276,43,08,78,254,35,10,58,064,47,1*6B
$GPGSV,3,2,09,14,09,328,,16,09,185,39,23,18,046,42,27,57,146,49,1*64
$GPGSV,3,3,09,32,25,123,48,1*57
$GLGSV,3,1,09,65,17,026,41,66,50,075,45,67,34,151,48,73,25,311,41,1*7B
$GLGSV,3,2,09,74,07,351,,80,23,251,44,81,47,078,36,82,65,338,41,1*78
$GLGSV,3,3,09,83,29,296,36,1*49
$GAGSV,3,1,10,02,19,193,34,04,11,031,,05,16,134,48,06,21,054,43,7*7B
$GAGSV,3,2,10,09,27,079,45,15,23,266,26,27,27,311,42,30,44,249,,7*7A
$GAGSV,3,3,10,34,74,298,36,36,46,069,44,7*78
$GBGSV,3,1,12,02,04,100,37,05,19,122,41,08,12,041,30,11,15,291,,1*7E
$GNRMC,190049.00,A,4843.26050,N,00920.55357,E,0.018,,080225,,,A,V*15
$GNGGA,190049.00,4843.26050,N,00920.55357,E,1,12,0.46,246.3,M,47.6,M,,*40
$GPGSV,3,1,09,01,27,266,39,02,33,276,43,08,78,254,35,10,58,064,47,1*6A
$GPGSV,3,2,09,14,09,328,,16,09,185,39,23,18,046,42,27,57,146,49,1*64
$GPGSV,3,3,09,32,25,123,48,1*57
$GLGSV,3,1,09,65,17,026,41,66,50,075,44,67,34,151,48,73,25,311,41,1*7A
$GLGSV,3,2,09,74,07,351,,80,23,251,44,81,47,078,37,82,65,338,41,1*79
$GLGSV,3,3,09,83,29,296,36,1*49
$GAGSV,3,1,10,02,19,193,35,04,11,031,,05,16,134,48,06,21,054,43,7*7A
$GAGSV,3,2,10,09,27,079,45,15,23,266,25,27,27,311,42,30,44,249,,7*79
$GNRMC,190050.00,A,4843.26052,N,00920.55358,E,0.014,,080225,,,A,V*1C
$GNGGA,190050.00,4843.26052,N,00920.55358,E,1,12,0.46,246.3,M,47.6,M,,*45
$GPGSV,3,1,09,01,27,266,39,02,33,276,44,08,78,254,36,10,58,064,47,1*6E
$GPGSV,3,2,09,14,09,328,,16,08,185,39,23,18,046,42,27,57,146,48,1*64
$GPGSV,3,3,09,32,25,123,48,1*57
$GLGSV,3,1,09,65,17,026,42,66,50,075,44,67,34,151,48,73,25,311,42,1*7A
$GLGSV,3,2,09,74,07,351,,80,23,251,44,81,47,078,40,82,65,338,41,1*79
$GLGSV,3,3,09,83,29,296,36,1*49
$GAGSV,3,1,10,02,19,193,35,04,11,031,,05,16,134,48,06,21,054,43,7*7A
$GAGSV,3,2,10,09,27,079,45,15,23,266,27,27,27,311,40,30,44,249,,7*79
$GAGSV,3,3,10,34,74,298,36,36,46,069,44,7*78
$GBGSV,3,1,12,02,04,100,37,05,19,122,41,08,12,041,30,11,15,291,,1*7E
$GNRMC,190051.00,A,4843.26055,N,00920.55358,E,0.011,,080225,,,A,V*1F
$GNGGA,190051.00,4843.26055,N,00920.55358,E,1,12,0.46,246.3,M,47.6,M,,*43
$GPGSV,3,1,09,01,27,266,39,02,33,276,44,08,78,254,36,10,58,064,47,1*6E
$GPGSV,3,2,09,14,09,328,,16,08,185,40,23,18,046,42,27,57,146,48,1*6A
$GLGSV,3,1,09,65,17,026,41,66,50,075,44,67,34,151,48,73,25,311,42,1*79
$GLGSV,3,2,09,74,07,351,,80,23,251,44,81,47,078,38,82,65,338,41,1*76
$GLGSV,3,3,09,83,29,296,36,1*49
$GAGSV,3,1,10,02,19,93,36,04,11,031,,05,16,134,48,0621,054,43,7*79
$GAGSV,3,2,10,09,27,079,45,15,23,266,27,27,27,311,42,30,44,249,,7*7B
$GAGSV,3,3,10,34,74,298,36,36,46,069,44,7*78
$GBGSV,3,1,12,02,04,100,37,05,19,122,41,08,12,041,29,11,15,291,,1*76
$GNRMC,190052.00,A,4843.26057,N,00920.55359,E,0.004,,080225,,,A,V*1B
$GNGGA,190052.00,4843.26057,N,00920.55359,E,1,12,0.46,246.3,M,47.6,M,,*43
$GPGSV,3,1,09,01,27,266,39,02,33,276,44,08,78,254,36,10,58,064,47,1*6E
$GPGSV,3,2,09,14,09,328,,16,08,185,40,23,18,046,42,27,57,146,48,1*6A
$GPGSV,3,3,09,32,25,123,48,1*57
$GLGSV,3,1,09,65,17,026,42,66,50,075,44,67,34,151,48,73,25,311,42,1*7A
$GLGSV,3,2,09,74,07,351,,80,23,251,44,81,47,078,39,82,65,338,40,1*76
$GLGSV,3,3,09,83,29,296,36,1*49
$GAGSV,3,1,10,02,19,193,36,04,11,031,,05,16,134,48,06,21,054,43,7*79
$GAGSV,3,2,10,09,27,079,45,15,23,266,26,27,27,311,42,30,44,249,,7*7A
$GAGSV,3,3,10,34,74,298,36,36,46,069,44,7*78
$GNRMC,190053.00,A,4843.26060,N,00920.55360,E,0.010,,080225,,,A,V*11
$GNGGA,190053.00,4843.26060,N,00920.55360,E,1,12,0.46,246.4,M,47.6,M,,*4B
$GPGSV,3,1,09,01,27,266,39,02,33,276,44,08,78,254,36,10,58,064,46,1*6F
$GPGSV,3,2,09,14,09,328,,16,08,185,40,23,18,046,42,27,57,146,48,1*6A
$GPGSV,3,3,09,32,25,123,49,1*56
$GLGSV,3,1,09,65,17,026,42,66,50,075,44,67,34,151,47,73,25,311,42,1*75
$GLGSV,3,2,09,74,07,351,,80,23,251,44,81,47,078,40,82,65,338,40,1*78
$GLGSV,3,3,09,83,29,296,36,1*49
$GAGSV,3,1,10,02,19,193,37,04,11,031,,05,16,134,48,06,21,054,43,7*78
$GAGSV,3,2,10,09,27,079,45,15,23,266,26,27,27,311,41,30,44,249,,7*79
$GAGSV,3,3,10,34,74,298,36,36,46,069,44,7*78
$GBGSV,3,1,12,02,04,100,37,05,19,122,41,08,12,041,30,11,15,291,,1*7E
$GBGSV,3,2,12,12,68,305,,13,20,045,41,19,32,051,46,21,21,180,,1*7D
$GNRMC,190054.00,A,4843.26062,N,00920.55361,E,0.006,,080225,,,A,V*12
$GNGGA,190054.00,4843.26062,N,00920.55361,E,1,12,0.45,246.4,M,47.6,M,,*4C
$GPGSV,3,1,09,01,27,266,39,02,33,276,43,08,78,254,35,10,58,064,47,1*6A
$GPGSV,3,2,09,14,09,328,,16,08,185,40,23,18,046,41,27,57,146,48,1*69
$GPGSV,3,3,09,32,25,123,48,1*57
$GLGSV,3,1,09,65,17,026,42,66,50,075,44,67,34,151,47,73,25,311,42,1*75
$GLGSV,3,2,09,74,07,351,,80,23,251,44,81,47,078,39,82,65,338,39,1*78
$GLGSV,3,3,09,83,29,296,35,1*4A
$GAGSV,3,1,10,02,19,193,36,04,11,031,,05,16,134,48,06,21,054,43,7*79
$GAGSV,3,2,10,09,27,079,45,15,23,266,25,27,27,311,41,30,44,249,,7*7A
$GNRMC,190055.00,A,4843.26064,N,00920.55362,E,0.006,,080225,,,A,V*16
$GNGGA,190055.00,4843.26064,N,00920.55362,E,1,12,0.45,246.5,M,47.6,M,,*49
$GPGSV,3,1,09,01,27,266,40,02,33,276,44,08,78,254,35,10,58,064,46,1*62
$GPGSV,3,2,09,14,09,328,,16,08,185,40,23,18,046,42,27,57,146,48,1*6A
$GPGSV,3,3,09,32,25,123,48,1*57
$GLGSV,3,1,09,65,17,026,42,66,50,075,44,67,34,151,47,73,25,311,42,1*75
$GLGSV,3,2,09,74,07,351,,80,23,251,44,81,47,078,39,82,65,338,39,1*78
$GLGSV,3,3,09,83,29,296,36,1*49
$GAGSV,3,1,10,02,19,193,37,04,11,031,,05,16,134,48,06,21,054,43,7*78
$GAGSV,3,2,10,09,27,079,45,15,23,266,25,27,27,311,41,30,44,249,,7*7A
$GAGSV,3,3,10,34,74,298,35,36,46,069,43,7*7C
$GNRMC,190056.00,A,4843.26066,N,00920.55363,E,0.010,,080225,,,A,V*11
$GNGGA,190056.00,4843.26066,N,00920.55363,E,1,12,0.45,246.5,M,47.6,M,,*49
$GPGSV,3,1,09,01,27,266,39,02,33,276,44,08,78,254,35,10,58,064,46,1*6C
$GPGSV,3,2,09,14,09,328,,16,08,185,40,23,18,046,42,27,57,146,48,1*6A
$GPGSV,3,3,09,32,25,123,48,1*57
$GLGSV,3,1,09,65,17,026,42,66,50,075,44,67,34,151,47,73,25,311,42,1*75
$GLGSV,3,2,09,74,07,351,,80,23,251,45,81,47,078,39,82,65,338,39,1*79
$GLGSV,3,3,09,83,29,296,36,1*49
$GAGSV,3,1,10,02,19,193,38,04,11,031,,05,16,134,48,06,21,054,43,7*77
$GAGSV,3,2,10,09,27,079,45,15,23,266,25,27,27,311,41,30,44,249,,7*7A
$GAGSV,3,3,10,34,74,298,35,36,46,069,44,7*7B
$GNRMC,190057.00,A,4843.26069,N,00920.55365,E,0.006,,080225,,,A,V*1E
$GNGGA,190057.00,4843.26069,N,00920.55365,E,1,12,0.45,246.6,M,47.6,M,,*42
$GPGSV,3,1,09,01,27,266,39,02,33,276,44,08,78,254,34,10,58,064,46,1*6D
$GPGSV,3,2,09,14,09,328,,16,08,185,40,23,18,046,42,27,57,146,48,1*6A
$GPGSV,3,3,09,32,25,123,49,1*56
$GLGSV,3,1,09,65,17,026,42,66,50,075,45,67,34,151,47,73,25,311,42,1*74
$GLGSV,3,2,09,74,07,351,,80,23,251,45,81,47,078,40,82,65,338,40,1*79
$GLGSV,3,3,09,83,29,296,37,1*48
$GAGSV,3,1,10,02,19,193,38,04,11,031,,05,16,134,48,06,21,054,43,7*77
$GAGSV,3,2,10,09,27,079,45,15,23,266,24,27,27,311,41,30,44,249,,7*7B
$GAGSV,3,3,10,34,74,298,35,36,46,069,44,7*7B
$GNRMC,190058.00,A,4843.26071,N,00920.55366,E,0.013,,080225,,,A,V*1F
$GNGGA,190058.00,4843.26071,N,00920.55366,E,1,12,0.45,246.7,M,47.6,M,,*46
$GPGSV,3,1,09,01,27,266,39,02,33,276,44,08,78,254,34,10,58,064,46,1*6D
$GPGSV,3,2,09,14,09,328,,16,08,185,40,23,18,046,42,27,57,146,48,1*6A
$GPGSV,3,3,09,32,25,123,49,1*56
$GLGSV,3,1,09,65,17,026,41,66,50,075,44,67,34,151,47,73,25,311,42,1*76
$GLGSV,3,2,09,74,07,351,,80,23,251,45,81,47,078,40,82,65,338,40,1*79
$GLGSV,3,3,09,83,29,296,37,1*48
$GAGSV,3,1,10,02,19,193,38,04,11,031,,0516,134,48,06,21,054,43,7*77
$GAGSV,3,2,10,09,27,079,45,15,23,266,24,27,27,311,41,30,44,249,,7*7B
$GAGSV,3,3,10,34,74,298,35,36,46,069,44,7*7B
$GBGSV,3,1,12,02,04,100,37,05,19,122,41,08,12,041,30,11,15,291,,1*7E
$GNRMC,190059.00,A,4843.26073,N,00920.55366,E,0.003,,080225,,,A,V*1D
$GNGGA,190059.00,4843.26073,N,00920.55366,E,1,12,0.45,246.8,M,47.6,M,,*4A
$GPGSV,3,1,09,01,27,266,40,02,33,276,44,08,78,254,35,10,58,064,46,1*62
$GPGSV,3,2,09,14,09,328,,16,08,185,40,23,18,046,42,27,57,146,48,1*6A
$GPGSV,3,3,09,32,25,123,49,1*56
$GLGSV,3,1,09,65,17,026,41,66,50,075,44,67,34,151,47,73,25,311,42,1*76
$GLGSV,3,2,09,74,07,351,,80,23,251,45,81,47,078,39,82,65,338,41,1*76
$GLGSV,3,3,09,83,29,296,37,1*48
$GAGSV,3,1,10,02,19,193,38,04,11,031,,05,16,134,48,06,21,054,43,7*77
$GAGSV,3,2,10,09,27,079,45,15,23,266,23,27,27,311,41,30,44,249,,7*7C
$GAGSV,3,3,10,34,74,298,35,36,46,069,44,7*7B
$GNRMC,190100.00,A,4843.26075,N,00920.55366,E,0.006,,080225,,,A,V*13
$GNGGA,190100.00,4843.26075,N,00920.55366,E,1,12,0.45,246.9,M,47.6,M,,*40
$GPGSV,3,1,09,01,27,266,40,02,33,276,44,08,78,254,35,10,58,064,46,1*62
$GPGSV,3,2,09,14,09,328,,16,08,185,40,23,18,046,42,27,56,146,47,1*64
$GPGSV,3,3,09,32,25,123,49,1*56
$GLGSV,3,1,09,65,17,026,41,66,50,075,44,67,34,151,46,73,25,311,42,1*77
$GLGSV,3,2,09,74,07,351,,80,23,251,45,81,47,078,39,82,65,338,42,1*75
$GLGSV,3,3,09,83,29,296,37,1*48
$GAGSV,3,1,10,02,19,193,39,04,11,031,,05,16,134,48,06,21,054,43,7*76
$GAGSV,3,2,10,09,27,079,45,15,23,266,24,27,27,311,41,30,44,249,,7*7B
$GAGSV,3,3,10,34,74,298,35,36,46,069,44,7*7B
$GNRMC,190101.00,A,4843.26076,N,00920.55367,E,0.008,,080225,,,A,V*1E
$GNGGA,190101.00,4843.26076,N,00920.55367,E,1,12,0.46,247.0,M,47.6,M,,*48
$GPGSV,3,1,09,01,27,266,39,02,33,276,44,08,78,254,35,10,58,064,46,1*6C
$GPGSV,3,2,09,14,09,328,,16,08,185,40,23,18,046,42,27,56,146,47,1*64
$GPGSV,3,3,09,32,25,123,49,1*56
$GLGSV,3,1,09,65,17,026,41,66,50,075,44,67,34,151,46,73,25,311,42,1*77
$GLGSV,3,2,09,7,07,351,,80,23,251,45,81,47,078,39,82,65,338,42,1*75
$GLGSV,3,3,09,83,29,296,37,1*48
$GAGSV,3,1,10,02,19,193,39,04,11,031,,05,16,134,48,06,21,054,43,7*76
$GAGSV,3,2,10,09,27,079,45,15,23,266,25,27,27,311,42,30,44,249,,7*79
$GAGSV,3,3,10,34,74,298,35,36,46,069,44,7*7B
$GBGSV,3,1,12,02,04,100,38,05,19,122,41,08,12,041,31,11,15,291,,1*70
$GNRMC,190102.00,A,4843.26077,N,00920.5538,E,0.008,,080225,,,A,V*13
$GNGGA,190102.00,4843.26077,N,00920.55368,E,1,12,0.46,247.1,M,47.6,M,,*44
$GPGSV,3,1,09,01,27,266,39,02,33,276,44,08,78,254,36,10,58,064,46,1*6F
$GPGSV,3,2,09,14,09,328,,16,08,185,40,23,18,046,42,27,56,146,47,1*64
$GPGSV,3,3,09,32,25,123,49,1*56
$GLGSV,3,1,09,65,17,026,41,66,50,075,44,67,34,151,46,73,25,311,42,1*77
$GLGSV,3,2,09,74,07,351,,80,23,251,45,81,47,078,39,82,65,338,43,1*74
$GLGSV,3,3,09,83,29,296,36,1*49
$GAGSV,3,1,10,02,19,193,39,04,11,031,,05,16,134,48,06,21,054,43,7*76
$GAGSV,3,2,10,09,27,079,45,15,23,266,25,27,27,311,42,30,44,249,,7*79
$GAGSV,3,3,10,3,74,298,35,36,46,069,44,7*7B
$GNRMC,190103.00,A,4843.26078,N,00920.55369,E,0.002,,080225,,,A,V*16
$GNGGA,190103.00,4843.26078,N,00920.55369,E,1,12,0.46,247.2,M,47.6,M,,*48
$GPGSV,3,1,09,01,27,266,39,02,33,276,45,08,78,254,36,10,58,064,46,1*6E
$GPGSV,3,2,09,14,09,328,,16,08,185,40,23,18,046,42,27,56,146,47,1*64
$GPGSV,3,3,09,32,25,123,49,1*56
$GLGSV,3,1,09,65,17,026,41,66,50,075,44,67,34,151,45,73,25,311,42,1*74
$GLGSV,3,2,09,74,07,351,,80,23,251,45,81,47,078,39,82,65,338,43,1*74
$GLGSV,3,3,09,83,29,296,36,1*49
$GAGSV,3,1,10,02,19,193,39,04,11,031,,05,16,134,49,06,21,054,44,7*70
$GNRMC,190104.00,A,4843.26080,N,00920.55370,E,0.011,,080225,,,A,V*1C
$GNGGA,190104.00,4843.26080,N,00920.55370,E,1,12,0.46,247.3,M,47.6,M,,*41
$GPGSV,3,1,09,01,27,266,39,02,33,276,44,08,78,254,36,10,58,064,46,1*6F
$GPGSV,3,2,09,14,09,328,,16,08,185,40,23,18,046,42,27,56,146,47,1*64
$GPGSV,3,3,09,32,25,123,49,1*56
$GLGSV,3,1,09,65,17,026,41,66,50,075,43,67,34,151,46,73,25,311,42,1*70
$GLGSV,3,2,09,74,07,351,,80,23,251,45,81,47,078,40,82,65,338,43,1*7A
$GLGSV,3,3,09,83,29,296,36,1*49
$GAGSV,3,1,10,02,19,193,40,04,11,031,,05,16,134,49,06,21,054,44,7*7E
$GAGSV,3,2,10,09,27,079,45,15,23,266,26,27,27,311,42,30,44,249,,7*7A
$GAGSV,3,3,10,34,74,298,36,36,46,069,45,7*79
$GNRMC,190105.00,A,4843.26081,N,00920.55371,E,0.013,,080225,,,A,V*1F
$GNGGA,190105.00,4843.26081,N,00920.55371,E,1,12,0.46,247.5,M,47.6,M,,*46
$GPGSV,3,2,09,14,09,328,,16,08,185,40,23,18,046,42,27,56,146,46,1*65
$GPGSV,3,3,09,32,25,123,49,1*56
$GLGSV,3,1,09,65,17,026,41,66,50,075,44,67,34,151,46,73,25,311,42,1*77
$GLGSV,3,2,09,74,07,351,,80,23,251,45,81,47,078,40,82,65,338,43,1*7A
$GLGSV,3,3,09,83,29,296,35,1*4A
$GAGSV,3,1,10,02,19,193,40,04,11,031,,05,16,134,49,06,21,054,44,7*7E
$GAGSV,3,2,10,09,27,079,45,15,23,266,25,27,27,311,42,30,44,249,,7*79
$GAGSV,3,3,10,34,74,298,36,36,46,069,45,7*79
$GNRMC,190106.00,A,4843.26083,N,00920.55373,E,0.001,,080225,,,A,V*1F
$GNGGA,190106.00,4843.26083,N,00920.55373,E,1,12,0.46,247.6,M,47.6,M,,*46
$GPGSV,3,1,09,01,27,266,38,02,33,276,45,08,78,254,36,10,58,064,45,1*6C
$GPGSV,3,2,09,14,09,328,,16,08,185,39,23,18,046,42,27,56,146,46,1*6B
$GPGSV,3,3,09,32,25,123,49,1*56
$GLGSV,3,1,09,65,17,026,41,66,50,075,44,67,34,151,46,73,25,311,42,1*77
$GLGSV,3,2,09,74,07,351,,80,23,251,45,81,47,078,41,82,65,338,43,1*7B
$GLGSV,3,3,09,83,29,296,35,1*4A
$GAGSV,3,1,10,02,19,193,40,04,11,031,,05,16,134,49,06,21,054,44,7*7E
$GAGSV,3,2,10,09,27,079,45,15,23,266,25,27,27,311,42,30,44,249,,7*79
$GAGSV,3,3,10,34,74,298,36,36,46,069,45,7*79
$GNRMC,190107.00,A,4843.26085,N,00920.55376,E,0.008,,080225,,,A,V*14
$GNGGA,190107.00,4843.26085,N,00920.55376,E,1,12,0.46,247.8,M,47.6,M,,*4A
$GPGSV,3,1,09,01,27,266,39,02,33,276,45,08,78,254,36,10,58,064,45,1*6D
$GPGSV,3,2,09,14,09,328,,16,08,185,39,23,18,046,42,27,56,146,46,1*6B
$GPGSV,3,3,09,32,25,123,50,1*5E
$GLGSV,3,1,09,65,17,026,41,66,50,075,44,67,34,151,46,73,25,311,42,1*77
$GLGSV,3,2,09,74,07,351,,80,23,251,45,81,47,078,41,82,65,338,43,1*7B
$GLGSV,3,3,09,83,29,296,35,1*4A
$GAGSV,3,1,10,02,19,193,40,04,11,031,,05,16,134,49,06,21,054,44,7*7E
$GAGSV,3,2,10,09,27,079,45,15,23,266,25,27,27,311,42,30,44,249,,7*79
$GBGSV,3,1,12,02,04,100,37,05,19,122,41,08,12,041,32,11,15,291,,1*7C
$GNRMC,190108.00,A,4843.26086,N,00920.55379,E,0.006,,080225,,,A,V*19
$GNGGA,190108.00,4843.26086,N,00920.55379,E,1,12,0.46,248.0,M,47.6,M,,*4E
$GPGSV,3,1,09,01,27,266,39,02,33,276,45,08,78,254,36,10,58,064,45,1*6D
$GPGSV,3,2,09,14,09,328,,16,08,185,40,23,18,046,42,27,56,146,46,1*65
$GPGSV,3,3,09,32,25,123,49,1*56
$GLGSV,3,1,09,65,17,026,41,66,50,075,44,67,34,151,46,73,25,311,43,1*76
$GLGSV,3,2,09,74,07,351,,80,23,251,45,81,47,078,42,82,65,338,44,1*7F
$GLGSV,3,3,09,83,29,296,34,1*4B
$GAGSV,3,1,10,02,18,193,40,04,11,031,,05,16,134,49,06,21,054,44,7*7F
$GAGSV,3,2,10,09,27,079,45,15,23,266,25,27,27,311,42,30,44,249,,7*79
$GNRMC,190109.00,A,4843.26088,N,00920.55383,E,0.008,,080225,,,A,V*1D
$GNGGA,190109.00,4843.26088,N,00920.55383,E,1,12,0.47,248.2,M,47.6,M,,*47
$GPGSV,3,1,09,01,27,266,39,02,33,276,45,08,78,254,35,10,58,064,44,1*6F
$GPGSV,3,2,09,14,09,328,,16,08,185,39,23,18,046,42,27,56,146,47,1*6A
$GPGSV,3,3,09,32,25,123,49,1*56
$GLGSV,3,1,09,65,17,026,41,66,50,075,44,67,34,151,46,73,25,31,43,1*76
$GLGSV,3,2,09,74,07,351,,80,23,251,45,81,47,078,42,82,65,338,44,1*7F
$GLGSV,3,3,09,83,29,296,34,1*4B
$GAGSV,3,1,10,02,18,193,40,04,11,031,,05,16,134,49,06,21,054,44,7*7F
$GAGSV,3,2,10,09,27,079,45,15,23,266,26,27,27,311,42,30,44,249,,7*7A
$GAGSV,3,3,10,34,74,298,36,36,46,069,45,7*79
$GBGSV,3,1,12,02,04,100,37,05,19,122,41,08,12,041,32,11,15,291,,1*7C
$GNRMC,190110.00,A,4843.26089,N,00920.55387,E,0.015,,080225,,,A,V*1C
$GNGGA,190110.00,4843.26089,N,00920.55387,E,1,12,0.48,248.4,M,47.6,M,,*43
$GPGSV,3,1,09,01,27,266,38,02,33,276,45,08,78,254,35,10,58,064,44,1*6E
$GPGSV,3,2,09,14,09,328,,16,08,185,39,23,18,046,42,27,56,146,46,1*6B
$GPGSV,3,3,09,32,25,123,50,1*5E
$GLGSV,3,1,09,65,17,026,41,66,50,075,44,67,34,151,46,73,25,311,43,1*76
$GLGSV,3,2,09,74,07,351,,80,23,251,45,81,47,078,43,82,65,338,43,1*79
$GLGSV,3,3,09,83,29,296,34,1*4B
$GAGSV,3,1,10,02,18,193,40,04,11,030,,05,16,134,49,06,21,054,44,7*7E
$GAGSV,3,2,10,09,27,079,45,15,23,266,26,27,27,311,42,30,44,249,,7*7A
$GAGSV,3,3,10,34,74,298,36,36,46,069,45,7*79
$GBGSV,3,1,12,02,04,100,38,05,19,122,41,08,12,041,32,11,15,291,,1*73
$GNRMC,190111.00,A,4843.26090,N,00920.55390,E,0.026,,080225,,,A,V*13
$GNGGA,190111.00,4843.26090,N,00920.55390,E,1,12,0.48,248.5,M,47.6,M,,*4D
$GPGSV,3,1,09,01,27,266,38,02,33,276,45,08,78,254,34,10,58,064,44,1*6F
$GPGSV,3,2,09,14,09,328,,16,08,185,40,23,18,046,42,27,56,146,47,1*64
$GPGSV,3,3,09,32,25,123,50,1*5E
$GLGSV,3,1,09,65,17,026,41,66,50,075,44,67,34,151,44,73,25,311,42,1*75
$GLGSV,3,2,09,74,07,351,,80,23,251,45,81,47,078,44,82,65,338,43,1*7E
$GLGSV,3,3,09,83,29,296,34,1*4B
$GAGSV,3,1,10,02,18,193,40,04,11,030,,05,17,133,49,06,21,054,44,7*78
$GNRMC,190112.00,A,4843.26090,N,00920.55394,E,0.006,,080225,,,A,V*16
$GNGGA,190112.00,4843.26090,N,00920.55394,E,1,12,0.45,248.7,M,47.6,M,,*45
$GPGSV,3,1,09,01,27,266,38,02,33,276,45,08,78,254,34,10,58,064,44,1*6F
$GPGSV,3,2,09,14,09,328,,16,08,185,39,23,18,046,42,27,56,146,47,1*6A
$GPGSV,3,3,09,32,25,123,50,1*5E
$GLGSV,3,1,09,65,17,026,41,66,50,075,44,67,34,151,44,73,25,311,42,1*75
$GLGSV,3,2,09,74,07,351,,80,23,251,45,81,47,078,44,82,65,338,43,1*7E
$GLGSV,3,3,09,83,29,296,33,1*4C
$GAGSV,3,1,10,02,18,193,40,04,11,030,,05,17,133,48,06,21,054,44,7*79
$GAGSV,3,2,10,09,27,079,45,15,23,266,28,27,27,310,42,30,44,249,,7*75
$GAGSV,3,3,10,34,74,299,36,36,46,069,45,7*78
$GBGSV,3,1,12,02,04,100,38,05,19,122,41,08,12,041,32,11,15,291,,1*73
$GNRMC,190113.00,A,4843.26090,N,00920.55396,E,0.006,,080225,,,A,V*15
$GNGGA,190113.00,4843.26090,N,00920.55396,E,1,12,0.45,248.8,M,47.6,M,,*49
$GPGSV,3,1,09,01,27,266,38,02,33,276,45,08,78,254,33,10,58,064,43,1*6F
$GPGSV,3,2,09,14,09,328,,16,08,185,39,23,18,046,42,27,56,146,47,1*6A
$GPGSV,3,3,09,32,25,123,50,1*5E
$GLGSV,3,1,09,65,17,026,41,66,50,075,44,67,34,151,44,73,25,311,41,1*76
$GLGSV,3,2,09,74,07,351,,80,23,251,45,81,47,078,45,82,65,338,43,1*7F
$GLGSV,3,3,09,83,29,296,33,1*4C
$GAGSV,3,1,10,02,18,193,40,04,11,030,,05,17,133,48,06,21,054,44,7*79
$GAGSV,3,2,10,09,27,079,45,15,23,266,28,27,27,310,42,30,44,249,,7*75
$GAGSV,3,3,10,34,74,299,36,36,46,069,45,7*78
$GNRMC,190114.00,A,4843.26090,N,00920.55397,E,0.011,,080225,,,A,V*15
$GNGGA,190114.00,4843.26090,N,00920.55397,E,1,12,0.45,249.0,M,47.6,M,,*46
$GPGSV,3,1,09,01,27,266,38,02,33,276,44,08,78,254,33,10,58,064,43,1*6E
$GPGSV,3,2,09,14,09,328,,16,08,185,40,23,18,046,42,27,56,146,47,1*64
$GPGSV,3,3,09,32,25,123,50,1*5E
$GLGSV,3,1,09,65,17,026,41,66,50,075,45,67,34,151,43,73,25,311,41,1*70
$GLGSV,3,2,09,74,07,351,,80,23,251,45,81,47,078,45,82,65,338,43,1*7F
$GLGSV,3,3,09,83,29,296,33,1*4C
$GNRMC,190115.00,A,4843.26090,N,00920.55398,E,0.006,,080225,,,A,V*1D
$GNGGA,190115.00,4843.26090,N,00920.55398,E,1,12,0.45,249.1,M,47.6,M,,*49
$GPGSV,3,1,09,01,27,266,38,02,33,276,44,08,78,254,33,10,58,064,43,1*6E
$GPGSV,3,2,09,14,09,328,,16,08,185,40,23,18,046,42,27,56,146,46,1*65
$GPGSV,3,3,09,32,25,123,50,1*5E
$GLGSV,3,1,09,65,17,026,40,66,50,075,45,67,34,151,43,73,25,311,41,1*71
$GLGSV,3,2,09,74,07,351,,80,23,251,45,81,47,078,46,82,65,338,43,1*7C
$GLGSV,3,3,09,83,29,296,33,1*4C
$GAGSV,3,1,10,02,18,193,40,04,11,030,,05,17,133,48,06,21,054,44,7*79
$GAGSV,3,2,10,09,27,079,45,15,23,266,28,27,27,310,42,30,44,249,,7*75
$GAGSV,3,3,10,34,74,299,36,36,46,069,45,7*78
$GNRMC,190116.00,A,4843.26090,N,00920.55400,E,0.009,,080225,,,A,V*17
$GNGGA,190116.00,4843.26090,N,00920.55400,E,1,12,0.45,249.2,M,47.6,M,,*4F
$GPGSV,3,1,09,01,27,266,38,02,33,276,44,08,78,254,34,10,58,064,43,1*69
$GPGSV,3,2,09,14,09,328,,16,08,185,40,23,18,046,42,27,56,146,46,1*65
$GPGSV,3,3,09,32,25,123,50,1*5E
$GLGSV,3,1,09,65,17,026,40,66,50,075,45,67,34,151,42,73,25,311,41,1*70
$GLGSV,3,2,09,74,07,351,,80,23,251,45,81,47,078,46,82,65,338,43,1*7C
$GLGSV,3,3,09,83,29,296,32,1*4D
$GAGSV,3,1,10,02,18,193,40,04,11,030,,05,17,133,48,06,21,054,44,7*79
$GAGSV,3,2,10,09,27,079,45,15,23,266,29,27,27,310,42,30,44,249,,7*74
$GAGSV,3,3,10,34,74,299,36,36,46,069,45,7*78
$GNGGA,190117.00,4843.26090,N,00920.55401,E,1,12,0.45,249.3,M,47.6,M,,*4E
$GPGSV,3,1,09,01,27,266,38,02,33,276,44,08,78,254,34,10,58,064,43,1*69
$GPGSV,3,2,09,14,09,328,,16,08,185,40,23,18,046,42,27,56,146,46,1*65
$GPGSV,3,3,09,32,25,123,51,1*5F
$GLGSV,3,1,09,65,17,026,40,66,50,075,46,67,34,151,41,73,25,311,41,1*70
$GLGSV,3,2,09,74,07,351,,80,23,251,45,81,47,078,46,82,65,338,43,1*7C
$GLGSV,3,3,09,83,29,296,32,1*4D
$GAGSV,3,1,10,02,18,193,40,04,11,030,,05,17,133,48,06,21,054,44,7*79
$GAGSV,3,2,10,09,27,079,45,15,23,266,30,27,27,310,42,30,44,249,,7*7C
$GAGSV,3,3,10,34,74,299,36,36,46,069,45,7*78
$GNRMC,190118.00,A,4843.26090,N,00920.55401,E,0.006,,080225,,,A,V*17
$GNGGA,190118.00,4843.26090,N,00920.55401,E,1,12,0.45,249.4,M,47.6,M,,*46
$GPGSV,3,1,09,01,27,266,37,02,33,276,44,08,78,254,34,10,58,064,43,1*66
$GPGSV,3,2,09,14,09,328,,16,08,185,40,23,18,046,42,27,56,146,46,1*65
$GPGSV,3,3,09,32,25,123,50,1*5E
$GLGSV,3,1,09,65,17,026,40,66,50,075,46,67,34,151,40,73,25,311,40,1*70
$GLGSV,3,2,09,74,07,351,,80,23,251,46,81,47,078,46,82,65,338,43,1*7F
$GLGSV,3,3,09,83,29,296,32,1*4D
$GAGSV,3,1,10,02,18,193,40,04,11,030,,05,17,133,48,06,21,054,44,7*79
$GAGSV,3,2,10,09,27,079,45,15,23,266,30,27,27,310,42,30,44,249,,7*7C
$GAGSV,3,3,10,34,74,299,36,36,46,069,45,7*78
$GBGSV,3,1,12,02,04,100,38,05,19,122,41,08,12,041,33,11,15,291,,1*72
$GNRMC,190119.00,A,4843.26089,N,00920.55401,E,0.002,,080225,,,A,V*1A
$GNGGA,190119.00,4843.26089,N,00920.55401,E,1,12,0.45,249.5,M,47.6,M,,*4E
$GPGSV,3,1,09,01,27,266,36,02,33,276,44,08,78,254,34,10,58,064,43,1*67
$GPGSV,3,2,09,14,09,328,,16,08,185,40,23,18,046,42,27,56,146,46,1*65
$GPGSV,3,3,09,32,25,123,51,1*5F
$GLGSV,3,1,09,65,17,026,40,66,50,075,46,67,34,151,39,73,25,311,40,1*7E
$GLGSV,3,2,09,74,07,351,,80,23,251,46,81,47,078,46,82,65,338,44,1*78
$GLGSV,3,3,09,83,29,296,32,1*4D
$GAGSV,3,1,10,02,18,193,40,04,11,030,,05,17,133,48,06,21,054,44,7*79
$GAGSV,3,2,10,09,27,079,45,15,23,266,30,27,27,310,42,30,44,249,,7*7C
$GNRMC,190120.00,A,4843.26088,N,00920.55401,E,0.012,,080225,,,A,V*10
$GNGGA,190120.00,4843.26088,N,00920.55401,E,1,12,0.45,249.5,M,47.6,M,,*45
$GPGSV,3,1,09,01,27,266,36,02,33,276,44,08,78,254,34,10,58,064,43,1*67
$GPGSV,3,2,09,14,09,328,,16,08,185,40,23,18,046,42,27,56,146,46,1*65
$GPGSV,3,3,09,32,25,123,51,1*5F
$GLGSV,3,1,09,65,17,026,40,66,50,075,46,67,34,151,38,73,25,311,39,1*71
$GLGSV,3,2,09,74,07,351,,80,23,251,46,81,47,078,46,82,65,338,44,1*78
$GLGSV,3,3,09,83,29,296,32,1*4D
$GAGSV,3,1,10,02,18,193,40,04,11,030,,05,17,133,48,06,21,054,45,7*78
$GAGSV,3,2,10,09,27,079,46,15,24,266,30,27,27,310,42,30,44,249,,7*78
$GAGSV,3,3,10,34,74,299,36,36,46,069,45,7*78
$GBGSV,3,1,12,02,04,100,38,05,19,122,41,08,12,041,33,11,15,291,,1*72
$GNRMC,190121.00,A,4843.26087,N,00920.55400,E,0.008,,080225,,,A,V*14
$GNGGA,190121.00,4843.26087,N,00920.55400,E,1,12,0.45,249.6,M,47.6,M,,*49
$GPGSV,3,1,09,01,27,266,37,02,33,276,44,08,78,254,34,10,58,064,43,1*66
$GPGSV,3,2,09,14,09,328,,16,08,185,40,23,18,046,42,27,56,146,46,1*65
$GPGSV,3,3,09,32,25,123,50,1*5E
$GLGSV,3,1,09,65,17,026,40,66,50,075,46,67,34,151,37,73,25,311,391*7E
$GLGSV,3,2,09,74,07,351,,80,23,251,46,81,47,078,46,82,65,338,44,1*78
$GLGSV,3,3,09,83,29,296,32,1*4D
$GAGSV,3,1,10,02,18,193,40,04,11,030,,05,17,133,48,06,21,054,45,7*78
$GAGSV,3,2,10,09,27,079,46,15,24,266,30,27,27,310,42,30,44,249,,7*78
$GAGSV,3,3,10,34,74,299,36,36,46,069,45,7*78
$GNRMC,190122.00,A,4843.26085,N,00920.55399,E,0.008,,080225,,,A,V*12
$GNGGA,190122.00,4843.26085,N,00920.55399,E,1,12,0.45,249.6,M,47.6,M,,*4F
$GPGSV,3,1,09,01,27,266,37,02,33,276,43,08,78,254,33,10,58,064,43,1*66
$GPGSV,3,2,09,14,09,328,,16,08,185,40,23,18,046,42,27,56,146,46,1*65
$GPGSV,3,3,09,32,25,123,51,1*5F
$GLGSV,3,2,09,74,07,351,,80,23,251,46,81,47,078,47,82,65,338,44,1*79
$GAGSV,3,1,10,02,18,193,41,04,11,030,,05,17,133,48,06,21,054,45,7*79
$GAGSV,3,2,10,09,27,079,46,15,24,266,31,27,27,310,42,30,44,249,,7*79
$GAGSV,3,3,10,34,74,299,36,36,46,069,45,7*78
$GNRMC,190123.00,A,4843.26084,N,00920.55398,E,0.007,,080225,,,A,V*1C
$GNGGA,190123.00,4843.26084,N,00920.55398,E,1,12,0.45,249.7,M,47.6,M,,*4F
$GPGSV,3,1,09,01,27,266,36,02,33,276,43,08,78,254,33,10,58,064,43,1*67
$GPGSV,3,2,09,14,09,328,,16,08,185,40,23,18,046,42,27,56,146,46,1*65
$GPGSV,3,3,09,32,25,123,51,1*5F
$GLGSV,3,1,09,65,17,026,40,66,50,075,47,67,34,151,33,73,25,311,39,1*7B
$GLGSV,3,2,09,74,07,351,,80,23,251,46,81,47,078,47,82,65,338,44,1*79
$GLGSV,3,3,09,83,29,296,33,1*4C
$GAGSV,3,1,10,02,18,193,41,04,11,030,,05,17,133,48,06,21,054,45,7*79
$GAGSV,3,2,10,09,27,079,46,15,24,266,31,27,27,310,42,30,44,249,,7*79
$GAGSV,3,3,10,34,74,299,36,36,46,069,46,7*7B
$GNRMC,190124.00,,4843.26082,N,00920.55396,E,0.009,,080225,,,A,V*1D
$GNGGA,190124.00,4843.26082,N,00920.55396,E,1,12,0.45,249.7,M,47.6,M,,*40
$GPGSV,3,1,09,01,27,266,36,02,33,276,43,08,78,254,32,10,58,064,43,1*66
$GPGSV,3,2,09,14,09,328,,16,08,185,40,23,18,046,42,27,56,146,46,1*65
$GPGSV,3,3,09,32,25,123,51,1*5F
$GLGSV,3,1,09,65,17,026,40,66,50,075,47,67,34,151,32,73,25,311,40,1*74
$GLGSV,3,2,09,74,07,351,,80,23,251,45,81,47,078,47,82,65,338,43,1*7D
$GLGSV,3,3,09,83,29,296,33,1*4C
$GAGSV,3,1,10,02,18,193,41,04,11,030,,05,17,133,48,06,21,054,45,7*79
$GAGSV,3,2,10,09,27,079,46,15,24,266,31,27,27,310,42,30,44,249,,7*79
$GAGSV,3,3,10,34,74,299,36,36,46,069,46,7*7B
$GBGSV,3,1,12,02,04,100,38,05,19,122,41,08,12,041,33,11,15,291,,1*72
$GNRMC,190125.00,A,4843.26080,N,00920.55395,E,0.008,,080225,,,A,V*1C
$GNGGA,190125.00,4843.26080,N,00920.55395,E,1,12,0.45,249.7,M,47.6,M,,*40
$GPGSV,3,1,09,01,27,266,36,02,33,276,43,08,78,254,32,10,58,064,43,1*66
$GPGSV,3,2,09,14,09,328,,16,08,185,40,23,18,046,41,27,56,146,45,1*65
$GPGSV,3,3,09,32,25,123,51,1*5F
$GLGSV,3,1,09,65,17,026,40,66,50,075,47,67,34,151,31,73,25,311,41,1*76
$GLGSV,3,2,09,74,07,351,,80,23,251,45,81,47,078,48,82,65,338,43,1*72
$GLGSV,3,3,09,83,29,296,34,1*4B
$GAGSV,3,1,10,02,18,193,41,04,11,030,,05,17,133,48,06,21,054,45,7*79
$GAGSV,3,2,10,09,27,079,46,15,24,266,31,27,27,310,42,30,44,249,,7*79
$GAGSV,3,3,10,34,74,299,36,36,46,069,46,7*7B
$GBGSV,3,1,12,02,04,100,37,05,19,122,41,08,12,041,33,11,15,291,,1*7D
$GNRMC,190126.00,A,4843.26078,N,00920.55393,E,0.010,,080225,,,A,V*17
$GNGGA,190126.00,4843.26078,N,00920.55393,E,1,12,0.45,249.7,M,47.6,M,,*42
$GPGSV,3,1,09,01,27,266,36,02,33,276,43,08,78,254,32,10,58,064,44,1*61
$GPGSV,3,2,09,14,09,328,,16,08,185,40,23,18,046,41,27,56,146,45,1*65
$GPGSV,3,3,09,32,25,123,50,1*5E
$GLGSV,3,1,09,65,17,026,41,66,50,075,47,67,34,151,35,73,25,311,41,1*73
$GLGSV,3,2,09,74,07,351,,80,23,251,45,81,47,078,48,82,65,338,43,1*72
$GLGSV,3,3,09,83,29,296,34,1*4B
$GAGSV,3,1,10,02,18,193,40,04,11,030,,05,17,133,48,06,21,054,45,7*78
$GAGSV,3,2,10,09,27,079,46,15,24,266,32,27,27,310,42,30,44,249,,7*7A
$GNRMC,190127.00,A,4843.26076,N,00920.55392,E,0.009,,080225,,,A,V*11
$GNGGA,190127.00,4843.26076,N,00920.55392,E,1,12,0.45,249.7,M,47.6,M,,*4C
$GPGSV,3,1,09,01,27,266,36,02,33,276,43,08,78,254,32,10,58,064,44,1*61
$GPGSV,3,2,09,14,09,328,,16,08,185,40,23,18,046,41,27,56,146,45,1*65
$GPGSV,3,3,09,32,25,123,50,1*5E
$GLGSV,3,1,09,65,17,026,41,66,50,075,46,67,34,151,33,73,25,311,41,1*74
$GLGSV,3,2,09,74,07,351,,80,23,251,45,81,47,078,48,82,65,338,42,1*73
$GLGSV,3,3,09,83,29,296,34,1*4B
$GAGSV,3,1,10,02,18,193,41,04,11,030,,05,17,133,47,06,21,054,45,7*76
$GAGSV,3,2,10,09,27,079,46,15,24,266,32,27,27,310,42,30,44,249,,7*7A
$GAGSV,3,3,10,34,74,299,36,36,46,069,46,7*7B
$GNRMC,190128.00,A,4843.26074,N,00920.55390,E,0.018,,080225,,,A,V*1E
$GNGGA,190128.00,4843.26074,N,00920.55390,E,1,12,0.46,249.7,M,47.6,M,,*40
$GPGSV,3,1,09,01,27,266,36,02,33,276,42,08,78,254,32,10,58,064,44,1*60
$GPGSV,3,2,09,14,09,328,,16,08,185,41,23,18,046,41,27,56,146,45,1*64
$GPGSV,3,3,09,32,25,123,51,1*5F
