$GNRMC,210000.00,A,4843.26230,N,00920.55410,E,0.022,,070225,,,A,V*15
$GNGGA,210000.00,4843.26230,N,00920.55410,E,1,12,0.51,250.5,M,47.6,M,,*41
$GPGSV,3,1,11,01,73,306,38,02,79,315,40,03,44,21,36,08,33,176,48,1*67
$GPGSV,3,2,11,10,12,059,,14,17,283,38,17,24,314,,22,18,305,38,1*68
$GPGSV,3,3,11,27,05,159,23,28,03,104,,32,40,063,49,1*59
$GLGSV,3,1,10,65,11,032,,66,59,052,47,67,56,183,37,68,09,200,,1*78
$GLGSV,3,2,10,73,10,306,41,74,10,349,36,81,52,115,51,82,71,341,42,1*77
$GLGSV,3,3,10,83,28,314,38,88,01,126,11,1*71
$GAGSV,3,1,10,03,04,028,,07,43,140,44,08,40,066,46,13,43,095,40,7*7B
$GAGSV,3,2,10,23,18,247,34,24,02,345,,26,77,325,38,29,08,184,40,7*7A
$GAGSV,3,3,10,31,21,300,37,33,28,291,35,7*72
$GBGSV,3,1,09,02,04,099,35,05,19,121,42,06,13,076,42,09,10,089,44,1*7E
$GBGSV,3,2,09,12,05,132,44,13,06,062,,16,14,071,42,21,35,051,48,1*77
$GBGSV,3,3,09,28,32,305,35,1*44
$GNRMC,210001.00,A,4843.26226,N,00920.55409,E,0.006,,070225,,,A,V*1D
$GNGGA,210001.00,4843.26226,N,00920.55409,E,1,12,0.51,250.5,M,47.6,M,,*4F
$GPGSV,3,1,11,01,73,306,38,02,79,315,40,03,44,241,36,08,33,176,47,1*68
$GPGSV,3,2,11,10,12,059,,14,17,283,38,17,24,314,,22,18,305,38,1*68
$GPGSV,3,3,11,27,05,159,23,28,03,104,,32,40,063,49,1*59
$GLGSV,3,1,10,65,11,032,,66,59,052,47,67,56,183,37,68,09,200,,1*78
$GLGSV,3,2,10,73,10,306,41,74,10,349,36,81,52,115,51,82,71,341,42,1*77
$GLGSV,3,3,10,83,28,314,38,88,01,126,13,1*73
$GAGSV,3,1,10,03,04,028,,07,43,140,44,08,40,066,46,13,43,095,40,7*7B
$GAGSV,3,3,10,31,21,300,38,33,28,291,36,7*7E
$GBGSV,3,1,09,02,04,099,35,05,19,121,42,06,13,076,2,09,10,089,44,1*7E
$GBGSV,3,2,09,12,05,132,44,13,06,062,,16,14,071,42,21,35,051,48,1*77
$GBGSV,3,3,09,28,32,305,35,1*44
$GNRMC,210002.00,A,4843.26223,N,00920.55408,E,0.005,,070225,,,A,V*19
$GNGGA,210002.00,4843.26223,N,00920.55408,E,1,12,0.51,250.5,M,47.6,M,,*48
$GPGSV,3,1,11,01,73,306,38,02,79,315,39,03,44,241,36,08,33,176,47,1*66
$GPGSV,3,2,11,10,12,059,,14,17,283,39,17,24,314,,22,18,305,39,1*68
$GPGSV,3,3,11,27,05,159,22,28,03,104,,32,40,063,49,1*58
$GLGSV,3,1,10,65,11,032,,66,59,052,47,67,56,183,37,68,09,200,,1*78
$GLGSV,3,2,10,73,10,306,41,74,10,349,36,81,52,115,51,82,71,341,42,1*77
$GLGSV,3,3,10,83,28,314,38,88,01,126,12,1*72
$GAGSV,3,1,10,03,04,028,,07,43,140,44,08,40,066,46,13,43,095,40,7*7B
$GAGSV,3,2,10,23,18,247,34,24,02,345,,26,77,325,38,29,08,184,40,7*7A
$GAGSV,3,3,10,31,21,300,38,33,28,291,36,7*7E
$GBGSV,3,1,09,02,04,099,35,05,19,121,42,06,14,075,42,09,10,089,44,1*7A
$GBGSV,3,2,09,12,05,132,43,13,06,062,,16,14,071,42,21,35,051,48,1*70
$GBGSV,3,3,09,28,32,305,35,1*44
$GNRMC,210003.00,A,4843.26219,N,00920.55407,E,0.004,,070225,,,A,V*1F
$GNGGA,210003.00,4843.26219,N,00920.55407,E,1,12,0.51,250.5,M,47.6,M,,*4F
$GPGSV,3,1,11,01,73,306,37,02,79,315,39,03,44,241,35,08,33,176,47,1*6A
$GPGSV,3,2,11,10,12,059,,14,17,283,39,17,24,314,,22,18,305,39,1*68
$GPGSV,3,3,11,27,05,159,22,28,03,104,,32,40,063,49,1*58
$GLGSV,3,1,10,65,11,032,,66,59,052,47,67,56,183,37,68,09,200,,1*78
$GLGSV,3,2,10,73,10,306,41,74,10,349,36,81,52,115,51,82,71,341,42,1*77
$GLGSV,3,3,10,83,28,314,38,88,01,126,11,1*71
$GAGSV,3,1,10,03,04,028,,07,43,140,44,08,40,066,46,13,43,095,40,7*7B
$GAGSV,3,2,10,23,18,247,34,24,02,345,,26,77,325,38,29,08,184,40,7*7A
$GAGSV,3,3,10,31,21,300,38,33,28,291,36,7*7E
$GBGSV,3,1,09,02,04,099,35,05,19,121,42,06,14,075,42,09,10,089,44,1*7A
$GBGSV,3,2,09,12,05,132,43,13,06,062,,16,14,071,42,21,35,051,48,1*70
$GBGSV,3,3,09,28,32,305,35,1*44
$GNRMC,210004.00,A,4843.26216,N,00920.55406,E,0.007,,070225,,,A,V*15
$GNGGA,210004.00,4843.26216,N,00920.55406,E,1,12,0.51,250.5,M,47.6,M,,*46
$GPGSV,3,1,11,01,73,306,37,02,79,315,39,03,44,241,35,08,33,176,47,1*6A
$GPGSV,3,2,11,10,12,059,,14,17,283,39,17,24,314,,22,18,305,39,1*68
$GPGSV,3,3,11,27,05,159,21,28,03,104,,32,40,063,49,1*5B
$GLGSV,3,1,10,65,11,032,,66,59,052,47,67,56,183,38,68,09,200,,1*77
$GLGSV,3,2,10,73,10,306,41,74,10,349,36,81,52,115,51,82,71,341,42,1*77
$GLGSV,3,3,10,83,28,314,38,88,01,126,11,1*71
$GAGSV,3,1,10,03,04,028,,07,43,140,45,08,40,066,46,13,43,095,39,7*74
$GAGSV,3,2,10,23,18,247,33,24,02,345,,26,77,325,38,29,08,184,40,7*7D
$GAGSV,3,3,10,31,21,300,38,33,28,291,36,7*7E
$GBGSV,3,1,09,02,04,099,35,05,19,121,42,06,14,075,42,09,10,089,44,1*7A
$GBGSV,3,2,09,12,05,132,43,13,06,062,,16,14,071,41,21,35,051,48,1*73
$GBGSV,3,3,09,28,32,305,35,1*44
$GNRMC,210005.00,A,4843.26213,N,00920.55405,E,0.003,,070225,,,A,V*16
$GNGGA,210005.00,4843.26213,N,00920.55405,E,1,12,0.51,250.5,M,47.6,M,,*41
$GPGSV,3,1,11,01,73,306,37,02,79,315,38,03,44,241,36,08,33,176,47,1*68
$GPGSV,3,2,11,10,12,059,,14,17,283,39,17,24,314,,22,18,305,39,1*68
$GPGSV,3,3,11,27,05,159,21,28,03,104,,32,40,063,49,1*5B
$GLGSV,3,1,10,65,11,032,,66,59,052,47,67,56,183,38,68,09,200,,1*77
$GLGSV,3,2,10,73,10,306,41,74,10,349,37,81,52,115,51,82,71,341,42,1*76
$GLGSV,3,3,10,83,28,314,38,88,01,126,14,1*74
$GAGSV,3,1,10,03,04,028,,07,43,140,45,08,40,066,46,13,43,095,39,7*74
$GAGSV,3,2,10,23,18,247,34,24,02,345,,26,77,325,38,29,08,184,39,7*74
$GAGSV,3,3,10,31,21,300,38,33,28,291,36,7*7E
$GBGSV,3,1,09,02,04,099,35,05,19,121,42,06,14,075,42,09,10,089,44,1*7A
$GBGSV,3,2,09,12,05,132,43,13,06,062,,16,14,071,41,21,35,051,48,1*73
$GBGSV,3,3,09,28,32,305,35,1*44
$GNRMC,210006.00,A,4843.26210,N,00920.55403,E,0.015,,070225,,,A,V*17
$GNGGA,210006.00,4843.26210,N,00920.55403,E,1,12,0.51,250.5,M,47.6,M,,*47
$GPGSV,3,1,11,01,73,306,37,02,79,315,38,03,44,241,35,08,33,176,47,1*6B
$GPGSV,3,2,11,10,12,059,,14,17,283,39,17,24,314,,22,18,305,39,1*68
$GPGSV,3,3,11,27,05,159,20,28,03,104,,32,40,063,49,1*5A
$GLGSV,3,1,10,65,11,032,,66,59,052,47,67,56,183,39,68,09,200,,1*76
$GLGSV,3,2,10,73,10,306,42,74,10,349,37,81,52,115,51,82,71,341,42,1*75
$GLGSV,3,3,10,83,28,314,38,88,01,126,11,1*71
$GAGSV,3,1,10,03,04,028,,07,43,140,45,08,40,066,46,13,43,095,39,7*74
$GAGSV,3,2,10,23,18,247,34,24,02,345,,26,77,325,38,29,08,184,39,7*74
$GAGSV,3,3,10,31,21,300,38,33,28,291,36,7*7E
$GBGSV,3,1,09,02,04,099,35,05,19,121,42,06,14,075,42,09,10,089,44,1*7A
$GBGSV,3,2,09,12,05,132,43,13,06,062,,16,14,071,42,21,35,051,48,1*70
$GNRMC,210007.00,A,4843.26208,N,00920.55402,E,0.008,,070225,,,A,V*12
$GNGGA,210007.00,4843.26208,N,00920.55402,E,1,12,0.51,250.5,M,47.6,M,,*4E
$GPGSV,3,1,11,01,73,306,37,02,79,315,38,03,44,241,36,08,33,176,47,1*68
$GPGSV,3,2,11,10,12,059,,14,17,283,40,17,24,314,,22,18,305,39,1*66
$GPGSV,3,3,11,27,05,159,20,28,03,104,,32,40,063,49,1*5A
$GLGSV,3,1,10,65,11,032,,66,59,052,47,67,56,183,39,68,09,200,,1*76
$GLGSV,3,2,10,73,10,306,42,74,10,349,37,81,52,115,51,82,71,341,42,1*75
$GLGSV,3,3,10,83,28,314,37,88,01,126,12,1*7D
$GAGSV,3,1,10,03,04,028,,07,43,140,45,08,40,066,46,13,43,095,39,7*74
$GAGSV,3,2,10,23,18,247,34,24,02,345,,26,77,325,38,29,08,184,39,7*74
$GAGSV,3,3,10,31,21,300,38,33,28,291,37,7*7F
$GBGSV,3,1,09,02,04,099,35,05,19,121,42,06,14,075,42,09,10,089,44,1*7A
$GBGSV,3,2,09,12,04,132,43,13,06,062,,16,14,071,42,21,35,051,48,1*71
$GBGSV,3,3,09,28,32,305,35,1*44
$GNRMC,210008.00,A,4843.26207,N,00920.55401,E,0.005,,070225,,,A,V*1C
$GNGGA,210008.00,4843.26207,N,00920.55401,E,1,12,0.51,250.6,M,47.6,M,,*4E
$GPGSV,3,1,11,01,73,306,37,02,79,315,38,03,44,241,36,08,33,176,47,1*68
$GPGSV,3,2,11,10,12,059,,14,17,283,40,17,24,314,,22,18,305,39,1*66
$GPGSV,3,3,11,27,05,159,20,28,03,104,,32,40,063,49,1*5A
$GLGSV,3,1,10,65,11,032,,66,59,052,47,67,56,183,40,68,09,200,,1*78
$GLGSV,3,2,10,73,10,306,42,74,10,349,37,81,52,115,51,82,71,341,41,1*76
$GLGSV,3,3,10,83,28,314,37,88,01,126,12,1*7D
$GAGSV,3,1,10,03,04,028,,07,43,140,45,08,40,066,46,13,43,095,39,7*74
$GAGSV,3,2,10,23,18,247,34,24,02,345,,26,77,325,37,29,08,184,39,7*7B
$GAGSV,3,3,10,31,21,300,38,33,28,291,37,7*7F
$GBGSV,3,1,09,02,04,099,35,05,19,121,42,06,14,075,42,09,10,089,43,1*7D
$GBGSV,3,2,09,12,04,132,43,13,05,062,,16,14,071,42,21,35,051,48,1*72
$GBGSV,3,3,09,28,32,305,35,1*44
$GNRMC,210009.00,A,4843.26205,N,00920.55401,E,0.022,,070225,,,A,V*1A
$GNGGA,210009.00,4843.26205,N,00920.55401,E,1,12,0.51,250.7,M,47.6,M,,*4C
$GPGSV,3,1,11,01,73,306,38,02,79,315,38,03,44,241,36,08,33,176,47,1*67
$GPGSV,3,2,11,10,12,059,,14,17,283,40,17,24,314,,22,18,305,39,1*66
$GPGSV,3,3,11,27,05,159,20,28,03,104,,32,40,063,49,1*5A
$GLGSV,3,1,10,65,11,032,,66,59,052,47,67,56,183,40,68,09,200,,1*78
$GLGSV,3,2,10,73,10,306,42,74,10,349,37,81,52,115,51,82,71,341,41,1*76
$GLGSV,3,3,10,83,28,314,37,88,01,126,13,1*7C
$GAGSV,3,1,10,03,04,028,,07,43,140,45,08,40,066,45,13,43,095,39,7*77
$GAGSV,3,2,10,23,18,247,33,24,02,345,,26,77,325,38,29,08,184,39,7*73
$GAGSV,3,3,10,31,21,300,37,33,28,291,37,7*70
$GBGSV,3,1,09,02,04,099,35,05,19,121,42,06,14,075,42,09,10,089,43,1*7D
$GBGSV,3,2,09,12,04,132,43,13,05,062,,16,15,071,42,21,35,051,48,1*73
$GBGSV,3,3,09,28,32,305,35,1*44
$GNRMC,210010.00,A,4843.26204,N,00920.55401,E,0.003,,070225,,,A,V*10
$GNGGA,210010.00,4843.26204,N,00920.55401,E,1,12,0.51,250.8,M,47.6,M,,*4A
$GPGSV,3,1,11,01,73,306,38,02,79,315,38,03,44,241,36,08,33,176,46,1*66
$GPGSV,3,2,11,10,12,059,,14,17,283,40,17,24,314,,22,18,305,39,1*66
$GPGSV,3,3,11,27,05,159,20,28,03,104,,32,40,063,49,1*5A
$GLGSV,3,1,10,65,11,032,,66,58,051,47,67,56,183,40,68,09,200,,1*7A
$GLGSV,3,2,10,73,09,306,43,74,10,348,37,81,51,116,51,82,71,342,40,1*7C
$GLGSV,3,3,10,83,29,314,37,88,01,126,12,1*7C
$GAGSV,3,1,10,03,04,028,,07,43,140,45,08,40,066,45,13,43,095,39,7*77
$GAGSV,3,2,10,23,18,247,33,24,02,345,,26,77,325,38,29,08,184,39,7*73
$GAGSV,3,3,10,31,21,300,37,33,28,291,37,7*70
$GBGSV,3,1,09,02,04,099,35,05,19,121,42,06,14,075,42,09,10,089,43,1*7D
$GBGSV,3,2,09,12,04,132,43,13,05,062,,16,15,071,42,21,35,051,48,1*73
$GBGSV,3,3,09,28,32,305,35,1*44
$GNRMC,210011.00,A,4843.26204,N,00920.55402,E,0.012,,070225,,,A,V*12
$GNGGA,210011.00,4843.26204,N,00920.55402,E,1,12,0.51,250.8,M,47.6,M,,*48
$GPGSV,3,1,11,01,73,306,38,02,79,315,38,03,44,241,36,08,33,176,46,1*66
$GPGSV,3,2,11,10,12,059,,14,17,283,37,17,24,314,,22,18,305,39,1*66
$GPGSV,3,3,11,27,05,159,19,28,03,104,,32,40,063,49,1*50
$GLGSV,3,1,10,65,11,032,,66,58,051,48,67,56,183,41,68,09,200,,1*74
$GLGSV,3,2,10,73,09,306,43,74,10,348,37,81,51,116,51,82,71,342,40,1*7C
$GLGSV,3,3,10,83,29,314,37,88,01,126,12,1*7C
$GAGSV,3,1,10,03,04,028,,07,43,140,46,08,40,066,45,13,43,095,39,7*74
$GAGSV,3,2,10,23,18,247,33,24,02,345,,26,77,325,37,29,08,184,39,7*7C
$GAGSV,3,3,10,31,21,300,37,33,28,291,37,7*70
$GBGSV,3,1,09,02,04,099,35,05,19,121,42,06,14,075,42,09,10,089,43,1*7D
$GBGSV,3,2,09,12,04,132,43,13,05,062,,16,15,071,42,21,35,051,48,1*73
$GBGSV,3,3,09,28,32,305,35,1*44
$GNRMC,210012.00,A,4843.26203,N,00920.55403,E,0.006,,070225,,,A,V*12
$GNGGA,210012.00,4843.26203,N,00920.55403,E,1,12,0.51,250.9,M,47.6,M,,*4C
$GPGSV,3,1,11,01,73,306,39,02,79,315,38,03,44,241,36,08,33,176,46,1*67
$GPGSV,3,2,11,10,12,059,,14,17,283,40,17,24,314,,22,18,305,39,1*66
$GPGSV,3,3,11,27,05,159,18,28,03,104,,32,40,063,49,1*51
$GLGSV,3,1,10,65,11,032,,66,58,051,48,67,56,183,40,68,09,200,,1*75
$GLGSV,3,2,10,73,09,306,43,74,10,348,37,81,51,116,51,82,71,342,40,1*7C
$GLGSV,3,3,10,83,29,314,37,88,01,126,11,1*7F
$GAGSV,3,1,10,03,04,028,,07,43,140,46,08,40,066,45,13,43,095,39,7*74
$GAGSV,3,2,10,23,18,247,33,24,02,345,,26,77,325,37,29,08,184,39,7*7C
$GAGSV,3,3,10,31,21,300,37,33,28,291,37,7*70
$GBGSV,3,1,09,02,04,099,35,05,19,121,42,06,14,075,42,09,10,089,43,1*7D
$GBGSV,3,2,09,12,04,132,43,13,05,062,,16,15,071,42,21,34,051,48,1*72
$GBGSV,3,3,09,28,32,305,35,1*44
$GNRMC,210013.00,A,4843.26202,N,00920.55403,E,0.024,,070225,,,A,V*12
$GNGGA,210013.00,4843.2622,N,00920.55403,E,1,12,0.51,251.0,M,47.6,M,,*44
$GPGSV,3,1,11,01,73,306,39,02,79,315,38,03,44,241,36,08,33,176,46,1*67
$GPGSV,3,2,11,10,12,059,,14,17,283,40,17,24,314,,22,18,305,39,1*66
$GPGSV,3,3,11,27,05,159,18,28,03,104,,32,40,063,49,1*51
$GLGSV,3,1,10,65,11,032,,66,58,051,48,67,56,183,41,68,09,200,,1*74
$GLGSV,3,2,10,73,09,306,43,74,10,348,37,81,51,116,52,82,71,342,41,1*7E
$GLGSV,3,3,10,83,29,314,37,88,01,126,14,1*7A
$GAGSV,3,1,10,03,04,028,,07,43,140,46,08,40,066,45,13,43,095,39,7*74
$GAGSV,3,2,10,23,18,247,33,24,02,345,,26,77,325,37,29,08,184,39,7*7C
$GAGSV,3,3,10,31,21,300,37,33,28,291,37,7*70
$GBGSV,3,1,09,02,04,099,35,05,19,121,42,06,14,075,42,09,10,089,43,1*7D
$GBGSV,3,2,09,12,04,132,43,13,05,062,,16,15,071,42,21,34,051,48,1*72
$GBGSV,3,3,09,28,32,305,34,1*45
$GNRMC,210014.00,A,4843.26201,N,00920.55403,E,0.005,,070225,,,A,V*15
$GNGGA,210014.00,4843.26201,N,00920.55403,E,1,12,0.51,251.0,M,47.6,M,,*40
$GPGSV,3,1,11,01,73,306,40,02,79,315,38,03,44,241,36,08,33,176,46,1*69
$GPGSV,3,2,11,10,12,059,,14,17,283,40,17,24,314,,22,18,305,40,1*68
$GPGSV,3,3,11,27,05,159,18,28,03,104,,32,40,063,49,1*51
$GLGSV,3,1,10,65,11,032,,66,58,051,48,67,56,183,41,68,09,200,,1*74
$GLGSV,3,2,10,73,09,306,43,74,10,348,36,81,51,116,51,82,71,342,41,1*7C
$GLGSV,3,3,10,83,29,314,37,88,01,126,10,1*7E
$GAGSV,3,1,10,03,04,028,,07,43,140,46,08,40,066,45,13,43,095,38,7*75
$GAGSV,3,2,10,23,18,247,32,24,02,345,,26,7,325,37,29,08,184,39,7*7D
$GAGSV,3,3,10,31,21,300,37,33,28,291,37,7*70
$GBGSV,3,1,09,02,04,099,35,05,19,121,42,06,14,075,41,09,10,089,43,1*7E
$GBGSV,3,2,09,12,04,132,43,13,05,062,,16,15,071,42,21,34,051,48,1*72
$GBGSV,3,3,09,28,32,305,35,1*44
$GNRMC,210015.00,A,4843.26200,N,00920.55404,E,0.044,,070225,,,A,V*17
$GNGGA,210015.00,4843.26200,N,00920.55404,E,1,12,0.51,251.1,M,47.6,M,,*46
$GPGSV,3,1,11,01,73,306,40,02,79,315,38,03,44,241,36,08,33,176,45,1*6A
$GPGSV,3,2,11,10,12,059,,14,17,283,40,17,24,314,,22,18,305,40,1*68
$GPGSV,3,3,11,27,05,159,17,28,03,104,,32,40,063,49,1*5E
$GLGSV,3,1,10,65,11,032,,66,58,051,48,67,56,183,42,68,09,200,,1*77
$GLGSV,3,2,10,73,09,306,44,74,10,348,36,81,51,116,51,82,71,342,42,1*78
$GLGSV,3,3,10,83,29,314,36,88,01,126,12,1*7D
$GAGSV,3,1,10,03,04,028,,07,43,140,46,08,40,066,45,13,43,095,38,7*75
$GAGSV,3,2,10,23,18,247,32,24,02,345,,26,77,325,37,29,08,184,39,7*7D
$GAGSV,3,3,10,31,21,300,37,33,28,291,38,7*7F
$GBGSV,3,1,09,02,04,099,35,05,19,121,42,06,14,075,41,09,10,089,43,1*7E
$GBGSV,3,2,09,12,04,132,43,13,05,062,,16,15,071,42,21,34,051,48,1*72
$GBGSV,3,3,09,28,32,305,35,1*44
$GNRMC,210016.00,A,4843.26199,N,00920.55404,E,0.010,,070225,,,A,V*16
$GNGGA,210016.00,4843.26199,N,00920.55404,E,1,12,0.51,251.1,M,47.6,M,,*46
$GPGSV,3,1,11,01,73,306,40,02,79,315,38,03,44,241,36,08,33,176,45,1*6A
$GPGSV,3,2,11,10,12,059,,14,17,283,40,17,24,314,,22,18,305,40,1*68
$GPGSV,3,3,11,27,05,159,17,28,03,104,,32,40,063,49,1*5E
$GLGSV,3,1,10,65,11,032,,66,58,051,48,67,56,183,42,68,09,200,,1*77
$GLGSV,3,2,10,73,09,306,44,74,10,348,36,81,51,116,51,82,71,342,42,1*78
$GLGSV,3,3,10,83,29,314,36,88,01,126,14,1*7B
$GAGSV,3,1,10,03,04,028,,07,43,140,46,08,40,066,45,13,43,095,38,7*75
$GAGSV,3,2,10,23,18,247,32,24,02,345,,26,77,325,36,29,08,184,39,7*7C
$GAGSV,3,3,10,31,21,300,37,33,28,291,38,7*7F
$GBGSV,3,1,09,02,04,099,35,05,19,121,42,06,14,075,41,09,10,089,43,1*7E
$GBGSV,3,2,09,12,04,132,43,13,05,062,,16,15,071,42,21,34,051,48,1*72
$GBGSV,3,3,09,28,32,305,35,1*44
$GNRMC,210017.00,A,4843.26198,N,00920.55404,E,0.009,,070225,,,A,V*1E
$GNGGA,210017.00,4843.26198,N,00920.55404,E,1,12,0.51,251.2,M,47.6,M,,*45
$GPGSV,3,1,11,01,73,306,40,02,79,315,38,03,44,241,36,08,33,176,45,1*6A
$GPGSV,3,2,11,10,12,059,,14,17,283,40,17,24,314,,22,18,305,39,1*66
$GPGSV,3,3,11,27,05,159,17,28,03,104,,32,40,063,49,1*5E
$GLGSV,3,1,10,65,11,032,,66,58,051,48,67,56,183,42,68,09,200,,1*77
$GLGSV,3,2,10,73,09,306,44,74,10,348,36,81,51,116,51,82,71,342,42,1*78
$GLGSV,3,3,10,83,29,314,36,88,01,126,14,1*7B
$GAGSV,3,1,10,03,04,028,,07,43,140,46,08,40,066,45,13,43,095,38,7*75
$GAGSV,3,2,10,23,18,247,31,24,02,345,,26,77,325,37,29,08,184,39,7*7E
$GAGSV,3,3,10,31,21,300,37,33,28,291,38,7*7F
$GBGSV,3,1,09,02,04,099,35,05,19,121,42,06,14,075,41,09,10,089,43,1*7E
$GBGSV,3,2,09,12,04,132,43,13,05,062,,16,15,071,42,21,34,051,48,1*72
$GBGSV,3,3,09,28,32,305,35,1*44
$GNRMC,210018.00,A,4843.26196,N,00920.55404,E,0.026,,070225,,,A,V*12
$GNGGA,210018.00,4843.26196,N,00920.55404,E,1,12,0.51,251.3,M,47.6,M,,*45
$GPGSV,3,1,11,01,73,306,39,02,79,315,38,03,44,241,37,08,33,176,44,1*64
$GPGSV,3,2,11,10,12,059,,14,17,283,37,17,24,314,,22,18,305,39,1*66
$GPGSV,3,3,11,27,05,159,17,28,03,104,,32,40,063,49,1*5E
$GLGSV,3,1,10,65,11,032,,66,58,051,48,67,56,183,43,68,09,200,,1*76
$GLGSV,3,2,10,73,09,306,40,74,10,348,36,81,51,116,51,82,71,342,42,1*7C
$GLGSV,3,3,10,83,29,314,36,88,01,126,14,1*7B
$GAGSV,3,1,10,03,04,028,,07,43,140,46,08,40,066,45,13,43,095,38,7*75
$GAGSV,3,2,10,23,18,247,35,24,02,345,,26,77,325,37,29,08,184,39,7*7A
$GAGSV,3,3,10,31,21,300,37,33,28,291,38,7*7F
$GBGSV,3,1,09,02,04,099,36,05,19,121,42,06,14,075,41,09,10,089,43,1*7D
$GBGSV,3,2,09,12,04,132,44,13,05,062,,16,15,071,42,21,34,051,48,1*75
$GBGSV,3,3,09,28,32,305,36,1*47
$GNRMC,210019.00,A,4843.26194,N,00920.55405,E,0.019,,070225,,,A,V*1C
$GNGGA,210019.00,4843.26194,N,00920.55405,E,1,12,0.51,251.3,M,47.6,M,,*47
$GPGSV,3,1,11,01,73,306,39,02,79,315,38,03,44,241,36,08,33,176,44,1*65
$GPGSV,3,2,11,10,12,059,,14,17,283,40,17,24,314,,22,18,305,39,1*66
$GPGSV,3,3,11,27,05,159,19,28,03,104,,32,40,063,48,1*51
$GLGSV,3,1,10,65,11,032,,66,58,051,48,67,56,183,43,68,09,200,,1*76
$GLGSV,3,2,10,73,09,306,43,74,10,348,36,81,51,116,51,82,71,342,42,1*7F
$GLGSV,3,3,10,83,29,314,36,88,01,126,11,1*7E
$GAGSV,3,1,10,03,04,028,,07,43,140,46,08,40,066,45,13,43,095,38,7*75
$GAGSV,3,2,10,23,18,247,30,24,02,345,,26,77,325,36,29,08,184,39,7*7E
$GAGSV,3,3,10,31,21,300,37,33,28,291,38,7*7F
$GBGSV,3,1,09,02,04,099,35,05,19,121,42,06,14,075,41,09,10,089,43,1*7E
$GBGSV,3,2,09,12,04,132,44,13,05,062,,16,15,071,42,21,34,051,48,1*75
$GBGSV,3,3,09,28,32,305,36,1*47
$GNRMC,210020.00,A,4843.26191,N,00920.55405,E,0.016,,070225,,,A,V*1C
$GNGGA,210020.00,4843.26191,N,00920.55405,E,1,12,0.51,251.3,M,47.6,M,,*48
$GPGSV,3,1,11,01,73,306,39,02,79,315,38,03,44,241,36,08,33,176,44,1*65
$GPGSV,3,2,11,10,12,059,,14,17,283,39,17,24,314,,22,18,305,39,1*68
$GPGSV,3,3,11,27,05,159,18,28,03,104,,32,40,063,48,1*50
$GLGSV,3,1,10,65,11,032,,66,58,051,48,67,56,183,43,68,09,200,,1*76
$GLGSV,3,2,10,73,09,306,43,74,10,348,36,81,51,116,51,82,71,342,43,1*7E
$GLGSV,3,3,10,83,29,314,36,88,01,126,09,1*77
$GAGSV,3,1,10,03,04,028,,07,43,140,45,08,40,066,45,13,43,095,37,7*79
$GAGSV,3,2,10,23,18,247,30,24,02,345,,26,77,325,36,29,08,184,39,7*7E
$GAGSV,3,3,10,31,21,300,37,33,28,291,38,7*7F
$GBGSV,3,1,09,02,04,099,35,05,19,121,42,06,14,075,41,09,10,089,43,1*7E
$GBGSV,3,2,09,12,04,132,43,13,05,062,,16,15,071,42,21,34,051,48,1*72
$GBGSV,3,3,09,28,32,305,36,1*47
$GNRMC,210021.00,A,4843.26188,N,00920.55406,E,0.012,,070225,,,A,V*12
$GNGGA,210021.00,4843.26188,N,00920.55406,E,1,12,0.51,251.3,M,47.6,M,,*42
$GPGSV,3,1,11,01,73,306,40,02,79,315,38,03,44,241,36,08,33,176,44,1*6B
$GPGSV,3,2,11,10,12,059,,14,17,283,39,17,24,314,,22,18,305,39,1*68
$GPGSV,3,3,11,27,05,159,18,28,03,104,,32,40,063,48,1*50
$GLGSV,3,1,10,65,11,032,,66,58,051,48,67,56,183,43,68,09,200,,1*76
$GLGSV,3,2,10,73,09,306,42,74,10,348,37,81,51,116,50,82,71,342,43,1*7F
$GLGSV,3,3,10,83,29,314,36,88,01,126,12,1*7D
$GAGSV,3,1,10,03,04,028,,07,43,140,45,08,40,066,45,13,43,095,37,7*79
$GAGSV,3,2,10,23,18,247,30,24,02,345,,26,77,325,36,29,08,184,39,7*7E
$GAGSV,3,3,10,31,21,300,37,33,28,291,38,7*7F
$GBGSV,3,1,09,02,04,099,35,05,19,121,42,06,14,075,41,09,10,089,43,1*7E
$GBGSV,3,2,09,12,04,132,44,13,05,062,,16,15,071,42,21,34,051,48,1*75
$GBGSV,3,3,09,28,32,305,36,1*47
$GNRMC,210022.00,A,4843.26184,N,00920.55406,E,0.014,,070225,,,A,V*1B
$GNGGA,210022.00,4843.26184,N,00920.55406,E,1,12,0.51,251.3,M,47.6,M,,*4D
$GPGSV,3,1,11,01,73,306,39,02,79,315,38,03,44,241,37,08,33,176,44,1*64
$GPGSV,3,2,11,10,12,059,,14,17,283,39,17,24,314,,22,18,305,39,1*68
$GPGSV,3,3,11,27,05,159,16,28,0,104,,32,40,063,48,1*5E
$GLGSV,3,1,10,65,11,032,,66,58,051,48,67,56,183,43,68,09,200,,1*76
$GLGSV,3,2,10,73,09,306,41,74,10,348,37,81,51,116,50,82,71,342,43,1*7C
$GLGSV,3,3,10,83,29,314,37,88,01,126,11,1*7F
$GAGSV,3,1,10,03,04,028,,07,43,140,45,08,40,066,45,13,43,095,36,7*78
$GAGSV,3,2,10,23,18,247,29,24,02,345,,26,77,325,36,29,08,184,39,7*76
$GAGSV,3,3,10,31,21,300,36,33,28,291,38,7*7E
$GBGSV,3,1,09,02,04,099,35,05,19,121,42,06,14,075,41,09,10,089,43,1*7E
$GBGSV,3,2,09,12,04,132,44,13,05,062,,16,15,071,42,21,34,051,48,1*75
$GBGSV,3,3,09,28,32,305,36,1*47
$GNRMC,210023.00,A,4843.26179,N,00920.55406,E,0.009,,070225,,,A,V*14
$GNGGA,210023.00,4843.26179,N,00920.55406,E,1,12,0.51,251.2,M,47.6,M,,*4F
$GPGSV,3,1,11,01,73,306,39,02,79,315,38,03,44,241,37,08,33,176,45,1*65
$GPGSV,3,2,11,10,12,059,,14,17,283,39,17,24,314,,22,18,305,38,1*69
$GPGSV,3,3,11,27,05,159,16,28,03,104,,32,40,063,48,1*5E
$GLGSV,3,1,10,65,10,032,,66,58,051,48,67,56,183,43,68,09,200,,1*77
$GLGSV,3,2,10,73,09,306,41,74,10,348,37,81,51,116,50,82,71,342,43,1*7C
$GLGSV,3,3,10,83,29,314,37,88,01,126,13,1*7D
$GAGSV,3,1,10,03,04,028,,07,43,140,45,08,40,066,45,13,43,095,36,7*78
$GAGSV,3,2,10,23,18,247,29,24,02,345,,26,77,325,36,29,08,184,39,7*76
$GAGSV,3,3,10,31,21,300,36,33,28,291,38,7*7E
$GBGSV,3,1,09,02,04,099,35,05,19,121,42,06,14,075,41,09,10,089,43,1*7E
$GBGSV,3,2,09,12,04,132,43,13,05,062,,16,15,071,42,21,34,051,48,1*72
$GBGSV,3,3,09,28,32,305,36,1*47
$GNRMC,210024.00,A,4843.26174,N,00920.55405,E,0.004,,070225,,,A,V*10
$GNGGA,210024.00,4843.26174,N,00920.55405,E,1,12,0.51,251.2,M,47.6,M,,*46
$GPGSV,3,1,11,01,73,306,39,02,79,315,37,03,44,241,37,08,33,176,45,1*6A
$GPGSV,3,2,11,10,12,059,,14,17,283,39,17,24,314,,22,18,305,38,1*69
$GPGSV,3,3,11,27,05,159,17,28,03,104,,32,40,063,49,1*5E
$GLGSV,3,1,10,65,10,032,,66,58,050,48,67,56,183,44,68,09,200,,1*71
$GLGSV,3,2,10,73,09,306,40,74,10,348,37,81,51,116,50,82,71,342,43,1*7D
$GLGSV,3,3,10,83,29,314,37,88,01,126,10,1*7E
$GAGSV,3,1,10,03,04,028,,07,43,140,45,08,40,066,45,13,43,095,36,7*78
$GAGSV,3,2,10,23,18,247,29,24,02,345,,26,77,325,36,29,08,184,39,7*76
$GBGSV,3,1,09,02,04,099,35,05,19,121,42,06,14,075,41,09,10,089,43,1*7E
$GBGSV,3,2,09,12,04,132,43,13,05,062,,16,15,071,42,21,34,051,48,1*72
$GBGSV,3,3,09,28,32,305,36,1*47
$GNRMC,210025.00,A,4843.26168,N,00920.55404,E,0.012,,070225,,,A,V*1A
$GNGGA,210025.00,4843.26168,N,00920.55404,E,1,12,0.51,251.2,M,47.6,M,,*4B
$GPGSV,3,1,11,01,73,306,39,02,79,315,37,03,44,241,37,08,33,176,45,1*6A
$GPGSV,3,2,11,10,12,059,,14,17,283,39,17,24,314,,22,18,305,38,1*69
$GPGSV,3,3,11,27,05,159,15,28,03,104,,32,40,063,49,1*5C
$GLGSV,3,1,10,65,10,032,,66,58,050,47,67,57,183,44,68,09,200,,1*7F
$GLGSV,3,2,10,73,09,306,40,74,10,348,37,81,51,116,49,82,71,342,43,1*75
$GLGSV,3,3,10,83,29,314,37,88,01,126,11,1*7F
$GAGSV,3,1,10,03,04,028,,07,43,140,44,08,40,066,45,13,43,095,36,7*79
$GAGSV,3,2,10,23,18,247,28,24,02,345,,26,77,325,36,29,08,184,39,7*77
$GAGSV,3,3,10,31,21,300,36,33,28,291,38,7*7E
$GBGSV,3,1,09,02,04,099,35,05,19,121,42,06,14,075,41,09,10,089,43,1*7E
$GBGSV,3,2,09,12,04,132,43,13,05,062,,16,15,071,42,21,34,051,48,1*72
$GBGSV,3,3,09,28,32,305,36,1*47
$GNRMC,210026.00,A,4843.26163,N,00920.55402,E,0.011,,070225,,,A,V*17
$GNGGA,210026.00,4843.26163,N,00920.55402,E,1,12,0.51,251.1,M,47.6,M,,*46
$GPGSV,3,1,11,01,73,306,39,02,79,315,38,03,44,241,37,08,33,176,45,1*65
$GPGSV,3,2,11,10,12,059,,14,17,283,39,17,24,314,,22,18,305,38,1*69
$GPGSV,3,3,11,27,05,159,14,28,03,10,,32,40,063,49,1*5D
$GLGSV,3,1,10,65,10,032,,66,58,050,47,67,57,183,44,68,09,201,,1*7E
$GLGSV,3,2,10,73,09,306,39,74,10,348,36,81,51,116,49,82,71,342,43,1*7A
$GLGSV,3,3,10,83,29,314,37,88,01,126,10,1*7E
$GAGSV,3,1,10,03,04,028,,07,43,140,44,08,40,066,45,13,43,095,36,7*79
$GAGSV,3,2,10,23,18,247,27,24,02,345,,26,77,325,36,29,08,184,39,7*78
$GAGSV,3,3,10,31,21,300,36,33,28,291,38,7*7E
$GBGSV,3,1,09,02,04,099,35,05,19,121,42,06,14,075,41,09,10,089,43,1*7E
$GBGSV,3,2,09,12,04,132,43,13,05,062,,16,15,071,42,21,34,051,48,1*72
$GBGSV,3,3,09,28,32,305,36,1*47
$GNRMC,210027.00,A,4843.26157,N,00920.55402,E,0.011,,070225,,,A,V*11
$GNGGA,210027.00,4843.26157,N,00920.55402,E,1,12,0.51,251.1,M,47.6,M,,*40
$GPGSV,3,1,11,0,73,306,39,02,79,315,37,03,44,241,37,08,33,176,45,1*6A
$GPGSV,3,2,11,10,12,059,,14,17,283,38,17,24,314,,22,18,305,38,1*68
$GPGSV,3,3,11,27,05,159,15,28,03,104,,32,40,063,49,1*5C
$GLGSV,3,1,10,65,10,032,,66,58,050,47,67,57,183,44,68,09,201,,1*7E
$GLGSV,3,2,10,73,09,306,39,74,10,348,36,81,51,116,49,82,71,342,43,1*7A
$GLGSV,3,3,10,83,29,314,37,88,01,126,11,1*7F
$GAGSV,3,1,10,03,04,028,,07,43,140,44,08,40,066,45,13,43,095,36,7*79
$GAGSV,3,2,10,23,18,247,26,24,02,345,,26,77,325,37,29,08,184,39,7*78
$GAGSV,3,3,10,31,21,300,36,33,28,291,38,7*7E
$GBGSV,3,1,09,02,04,099,35,05,19,121,42,06,14,075,41,09,10,089,43,1*7E
$GBGSV,3,2,09,12,04,132,43,13,05,062,,16,15,071,42,21,34,051,48,1*72
$GBGSV,3,3,09,28,32,305,36,1*47
$GNRMC,210028.00,A,4843.26152,N,00920.55403,E,0.011,,070225,,,A,V*1A
$GNGGA,210028.00,4843.26152,N,00920.55403,E,1,12,0.53,251.1,M,47.6,M,,*49
$GPGSV,3,1,11,01,73,306,39,02,79,315,37,03,44,241,37,08,33,176,45,1*6A
$GPGSV,3,2,11,10,12,059,,14,17,283,38,17,24,314,,22,18,305,38,1*68
$GPGSV,3,3,11,27,05,159,17,28,03,104,,32,40,063,49,1*5E
$GLGSV,3,1,10,65,10,032,,66,58,050,47,67,57,183,45,68,09,201,,1*7F
$GLGSV,3,2,10,73,09,306,38,74,10,348,36,81,51,116,49,82,71,342,43,1*7B
$GLGSV,3,3,10,83,29,314,37,88,01,126,13,1*7D
$GAGSV,3,1,10,03,04,028,,07,43,140,44,08,40,066,45,13,43,095,37,7*78
$GAGSV,3,2,10,23,18,247,26,24,02,345,,26,77,325,37,29,08,184,39,7*78
$GAGSV,3,3,10,31,21,300,36,33,28,291,38,7*7E
$GBGSV,3,1,09,02,04,099,35,05,19,121,42,06,14,075,41,09,10,089,43,1*7E
$GBGSV,3,2,09,12,04,132,43,13,05,062,,16,15,071,42,21,34,051,48,1*72
$GBGSV,3,3,09,28,32,305,36,1*47
$GNRMC,210029.00,A,4843.26147,N,00920.55403,E,0.016,,070225,,,A,V*18
$GNGGA,210029.00,4843.26147,N,00920.55403,E,1,12,0.53,251.1,M,47.6,M,,*4C
$GPGSV,3,1,11,01,73,306,39,02,79,315,37,03,44,241,37,08,33,176,46,1*69
$GPGSV,3,2,11,10,12,059,,14,17,283,38,17,24,314,,22,18,305,38,1*68
$GPGSV,3,3,11,27,05,159,16,28,03,104,,32,40,063,49,1*5F
$GLGSV,3,1,10,65,10,032,,66,58,050,47,67,57,183,44,68,09,201,,1*7E
$GLGSV,3,2,10,73,09,306,38,74,10,348,35,81,51,116,49,82,71,342,43,1*78
$GLGSV,3,3,10,83,29,314,36,88,01,126,14,1*7B
$GAGSV,3,1,10,03,04,028,,07,43,140,43,08,40,066,45,13,43,095,37,7*7F
$GAGSV,3,2,10,23,18,247,26,24,02,345,,26,77,325,37,29,08,184,39,7*78
$GAGSV,3,3,10,31,21,300,36,33,28,291,38,7*7E
$GBGSV,3,1,09,02,04,099,35,05,19,121,42,06,14,075,41,09,10,089,42,1*7F
$GBGSV,3,2,09,12,04,132,43,13,05,062,,16,15,071,42,21,34,051,48,1*72
$GBGSV,3,3,09,28,32,305,37,1*46
$GNRMC,210030.00,A,4843.26144,N,00920.55404,E,0.007,,070225,,,A,V*14
$GNGGA,210030.00,4843.26144,N,00920.55404,E,1,12,0.53,251.1,M,47.6,M,,*40
$GPGSV,3,1,11,01,73,306,39,02,79,315,37,03,44,241,37,08,33,176,46,1*69
$GPGSV,3,2,11,10,12,059,,14,17,283,38,17,24,314,,22,18,305,38,1*68
$GPGSV,3,3,11,27,05,159,16,28,03,104,,32,40,063,49,1*5F
$GLGSV,3,1,10,65,10,032,,66,58,050,46,67,57,183,44,68,09,201,,1*7F
$GLGSV,3,2,10,73,09,306,38,74,10,348,35,81,51,116,50,82,71,342,43,1*70
$GLGSV,3,3,10,83,29,314,36,88,01,126,14,1*7B
$GAGSV,3,1,10,03,04,028,,07,43,140,44,08,40,066,45,13,43,095,38,7*77
$GAGSV,3,2,10,23,18,247,26,24,02,345,,26,77,325,37,29,08,184,39,7*78
$GAGSV,3,3,10,31,21,300,36,33,28,291,38,7*7E
$GBGSV,3,1,09,02,04,099,35,05,19,121,42,06,14,075,41,09,10,089,43,1*7E
$GBGSV,3,2,09,12,04,132,43,13,05,062,,16,15,071,42,21,34,051,48,1*72
$GBGSV,3,3,09,28,32,305,37,1*46
$GNRMC,210031.00,A,4843.26142,N,00920.55405,E,0.012,,070225,,,A,V*16
$GNGGA,210031.00,4843.26142,N,00920.55405,E,1,12,0.53,251.1,M,47.6,M,,*46
$GPGSV,3,1,11,01,73,306,39,02,79,315,36,03,44,241,37,08,33,176,46,1*68
$GPGSV,3,2,11,10,12,059,,14,17,283,37,17,24,314,,22,18,305,38,1*67
$GPGSV,3,3,11,27,05,159,16,28,03,104,,32,40,063,49,1*5F
$GLGSV,3,1,10,65,10,032,,66,58,050,46,67,57,183,44,68,09,201,,1*7F
$GLGSV,3,2,10,73,09,306,37,74,10,348,35,81,51,116,50,82,71,342,42,1*7E
$GLGSV,3,3,10,83,29,314,36,88,01,126,13,1*7C
$GAGSV,3,1,10,03,04,028,,07,43,140,43,08,40,066,45,13,43,095,38,7*70
$GAGSV,3,2,10,23,18,247,27,24,02,345,,26,77,325,36,29,08,184,39,7*78
$GAGSV,3,3,10,31,21,300,36,33,28,291,38,7*7E
$GBGSV,3,1,09,02,04,099,35,05,19,121,42,06,14,075,41,09,10,089,42,1*7F
$GBGSV,3,2,09,12,04,132,43,13,05,062,,16,15,071,42,21,34,051,48,1*72
$GBGSV,3,3,09,28,32,305,37,1*46
$GNRMC,210032.00,A,4843.26140,N,00920.55406,E,0.008,,070225,,,A,V*1F
$GNGGA,210032.00,4843.26140,N,00920.55406,E,1,12,0.53,251.1,M,47.6,M,,*44
$GPGSV,3,1,11,01,73,306,39,02,79,315,36,03,44,241,38,08,33,176,46,1*67
$GPGSV,3,2,11,10,12,059,,14,17,283,37,17,24,314,,22,18,305,38,1*67
$GPGSV,3,3,11,27,05,159,15,28,03,104,,32,40,063,49,1*5C
$GLGSV,3,1,10,65,10,032,,66,58,050,46,67,57,183,45,68,09,201,,1*7E
$GLGSV,3,2,10,73,09,306,37,74,10,348,34,81,51,116,50,82,71,342,42,1*7F
$GLGSV,3,3,10,83,29,314,36,88,01,126,09,1*77
$GAGSV,3,1,10,03,04,028,,07,43,140,43,08,40,066,45,13,43,095,39,7*71
$GAGSV,3,2,10,23,18,247,26,24,02,345,,26,77,325,36,29,08,184,39,7*79
$GAGSV,3,3,10,31,21,300,36,33,28,291,38,7*7E
$GBGSV,3,1,09,02,04,099,35,05,19,121,42,06,14,075,41,09,10,089,42,1*7F
$GBGSV,3,2,09,12,04,132,43,13,05,062,,16,15,071,42,21,34,051,48,1*72
$GBGSV,3,3,09,28,32,305,36,1*47
$GNRMC,210033.00,A,4843.26137,N,00920.55408,E,0.012,,070225,,,A,V*1B
$GNGGA,210033.00,4843.26137,N,00920.55408,E,1,12,0.53,251.1,M,47.6,M,,*4B
$GPGSV,3,1,11,01,73,306,39,02,79,315,36,03,44,241,38,08,33,176,46,1*67
$GPGSV,3,2,11,10,12,059,,14,17,283,36,17,24,314,,22,18,305,38,1*66
$GPGSV,3,3,11,27,05,159,15,28,03,104,,32,40,063,49,1*5C
$GLGSV,3,1,10,65,10,032,,66,58,050,46,67,57,183,45,68,09,201,,1*7E
$GLGSV,3,2,10,73,09,306,38,74,10,348,34,81,51,116,50,82,71,342,43,1*71
$GLGSV,3,3,10,83,29,314,35,88,01,126,13,1*7F
$GAGSV,3,1,10,03,04,028,,07,43,140,43,08,40,066,45,13,43,095,39,7*71
$GAGSV,3,2,10,23,18,247,27,24,02,345,,26,77,325,36,29,08,184,39,7*78
$GAGSV,3,3,10,31,21,300,36,33,28,291,38,7*7E
$GBGSV,3,1,09,02,04,099,35,05,19,121,42,06,14,075,40,09,10,089,42,1*7E
$GBGSV,3,2,09,12,04,132,43,13,05,062,,16,15,071,42,21,34,051,48,1*72
$GBGSV,3,3,09,28,32,305,37,1*46
$GNRMC,210034.00,A,4843.26135,N,00920.55409,E,0.011,,070225,,,A,V*1C
$GNGGA,210034.00,4843.26135,N,00920.55409,E,1,12,0.53,251.1,M,47.6,M,,*4F
$GPGSV,3,1,11,01,73,306,39,02,79,315,36,03,44,241,38,08,33,176,46,1*67
$GPGSV,3,2,11,10,12,059,,14,17,283,36,17,24,314,,22,18,305,37,1*69
$GPGSV,3,3,11,27,05,159,14,28,03,104,,32,40,063,49,1*5D
$GLGSV,3,1,10,65,10,032,,66,58,050,46,67,57,183,45,68,09,201,,1*7E
$GLGSV,3,2,10,73,09,306,38,74,10,348,34,81,51,116,50,82,71,342,43,1*71
$GLGSV,3,3,10,83,29,314,35,88,01,126,12,1*7E
$GAGSV,3,1,10,03,04,028,,07,43,140,43,08,40,066,45,13,43,095,39,7*71
$GAGSV,3,2,10,23,18,247,27,24,02,345,,26,77,325,36,29,08,184,39,7*78
$GAGSV,3,3,10,31,21,300,36,33,28,291,38,7*7E
$GBGSV,3,1,09,02,04,099,35,05,19,121,42,06,14,075,40,09,10,089,42,1*7E
$GBGSV,3,2,09,12,04,132,42,13,05,062,,16,15,071,42,21,34,051,48,1*73
$GBGSV,3,3,09,28,32,305,37,1*46
$GNRMC,210035.00,A,4843.26134,N,00920.55411,E,0.011,,070225,,,A,V*15
$GNGGA,210035.00,4843.26134,N,00920.55411,E,1,12,0.53,251.1,M,47.6,M,,*46
$GPGSV,3,1,11,01,73,306,39,02,79,315,36,03,44,241,38,08,33,176,47,1*66
$GPGSV,3,2,11,10,12,059,,14,17,283,36,17,24,314,,22,18,305,37,1*69
$GPGSV,3,3,11,27,05,159,15,28,03,104,,32,40,063,49,1*5C
$GLGSV,3,1,10,65,10,032,,66,58,050,46,67,57,183,45,68,09,201,,1*7E
$GLGSV,3,2,10,73,09,306,38,74,10,348,34,81,51,116,50,82,71,342,43,1*71
$GLGSV,3,3,10,83,29,314,34,88,01,126,09,1*75
$GAGSV,3,1,10,03,04,028,,07,43,140,43,08,40,066,45,13,43,095,39,7*71
$GAGSV,3,2,10,23,18,247,27,24,02,345,,26,77,325,37,29,08,184,39,7*79
$GAGSV,3,3,10,31,21,300,36,33,28,291,38,7*7E
$GBGSV,3,1,09,02,04,099,35,05,19,121,42,06,14,075,40,09,10,089,43,1*7F
$GBGSV,3,2,09,12,04,132,42,13,05,062,,16,15,071,42,21,34,051,48,1*73
$GBGSV,3,3,09,28,32,305,37,1*46
$GNRMC,210036.00,A,4843.26133,N,00920.55413,E,0.012,,070225,,,A,V*10
$GNGGA,210036.00,4843.26133,N,00920.55413,E,1,12,0.53,251.1,M,47.6,M,,*40
$GPGSV,3,1,11,01,73,306,39,02,79,315,35,03,44,241,38,08,33,176,47,1*65
$GPGSV,3,2,11,10,12,059,,14,17,283,36,17,24,314,,22,18,305,37,1*69
$GPGSV,3,3,11,27,05,159,14,28,03,104,,32,40,063,49,1*5D
$GLGSV,3,1,10,65,10,032,,66,58,050,46,67,57,183,45,68,09,201,,1*7E
$GLGSV,3,2,10,73,09,306,38,74,10,348,35,81,51,116,49,82,71,342,42,1*79
$GLGSV,3,3,10,83,29,314,33,88,01,126,12,1*78
$GAGSV,3,1,10,03,04,028,,07,43,140,43,08,40,066,44,13,43,095,40,7*7E
$GAGSV,3,2,10,23,18,247,28,24,02,345,,26,77,325,37,29,08,184,39,7*76
$GAGSV,3,3,10,31,21,300,36,33,28,291,38,7*7E
$GBGSV,3,1,09,02,04,099,35,05,19,121,42,06,14,075,40,09,10,089,42,1*7E
$GBGSV,3,2,09,12,04,132,42,13,05,062,,16,15,071,42,21,34,051,48,1*73
$GBGSV,3,3,09,28,32,305,37,1*46
$GNRMC,210037.00,A,4843.26134,N,00920.55415,E,0.012,,070225,,,A,V*10
$GNGGA,210037.00,4843.26134,N,00920.55415,E,1,12,0.53,251.1,M,47.6,M,,*40
$GPGSV,3,1,11,01,73,306,38,02,79,315,35,03,44,241,38,08,33,176,47,1*64
$GPGSV,3,2,11,10,12,059,,14,17,283,35,17,24,314,,22,18,305,37,1*6A
$GPGSV,3,3,11,27,05,159,17,28,03,104,,32,40,063,49,1*5E
$GLGSV,3,1,10,65,10,032,,66,58,050,46,67,57,183,45,68,09,201,,1*7E
$GLGSV,3,2,10,73,09,306,39,74,10,348,35,81,51,116,49,82,71,342,42,1*78
$GLGSV,3,3,10,83,29,314,32,88,01,126,11,1*7A
$GAGSV,3,1,10,03,04,028,,07,43,140,43,08,40,066,44,13,43,095,40,7*7E
$GAGSV,3,2,10,23,18,247,28,24,02,345,,26,77,325,37,29,08,184,39,7*76
$GAGSV,3,3,10,31,21,300,36,33,28,291,38,7*7E
$GBGSV,3,1,09,02,04,099,35,05,19,121,42,06,14,075,40,09,10,089,43,1*7F
$GBGSV,3,2,09,12,04,132,42,13,05,062,,16,15,071,42,21,34,051,48,1*73
$GBGSV,3,3,09,28,32,305,37,1*46
$GNRMC,210038.00,A,4843.26135,N,00920.55416,E,0.012,,070225,,,A,V*1D
$GNGGA,210038.00,4843.26135,N,00920.55416,E,1,12,0.53,251.1,M,47.6,M,,*4D
$GPGSV,3,1,11,01,73,306,38,02,79,315,36,03,44,241,37,08,33,176,47,1*68
$GPGSV,3,2,11,10,12,059,,14,17,283,35,17,24,314,,22,18,305,37,1*6A
$GPGSV,3,3,11,27,05,159,18,28,03,104,,32,40,063,49,1*51
$GLGSV,3,1,10,65,10,032,,66,58,050,47,67,57,183,46,68,09,201,,1*7C
$GLGSV,3,2,10,73,09,306,40,74,10,348,34,81,51,116,49,82,71,342,42,1*77
$GLGSV,3,3,10,83,29,314,32,88,01,126,11,1*7A
$GAGSV,3,1,10,03,04,028,,07,43,140,43,08,40,066,45,13,43,095,40,7*7F
$GAGSV,3,2,10,23,18,247,28,24,02,345,,26,77,325,37,29,08,184,39,7*76
$GAGSV,3,3,10,31,21,300,36,33,28,291,37,7*71
$GBGSV,3,1,09,02,04,099,35,05,19,121,42,06,14,075,40,09,10,089,42,1*7E
$GBGSV,3,2,09,12,04,132,42,13,05,062,,16,15,071,42,21,34,051,48,1*73
$GBGSV,3,3,09,28,32,305,37,1*46
$GNRMC,210039.00,A,4843.26136,N,00920.55418,E,0.016,,070225,,,A,V*15
$GNGGA,210039.00,4843.26136,N,00920.55418,E,1,12,0.53,251.0,M,47.6,M,,*40
$GPGSV,3,1,11,01,73,306,38,02,79,315,36,03,44,241,37,08,33,176,47,1*68
$GPGSV,3,2,11,10,12,059,,14,17,283,36,17,24,314,,22,18,305,36,1*68
$GPGSV,3,3,11,27,05,159,17,28,03,104,,32,40,063,49,1*5E
$GLGSV,3,1,10,65,10,032,,66,58,050,47,67,57,183,46,68,09,201,,1*7C
$GLGSV,3,2,10,73,09,306,40,74,10,348,35,81,51,116,48,82,71,342,42,1*77
$GLGSV,3,3,10,83,29,314,32,88,01,126,11,1*7A
$GAGSV,3,1,10,03,04,028,,07,43,140,43,08,40,066,45,13,43,095,40,7*7F
$GAGSV,3,2,10,23,18,247,29,24,02,345,,26,77,325,37,29,08,184,39,7*77
$GAGSV,3,3,10,31,21,300,36,33,28,291,37,7*71
$GBGSV,3,1,09,02,04,099,35,05,19,121,42,06,14,075,40,09,10,089,42,1*7E
$GBGSV,3,2,09,12,04,132,42,13,05,062,,16,15,071,42,21,34,051,48,1*73
$GBGSV,3,3,09,28,32,305,37,1*46
$GNRMC,210040.00,A,4843.26138,N,00920.55419,E,0.013,,070225,,,A,V*11
$GNGGA,210040.00,4843.26138,N,00920.55419,E,1,12,0.53,251.0,M,47.6,M,,*41
$GPGSV,3,1,11,01,73,306,38,02,79,315,36,03,44,241,37,08,33,176,47,1*68
$GPGSV,3,2,11,10,12,059,,14,17,283,36,17,24,314,,22,18,305,36,1*68
$GPGSV,3,3,11,27,05,159,15,28,03,104,,32,40,063,49,1*5C
$GLGSV,3,1,10,65,10,032,,66,58,050,46,67,57,183,46,68,09,201,,1*7D
$GLGSV,3,2,10,73,09,306,33,74,10,348,35,81,51,116,48,82,72,342,42,1*70
$GLGSV,3,3,10,83,29,314,33,88,01,126,12,1*78
$GAGSV,3,1,10,03,04,028,,07,43,140,43,08,40,066,45,13,43,095,40,7*7F
$GAGSV,3,2,10,23,18,247,29,24,02,345,,26,77,325,37,29,08,184,39,7*77
$GAGSV,3,3,10,31,21,300,35,33,28,291,37,7*72
$GBGSV,3,1,09,02,04,099,35,05,19,121,42,06,14,075,41,09,10,089,42,1*7F
$GBGSV,3,2,09,12,04,132,41,13,05,062,,16,15,071,42,21,34,051,48,1*70
$GBGSV,3,3,09,28,32,305,37,1*46
$GNRMC,210041.00,A,4843.26141,N,00920.55418,E,0.012,,070225,,,A,V*1E
$GNGGA,210041.00,4843.26141,N,00920.55418,E,1,12,0.51,250.9,M,47.6,M,,*45
$GPGSV,3,1,11,01,73,306,38,02,79,315,36,03,44,241,37,08,33,176,46,1*69
$GPGSV,3,2,11,10,12,059,,14,17,283,35,17,24,314,,22,18,305,36,1*6B
$GPGSV,3,3,11,27,05,159,16,28,03,104,,32,40,063,49,1*5F
$GLGSV,3,1,10,65,10,032,,66,58,050,46,67,57,183,46,68,09,201,,1*7D
$GLGSV,3,2,10,73,09,306,40,74,10,348,35,81,51,116,47,82,72,342,42,1*7B
$GLGSV,3,3,10,83,29,315,33,88,01,126,12,1*79
$GAGSV,3,1,10,03,04,028,,07,43,140,43,08,40,066,45,13,43,095,40,7*7F
$GAGSV,3,2,10,23,18,247,31,24,02,345,,26,77,325,37,29,08,184,39,7*7E
$GAGSV,3,3,10,31,21,300,35,33,28,291,38,7*7D
$GBGSV,3,1,09,02,04,099,35,05,19,121,42,06,14,075,40,09,10,089,42,1*7E
$GBGSV,3,2,09,12,04,132,41,13,05,062,,16,15,071,42,21,34,051,48,1*70
$GBGSV,3,3,09,28,32,305,37,1*46
$GNRMC,210042.00,A,4843.26144,N,00920.55419,E,0.006,,070225,,,A,V*1C
$GNGGA,210042.00,4843.26144,N,00920.55419,E,1,12,0.51,250.9,M,47.6,M,,*42
$GPGSV,3,1,11,01,73,306,38,02,79,315,36,03,44,241,37,08,33,176,47,1*68
$GPGSV,3,2,11,10,12,059,,14,17,283,36,17,24,314,,22,18,305,36,1*68
$GPGSV,3,3,11,27,05,159,16,28,03,104,,32,40,063,49,1*5F
$GLGSV,3,1,10,65,10,032,,66,58,050,46,67,57,183,46,68,09,201,,1*7D
$GLGSV,3,2,10,73,09,306,41,74,10,348,35,81,51,116,48,82,72,342,42,1*75
$GLGSV,3,3,10,83,29,315,32,88,01,126,10,1*7A
$GAGSV,3,2,10,23,18,247,31,2402,345,,26,77,325,37,29,08,184,39,7*7E
$GAGSV,3,3,10,31,21,300,35,33,28,291,38,7*7D
$GBGSV,3,1,09,02,04,099,35,05,19,121,42,06,14,075,40,09,10,089,42,1*7E
$GBGSV,3,2,09,12,04,132,41,13,05,062,,16,15,071,42,21,34,051,48,1*70
$GBGSV,3,3,09,28,32,305,37,1*46
$GNRMC,210043.00,A,4843.26148,N,00920.55421,E,0.006,,070225,,,A,V*1A
$GNGGA,210043.00,4843.26148,N,00920.55421,E,1,12,0.51,250.8,M,47.6,M,,*45
$GPGSV,3,1,11,01,73,306,37,02,79,315,36,03,44,241,37,08,33,176,47,1*67
$GPGSV,3,2,11,10,12,059,,14,17,283,36,17,24,314,,22,18,305,36,1*68
$GPGSV,3,3,11,27,05,159,14,28,03,104,,32,40,063,49,1*5D
$GLGSV,3,1,10,65,10,032,,66,58,050,46,67,57,183,46,68,09,201,,1*7D
$GLGSV,3,2,10,73,09,306,41,74,10,348,35,81,51,116,48,82,72,342,43,1*74
$GLGSV,3,3,10,83,29,315,32,88,01,126,12,1*78
$GAGSV,3,1,10,03,04,028,,07,43,140,43,08,40,066,45,13,43,095,40,7*7F
$GAGSV,3,2,10,23,18,247,31,24,02,345,,26,77,325,37,29,08,184,39,7*7E
$GAGSV,3,3,10,31,21,300,35,33,28,291,38,7*7D
$GBGSV,3,1,09,02,04,099,35,05,19,121,42,06,14,075,40,09,10,089,42,1*7E
$GBGSV,3,2,09,12,04,132,41,13,05,062,,16,15,071,42,21,34,051,48,1*70
$GBGSV,3,3,09,28,32,305,37,1*46
$GNRMC,210044.00,A,4843.26150,N,00920.55424,E,0.007,,070225,,,A,V*10
$GNGGA,210044.00,4843.26150,N,00920.55424,E,1,12,0.51,250.8,M,47.6,M,,*4E
$GPGSV,3,1,11,01,73,306,37,02,79,315,37,03,44,241,37,08,33,176,47,1*66
$GPGSV,3,2,11,10,12,059,,14,17,283,36,17,24,314,,22,18,305,36,1*68
$GPGSV,3,3,11,27,05,159,14,28,03,104,,32,40,063,49,1*5D
$GLGSV,3,1,10,65,10,032,,66,58,050,46,67,57,183,46,68,09,201,,1*7D
$GLGSV,3,2,10,73,09,306,41,74,10,348,35,81,51,116,48,82,72,342,43,1*74
$GLGSV,3,3,10,83,29,315,33,88,01,126,14,1*7F
$GAGSV,3,1,10,03,04,028,,07,43,140,43,08,40,066,45,13,43,095,40,7*7F
$GAGSV,3,2,10,23,18,247,31,24,02,345,,26,77,325,36,29,08,184,39,7*7F
$GAGSV,3,3,10,31,21,300,35,33,28,291,38,7*7D
$GBGSV,3,1,09,02,04,099,35,05,19,121,42,06,14,075,40,09,10,089,42,1*7E
$GBGSV,3,2,09,12,04,132,41,13,05,062,,16,15,071,42,21,34,051,48,1*70
$GBGSV,3,3,09,28,32,305,37,1*46
$GNRMC,210045.00,A,4843.26151,N,00920.55427,E,0.009,,070225,,,A,V*1D
$GNGGA,210045.00,4843.26151,N,00920.55427,E,1,12,0.51,250.8,M,47.6,M,,*4D
$GPGSV,3,1,11,01,73,306,37,02,79,315,37,03,44,241,37,08,33,176,47,1*66
$GPGSV,3,2,11,10,12,059,,14,17,283,36,17,24,314,,22,18,305,36,1*68
$GPGSV,3,3,11,27,05,159,11,28,03,104,,32,40,063,49,1*58
$GLGSV,3,1,10,65,10,032,,66,58,050,46,67,57,183,46,68,09,201,,1*7D
$GLGSV,3,2,10,73,09,306,41,74,10,348,35,81,51,116,48,82,72,342,43,1*74
$GLGSV,3,3,10,83,29,315,33,88,01,126,11,1*7A
$GAGSV,3,1,10,03,04,028,,07,43,140,43,08,40,066,45,13,43,095,40,7*7F
$GAGSV,3,2,10,23,18,247,32,24,02,345,,6,77,325,36,29,08,184,39,7*7C
$GAGSV,3,3,10,31,21,300,35,33,28,291,38,7*7D
$GBGSV,3,1,09,02,04,099,35,05,19,121,42,06,14,075,40,09,10,089,42,1*7E
$GBGSV,3,2,09,12,04,132,41,13,05,062,,16,15,071,42,21,34,051,48,1*70
$GBGSV,3,3,09,28,32,305,37,1*46
$GNRMC,210046.00,A,4843.26152,N,00920.55430,E,0.016,,070225,,,A,V*15
$GNGGA,210046.00,4843.26152,N,00920.55430,E,1,12,0.51,250.8,M,47.6,M,,*4B
$GPGSV,3,1,11,01,73,306,37,02,79,315,37,03,44,241,37,08,33,176,46,1*67
$GPGSV,3,2,11,10,12,059,,14,17,283,36,17,24,314,,22,18,305,36,1*68
$GPGSV,3,3,11,27,05,159,18,28,03,104,,32,40,063,49,1*51
$GLGSV,3,1,10,65,10,032,,66,58,050,46,67,57,183,46,68,09,201,,1*7D
$GLGSV,3,2,10,73,09,306,42,74,10,348,36,81,51,116,49,82,72,342,43,1*75
$GLGSV,3,3,10,83,29,315,33,88,00,127,10,1*7B
$GAGSV,3,1,10,03,04,028,,07,43,140,43,08,40,066,45,13,43,095,40,7*7F
$GAGSV,3,2,10,23,18,247,32,24,02,345,,26,77,325,36,29,08,184,39,7*7C
$GAGSV,3,3,10,31,21,300,35,33,28,291,38,7*7D
$GBGSV,3,1,09,02,04,099,35,05,19,121,42,06,14,075,41,09,10,089,42,1*7F
$GBGSV,3,2,09,12,04,132,41,13,05,062,,16,15,071,42,21,34,051,48,1*70
$GBGSV,3,3,09,28,32,305,37,1*46
$GNRMC,210047.00,A,4843.26153,N,00920.55434,E,0.004,,070225,,,A,V*12
$GNGGA,210047.00,4843.26153,N,00920.55434,E,1,12,0.51,250.9,M,47.6,M,,*4E
$GPGSV,3,1,11,01,73,306,37,02,79,315,37,03,44,241,37,08,33,176,46,1*67
$GPGSV,3,2,11,10,12,059,,14,17,283,36,17,24,314,,22,18,305,36,1*68
$GPGSV,3,3,11,27,05,159,13,28,03,104,,32,40,063,49,1*5A
$GLGSV,3,1,10,65,10,032,,66,58,050,46,67,57,183,46,68,09,201,,1*7D
$GLGSV,3,2,10,73,09,306,42,74,10,348,36,81,51,116,49,82,72,342,43,1*75
$GLGSV,3,3,10,83,29,315,3488,00,127,11,1*7D
$GAGSV,3,1,10,03,04,028,,07,43,140,43,08,40,066,45,13,43,095,40,7*7F
$GAGSV,3,2,10,23,18,247,32,24,02,345,,26,77,325,36,29,08,184,39,7*7C
$GAGSV,3,3,10,31,21,300,35,33,28,291,38,7*7D
$GBGSV,3,1,09,02,04,099,35,05,19,121,42,06,14,075,40,09,10,089,42,1*7E
$GBGSV,3,2,09,12,04,132,41,13,05,062,,16,15,071,42,21,34,051,48,1*70
$GBGSV,3,3,09,28,32,305,37,1*46
$GNRMC,210048.00,A,4843.26153,N,00920.55439,E,0.004,,070225,,,A,V*10
$GNGGA,210048.00,4843.26153,N,00920.55439,E,1,12,0.51,251.0,M,47.6,M,,*44
$GPGSV,3,1,11,01,74,307,37,02,79,315,38,03,44,241,37,08,33,176,46,1*6E
$GPGSV,3,2,11,10,12,059,,14,17,283,36,17,24,314,,22,18,305,36,1*68
$GPGSV,3,3,11,27,05,159,16,28,03,104,,32,40,063,49,1*5F
$GLGSV,3,1,10,65,10,032,,66,58,050,46,67,57,183,46,68,09,201,,1*7D
$GLGSV,3,2,10,73,09,306,42,74,10,348,36,81,51,116,49,82,72,342,43,1*75
$GLGSV,3,3,10,83,29,315,34,88,00,127,12,1*7E
$GAGSV,3,1,10,03,04,028,,07,43,140,43,08,40,066,45,13,43,095,40,7*7F
$GAGSV,3,2,10,23,18,247,33,24,02,345,,26,77,325,36,29,08,184,39,7*7D
$GAGSV,3,3,10,31,21,300,35,33,28,291,38,7*7D
$GBGSV,3,1,09,02,04,099,35,05,19,121,42,06,14,075,40,09,10,089,42,1*7E
$GBGSV,3,2,09,12,04,132,41,13,05,062,,16,15,071,42,21,34,051,48,1*70
$GBGSV,3,3,09,28,32,305,37,1*46
$GNRMC,210049.00,A,4843.26153,N,00920.55443,E,0.008,,070225,,,A,V*10
$GNGGA,210049.00,4843.26153,N,00920.55443,E,1,12,0.51,251.0,M,47.6,M,,*48
$GPGSV,3,1,11,01,74,307,37,02,80,317,38,03,44,241,37,08,33,176,46,1*6A
$GPGSV,3,2,11,10,12,059,,14,17,283,36,17,24,314,,22,18,305,36,1*68
$GPGSV,3,3,11,27,05,159,15,28,03,104,,32,40,063,49,1*5C
$GLGSV,3,1,10,65,10,032,,66,58,050,46,67,57,183,46,68,09,201,,1*7D
$GLGSV,3,2,10,73,09,306,42,74,10,348,36,81,51,116,49,82,72,342,43,1*75
$GLGSV,3,3,10,83,29,315,35,88,00,127,10,1*7D
$GAGSV,3,1,10,03,04,028,,07,43,140,43,08,40,066,45,13,43,095,40,7*7F
$GAGSV,3,2,10,23,18,247,33,24,02,345,,26,77,325,36,29,08,184,39,7*7D
$GAGSV,3,3,10,31,21,300,35,33,28,291,38,7*7D
$GBGSV,3,1,09,02,04,09,35,05,19,121,42,06,14,075,41,09,10,089,42,1*7F
$GBGSV,3,2,09,12,04,132,41,13,05,062,,16,15,071,42,21,34,051,48,1*70
$GBGSV,3,3,09,28,32,305,37,1*46
$GNRMC,210050.00,A,4843.26154,N,00920.55449,E,0.007,,070225,,,A,V*1A
$GNGGA,210050.00,4843.26154,N,00920.55449,E,1,12,0.51,251.1,M,47.6,M,,*4C
$GPGSV,3,1,11,01,74,307,38,02,80,317,38,03,45,242,37,08,33,176,45,1*64
$GPGSV,3,2,11,10,12,059,,14,17,283,36,17,24,314,,22,18,305,35,1*6B
$GPGSV,3,3,11,27,05,159,14,28,03,104,,32,40,063,49,1*5D
$GLGSV,3,1,10,65,10,032,,66,58,050,46,67,57,183,47,68,09,201,,1*7C
$GLGSV,3,2,10,73,09,306,43,74,10,348,36,81,51,116,49,82,72,342,43,1*74
$GLGSV,3,3,10,83,29,315,35,88,00,127,11,1*7C
$GAGSV,3,1,10,03,04,028,,07,43,140,43,08,40,066,45,13,43,095,40,7*7F
$GAGSV,3,2,10,23,18,247,33,24,02,345,,26,77,325,36,29,08,184,39,7*7D
$GAGSV,3,3,10,31,21,300,35,33,28,291,38,7*7D
$GBGSV,3,1,09,02,04,099,35,05,19,121,42,06,14,075,41,09,10,089,42,1*7F
$GBGSV,3,2,09,12,04,132,41,13,05,062,,16,15,071,42,21,34,051,48,1*70
$GBGSV,3,3,09,28,32,305,37,1*46
$GNRMC,210051.00,A,4843.26155,N,00920.55453,E,0.002,,070225,,,A,V*14
$GNGGA,210051.00,4843.26155,N,00920.55453,E,1,12,0.51,251.1,M,47.6,M,,*47
$GPGSV,3,1,11,01,74,307,38,02,80,317,38,03,45,242,37,08,33,176,44,1*65
$GPGSV,3,2,11,10,12,05,,14,17,283,36,17,24,314,,22,18,305,35,1*6B
$GPGSV,3,3,11,27,05,159,15,28,03,104,,32,40,063,49,1*5C
$GLGSV,3,1,10,65,10,032,,66,58,050,46,67,57,183,47,68,09,201,,1*7C
$GLGSV,3,2,10,73,09,306,42,74,10,348,36,81,51,116,50,82,72,342,43,1*7D
$GLGSV,3,3,10,83,29,315,34,88,00,127,13,1*7F
$GAGSV,3,1,10,03,04,028,,07,43,140,42,08,40,066,45,13,43,095,40,7*7E
$GAGSV,3,2,10,23,18,247,34,24,02,345,,26,77,325,36,29,08,184,40,7*74
$GAGSV,3,3,10,31,21,300,35,33,28,291,39,7*7C
$GBGSV,3,1,09,02,04,099,35,05,19,121,42,06,14,075,41,09,10,089,42,1*7F
$GBGSV,3,2,09,12,04,132,41,13,05,062,,16,15,071,42,21,34,051,48,1*70
$GBGSV,3,3,09,28,32,305,37,1*46
$GNRMC,210052.00,A,4843.26155,N,00920.55457,E,0.006,,070225,,,A,V*17
$GNGGA,210052.00,4843.26155,N,00920.55457,E,1,2,0.51,251.1,M,7.6,M,,*40
$GPGSV,3,1,11,01,74,307,38,02,80,317,38,03,45,242,37,08,33,176,44,1*65
$GPGSV,3,2,11,10,12,059,,14,17,283,37,17,24,314,,22,18,305,35,1*6A
$GPGSV,33,11,27,05,159,14,28,03,104,,32,40,063,49,1*5D
$GLGSV,3,1,10,65,10,032,,66,58,050,47,67,57,183,47,68,09,201,,1*7D
$GLGSV,3,2,10,73,09,306,42,74,10,348,36,81,51,116,50,82,72,342,43,1*7D
$GLGSV,3,3,10,83,29,315,34,88,00,127,12,1*7E
$GAGSV,3,1,10,03,04,028,,07,43,140,42,08,40,066,45,13,43,095,40,7*7E
$GAGSV,3,2,10,23,18,247,33,24,02,345,,26,77,325,36,29,08,184,40,7*73
$GAGSV,3,3,10,31,21,300,35,33,28,291,39,7*7C
$GBGSV,3,1,09,02,04,099,35,05,19,121,42,06,14,075,41,09,10,089,42,1*7F
$GBGSV,3,2,09,12,04,132,41,13,05,062,,16,15,071,42,21,34,051,48,1*70
$GBGSV,3,3,09,28,32,305,37,1*46
$GNGGA,210053.00,4843.26155,N,00920.55460,E,1,12,0.51,251.1,M,47.6,M,,*45
$GPGSV,3,1,11,01,74,307,38,02,80,317,38,03,45,242,37,08,33,176,44,1*65
$GPGSV,3,2,11,10,12,059,,14,17,283,37,17,24,314,,22,18,305,34,1*6B
$GPGSV,3,3,11,27,05,159,17,28,03,104,,32,40,063,49,1*5E
$GLGSV,3,1,10,65,10,032,,66,58,050,47,67,57183,47,68,09,201,,1*7D
$GLGSV,3,2,10,73,09,306,41,74,10,348,25,81,51,116,50,82,72,342,43,1*7C
$GLGSV,3,3,10,83,29,315,35,88,00,127,10,1*7D
$GAGSV,3,1,10,03,04,028,,07,43,140,42,08,40,066,45,13,43,095,40,7*7E
$GAGSV,3,2,10,23,18,247,34,24,02,345,,26,77,325,36,29,08,184,40,7*74
$GAGSV,3,3,10,31,21,300,35,33,28,291,39,7*7C
$GBGSV,3,1,09,02,04,099,5,05,19,121,42,6,14,075,41,09,10,089,43,1*7E
$GBGSV,3,2,09,12,04,132,41,13,05,062,,16,15,071,42,21,34,051,48,1*70
$GBGSV,3,3,09,28,32,305,37,1*46
$GNRMC,210054.00,A,4843.26154,N,00920.55461,E,0.022,,070225,,,A,V*13
$GNGGA,210054.00,4843.26154,N,00920.55461,E,1,12,0.52,251.0,M,47.6,M,,*40
$GPGSV,3,1,11,01,74,307,38,02,80,317,37,03,45,242,36,08,33,176,43,1*6C
$GPGSV,3,2,11,10,12,059,,14,17,283,,17,24,314,,22,18,305,26,1*6C
$GPGSV,3,3,11,27,05,159,09,28,03,104,,32,40,063,49,1*51
$GLGSV,3,1,10,65,10,032,,66,58,050,47,67,57,183,46,68,09,201,,1*7C
$GLGSV,3,2,10,73,09,306,31,74,10,348,37,81,51,116,50,82,72,342,43,1*78
$GLGSV,3,3,10,83,29,315,38,88,00,127,12,1*72
$GAGSV,3,1,10,03,04,028,,07,43,140,42,08,40,066,45,13,43,095,40,7*7E
$GAGSV,3,2,10,23,18,247,38,24,02,345,,26,77,325,36,29,08,184,39,7*76
$GAGSV,3,3,10,31,21,300,33,33,28,291,38,7*7B
$GBGSV,3,1,09,02,04,099,35,05,19,121,42,06,14,075,41,09,10,089,42,1*7F
$GBGSV,3,2,09,12,04,132,43,13,05,062,,16,15,071,41,21,34,051,48,1*71
$GBGSV,3,3,09,28,32,305,35,1*44
$GNRMC,210055.00,A,4843.26151,N,00920.55464,E,0.017,,070225,,,A,V*14
$GNGGA,210055.00,4843.26151,N,00920.55464,E,1,12,0.52,251.0,M,47.6,M,,*41
$GPGSV,3,1,11,01,74,307,39,02,80,317,37,03,45,242,36,08,33,176,42,1*6C
$GPGSV,3,2,11,10,12,059,,14,17,283,,17,24,314,,22,18,305,35,1*6E
$GPGSV,3,3,11,27,05,159,16,28,03,104,,32,40,063,49,1*5F
$GLGSV,3,1,10,65,10,032,,66,58,050,47,67,57,183,46,68,09,201,,1*7C
$GLGSV,3,2,10,73,09,306,42,74,10,348,36,81,51,116,50,82,72,342,44,1*7A
$GLGSV,3,3,10,83,29,315,34,88,00,127,14,1*78
$GAGSV,3,1,10,03,04,028,,07,43,140,42,08,40,066,45,13,43,095,41,7*7F
$GAGSV,3,2,10,23,18,247,34,24,02,345,,26,77,325,36,29,08,184,39,7*7A
$GAGSV,3,3,10,31,21,300,34,33,28,291,38,7*7C
$GBGSV,3,1,09,02,04,099,35,05,19,121,42,06,14,075,41,09,10,089,42,1*7F
$GBGSV,3,2,09,12,04,132,41,13,05,062,,16,15,071,41,21,34,051,48,1*73
$GBGSV,3,3,09,28,32,305,36,1*47
$GNRMC,210056.00,A,4843.26149,N,00920.55466,E,0.007,,070225,,,A,V*1D
$GNGGA,210056.00,4843.26149,N,00920.55466,E,1,12,0.51,251.1,M,47.6,M,,*4B
$GPGSV,3,1,11,01,74,307,38,02,80,317,37,03,45,242,37,08,33,176,42,1*6C
$GPGSV,3,2,11,10,12,059,,14,17,283,38,17,24,314,,22,18,305,36,1*66
$GPGSV,3,3,11,27,05,159,14,28,03,104,,32,40,063,49,1*5D
$GLGSV,3,1,10,65,10,032,,66,58,050,47,67,57,183,46,68,09,201,,1*7C
$GLGSV,3,2,10,73,09,306,42,74,10,348,36,81,51,116,50,82,72,342,44,1*7A
$GLGSV,3,3,10,83,29,315,35,88,00,127,12,1*7F
$GAGSV,3,1,10,03,04,028,,07,43,140,42,08,40,066,45,13,43,095,41,7*7F
$GAGSV,3,2,10,23,18,247,34,24,02,345,,26,77,325,36,29,08,184,38,7*7B
$GAGSV,3,3,10,31,21,300,35,33,28,291,39,7*7C
$GBGSV,3,1,09,02,04,099,35,05,19,121,42,06,14,075,41,09,10,089,42,1*7F
$GBGSV,3,2,09,12,04,132,42,13,05,062,,16,15,071,42,21,34,051,48,1*73
$GBGSV,3,3,09,28,32,305,36,1*47
$GNRMC,210057.00,A,4843.26146,N,00920.55467,E,0.013,,070225,,,A,V*17
$GNGGA,210057.00,4843.26146,N,00920.55467,E,1,12,0.51,251.1,M,47.6,M,,*44
$GPGSV,3,1,11,01,74,307,38,02,80,317,37,03,45,242,37,08,33,176,41,1*6F
$GPGSV,3,2,11,10,11,059,,14,17,283,37,17,24,314,,22,18,305,36,1*6A
$GPGSV,3,3,11,27,05,159,13,28,03,104,,32,40,063,49,1*5A
$GLGSV,3,1,10,65,10,032,,66,58,050,47,67,57,183,46,68,09,201,,1*7C
$GLGSV,3,2,10,73,09,306,42,74,10,348,36,81,51,116,50,82,72,342,43,1*7D
$GLGSV,3,3,10,83,29,315,34,88,00,127,12,1*7E
$GAGSV,3,1,10,03,04,028,,07,43,140,41,08,40066,45,13,43,095,41,7*7C
$GAGSV,3,2,10,23,18,247,34,24,02,345,,26,77,325,35,29,08,184,39,7*79
$GAGSV,3,3,10,31,21,300,35,33,28,291,39,7*7C
$GBGSV,3,1,09,02,04,099,35,05,19,121,42,06,14,075,41,09,10,089,42,1*7F
$GBGSV,3,2,09,12,04,132,42,13,05,062,,16,15,071,42,21,34,051,48,1*73
$GBGSV,3,3,09,28,32,305,36,1*47
$GNRMC,210058.00,A,4843.26144,N,00920.55469,E,0.016,,070225,,,A,V*11
$GNGGA,210058.00,4843.26144,N,00920.55469,E,1,12,0.51,251.0,M,47.6,M,,*46
$GPGSV,3,1,11,01,74,307,39,02,80,317,37,03,45,242,37,08,33,176,41,1*6E
$GPGSV,3,2,11,10,11,059,,14,17,283,37,17,24,314,,22,18,305,36,1*6A
$GPGSV,3,3,11,27,05,159,14,28,03,104,,32,40,063,49,1*5D
$GLGSV,3,1,10,65,10,032,,66,58,050,47,67,57,183,46,68,09,201,,1*7C
$GLGSV,3,2,10,73,09,306,43,74,10,348,36,81,51,116,50,82,72,342,43,1*7C
$GLGSV,3,3,10,83,29,315,34,88,00,127,15,1*79
$GAGSV,3,1,10,03,04,028,,07,43,140,42,08,40,066,45,13,43,095,41,7*7F
$GAGSV,3,2,10,23,18,247,34,24,02,345,,26,77,325,35,29,08,184,40,7*77
$GAGSV,3,3,10,31,21,300,35,33,28,291,39,7*7C
$GBGSV,3,1,09,02,04,099,35,05,19,121,42,06,14,075,41,09,10,089,42,1*7F
$GBGSV,3,2,09,12,04,132,42,13,05,062,,16,15,071,42,21,34,051,48,1*73
$GBGSV,3,3,09,28,32,305,36,1*47
$GNRMC,210059.00,A,4843.26141,N,00920.55471,E,0.017,,070225,,,A,V*1D
$GNGGA,210059.00,4843.26141,N,00920.55471,E,1,12,0.51,250.9,M,47.6,M,,*43
$GPGSV,3,1,11,01,74,307,38,02,80,317,37,03,45,242,38,08,33,176,40,1*61
$GPGSV,3,2,11,10,11,059,,14,17,283,38,17,24,314,,22,18,305,36,1*65
$GPGSV,3,3,11,27,05,159,12,28,03,104,,32,40,063,49,1*5B
$GLGSV,3,1,10,65,10,032,,66,58,050,47,67,57,183,46,68,09,201,,1*7C
$GLGSV,3,2,10,73,09,306,42,74,10,348,36,81,51,116,49,82,72,342,43,1*75
$GLGSV,3,3,10,83,29,315,33,88,00,127,13,1*78
$GAGSV,3,1,10,03,04,028,,07,43,140,42,08,40,066,45,13,43,095,41,7*7F
$GAGSV,3,2,10,23,18,247,35,24,02,345,,26,77,325,35,29,08,184,40,7*76
$GAGSV,3,3,10,31,21,300,35,33,28,291,39,7*7C
$GBGSV,3,1,09,02,04,099,35,05,19,121,42,06,14,075,41,09,10,089,43,1*7E
$GBGSV,3,2,09,12,04,132,42,13,05,062,,16,15,071,42,21,34,051,48,1*73
$GBGSV,3,3,09,28,32,305,36,1*47
$GNRMC,210100.00,A,4843.26139,N,00920.55472,E,0.004,,070225,,,A,V*1E
$GNGGA,210100.00,4843.26139,N,00920.55472,E,1,12,0.51,250.9,M,47.6,M,,*42
$GPGSV,3,1,11,01,74,307,38,02,80,317,37,03,45,242,38,08,33,176,40,1*61
$GPGSV,3,2,11,10,11,059,,14,17,283,38,17,24,314,,22,18,305,36,1*65
$GPGSV,3,3,11,27,05,159,17,28,03,104,,32,40,063,49,1*5E
$GLGSV,3,1,10,65,10,032,,66,58,050,47,67,57,183,46,68,09,201,,1*7C
$GLGSV,3,2,10,73,09,306,42,74,10,348,36,81,51,116,49,82,72,342,43,1*75
$GLGSV,3,3,10,83,29,315,33,88,00,127,14,1*7F
$GAGSV,3,1,10,03,04,028,,07,43,140,42,08,40,066,45,13,43,095,42,7*7C
$GAGSV,3,2,10,23,18,247,35,24,02,345,,26,77,325,35,29,08,184,40,7*76
$GAGSV,3,3,10,31,21,300,35,33,28,291,39,7*7C
$GBGSV,3,1,09,02,04,099,35,05,19,121,42,06,14,075,41,09,10,089,42,1*7F
$GBGSV,3,2,09,12,04,132,42,13,05,062,,16,15,071,42,21,34,051,48,1*73
$GBGSV,3,3,09,28,32,305,36,1*47
$GNRMC,210101.00,A,4843.26135,N,00920.55473,E,0.005,,070225,,,A,V*13
$GNGGA,210101.00,4843.26135,N,00920.55473,E,1,12,0.51,250.8,M,47.6,M,,*4F
$GPGSV,3,1,11,01,74,307,38,02,80,317,37,03,45,242,38,08,33,176,40,1*61
$GPGSV,3,2,11,10,11,059,,14,17,283,38,17,24,314,,22,18,305,37,1*64
$GPGSV,3,3,11,27,05,159,14,28,03,104,,32,40,063,49,1*5D
$GLGSV,3,1,10,65,10,032,,66,58,050,46,67,57,183,46,68,09,201,,1*7D
$GLGSV,3,2,10,73,09,306,42,74,10,348,36,81,51,116,50,82,72,342,43,1*7D
$GLGSV,3,3,10,83,29,315,33,88,00,127,10,1*7B
$GAGSV,3,1,10,03,04,028,,07,43,140,42,08,40,066,45,13,43,095,42,7*7C
$GAGSV,3,2,10,23,18,247,36,24,02,345,,26,77,325,35,29,08,184,40,7*75
$GAGSV,3,3,10,31,21,300,35,33,28,291,39,7*7C
$GBGSV,3,1,09,02,04,099,35,05,19,121,42,06,14,075,41,09,10,089,42,1*7F
$GBGSV,3,2,09,12,04,132,42,13,05,062,,16,15,071,42,21,34,051,48,1*73
$GBGSV,3,3,09,28,32,305,36,1*47
$GNRMC,210102.00,A,4843.26131,N,00920.55472,E,0.009,,070225,,,A,V*19
$GNGGA,210102.00,4843.26131,N,00920.55472,E,1,12,0.51,250.7,M,47.6,M,,*46
$GPGSV,3,1,11,01,74,307,38,02,80,317,37,03,45,242,38,08,33,176,40,1*61
$GPGSV,3,2,11,10,11,059,,14,17,283,38,17,24,314,,22,18,305,37,1*64
$GPGSV,3,3,11,27,05,159,12,28,03,104,,32,40,063,49,1*5B
$GLGSV,3,1,10,65,10,032,,66,58,050,46,67,57,183,46,68,09,201,,1*7D
$GLGSV,3,2,10,73,09,306,42,74,10,348,36,81,51,116,50,82,72,342,43,1*7D
$GLGSV,3,3,10,83,29,315,34,88,00,127,14,1*78
$GAGSV,3,1,10,03,04,028,,07,43,140,42,08,40,066,45,13,43,095,42,7*7C
$GAGSV,3,2,10,23,18,247,36,24,02,345,,26,77,325,34,29,08,184,40,7*74
$GAGSV,3,3,10,31,21,300,36,33,28,291,39,7*7F
$GBGSV,3,1,09,02,04,099,35,05,19,121,42,06,14,075,41,09,10,089,42,1*7F
$GBGSV,3,2,09,12,04,132,42,13,05,062,,16,15,071,42,21,34,051,48,1*73
$GBGSV,3,3,09,28,32,305,35,1*44
$GNRMC,210103.00,A,4843.26129,N,00920.55472,E,0.008,,070225,,,A,V*10
$GNGGA,210103.00,4843.26129,N,00920.55472,E,1,12,0.51,250.6,M,47.6,M,,*4F
$GPGSV,3,1,11,01,74,307,38,02,80,317,37,03,45,242,38,08,33,176,39,1*6F
$GPGSV,3,2,11,10,11,059,,14,17,283,38,17,24,314,,22,18,305,37,1*64
$GPGSV,3,3,11,27,05,159,12,28,03,104,,32,40,063,49,1*5B
$GLGSV,3,1,10,65,10,032,,66,58,050,46,67,5,183,46,68,09,201,,1*7D
$GLGSV,3,2,10,73,09,306,42,74,10,348,36,81,51,116,50,82,72,342,43,1*7D
$GLGSV,3,3,10,83,29,315,34,88,00,127,12,1*7E
$GAGSV,3,1,10,03,04,028,,07,43,140,41,08,40,066,45,13,43,095,42,7*7F
$GAGSV,3,2,10,23,18,247,36,24,02,345,,26,77,325,35,29,08,184,40,7*75
$GAGSV,3,3,10,31,21,300,36,33,28,291,39,7*7F
$GBGSV,3,1,09,02,04,099,35,05,19,121,42,06,14,075,41,09,10,089,42,1*7F
$GBGSV,3,2,09,12,04,132,42,13,05,062,,16,15,071,42,21,34,051,48,1*73
$GBGSV,3,3,09,28,32,305,35,1*44
$GNRMC,210104.00,A,4843.26126,N,00920.55471,E,0.006,,070225,,,A,V*15
$GNGGA,210104.00,4843.26126,N,00920.55471,E,1,12,0.51,250.6,M,47.6,M,,*44
$GPGSV,3,1,1,01,74,307,38,02,80,317,37,03,45,242,38,08,33,176,39,1*6F
$GPGSV,3,2,11,10,11,059,,14,17,283,38,17,24,314,,22,18,305,37,1*64
$GPGSV,3,3,11,27,05,159,10,28,03,104,,32,40,063,49,1*59
$GLGSV,3,1,10,65,10,032,,66,58,050,46,67,57,183,45,68,09,201,,1*7E
$GLGSV,3,3,10,83,29,315,34,88,00,127,14,1*78
$GAGSV,3,1,10,03,04,028,,07,43,140,42,08,40,066,45,13,43,095,42,7*7C
$GAGSV,3,2,10,23,18,247,36,24,02,345,,26,77,325,35,29,08,184,40,7*75
$GAGSV,3,3,10,31,21,300,36,33,28,291,39,7*7F
$GBGSV,3,1,09,02,04,099,35,05,19,121,42,06,14,075,41,09,10,089,43,1*7E
$GBGSV,3,2,09,12,04,132,42,13,05,062,,16,15,071,42,21,34,051,48,1*73
$GBGSV,3,3,09,28,32,305,35,1*44
$GNRMC,210105.00,A,4843.26123,N,00920.55471,E,0.004,,070225,,,A,V*13
$GNGGA,210105.00,4843.26123,N,00920.55471,E,1,12,0.51,250.5,M,47.6,M,,*43
$GPGSV,3,1,11,01,74,307,37,02,80,317,37,03,45,242,38,08,33,176,40,1*6E
$GPGSV,3,2,11,10,11,059,,14,17,283,38,17,24,314,,22,18,305,37,1*64
$GPGSV,3,3,11,27,05,159,12,28,03,104,,32,40,063,49,1*5B
$GLGSV,3,1,10,65,10,032,,66,58,050,46,67,57,183,45,68,09,201,,1*7E
$GLGSV,3,2,10,73,09,306,42,74,10,348,37,81,51,116,49,82,72,342,44,1*73
$GLGSV,3,3,10,83,29,315,34,88,00,127,11,1*7D
$GAGSV,3,1,10,03,04,028,,07,43,140,41,08,40,066,45,13,43,095,43,7*7E
$GAGSV,3,2,10,23,18,247,36,24,02,345,,26,77,325,35,29,08,184,40,7*75
$GAGSV,3,3,10,31,21,300,36,33,28,291,39,7*7F
$GBGSV,3,1,09,02,04,099,35,05,19,121,42,06,14,075,41,09,10,089,43,1*7E
$GBGSV,3,2,09,12,04,132,43,13,05,062,,16,15,071,42,21,34,051,48,1*72
$GBGSV,3,3,09,28,32,305,35,1*44
$GNRMC,210106.00,A,4843.26121,N,00920.55471,E,0.011,,070225,,,A,V*16
$GNGGA,210106.00,4843.26121,N,00920.55471,E,1,12,0.51,250.4,M,47.6,M,,*43
$GPGSV,3,1,11,01,74,307,37,02,80,317,37,03,45,242,38,08,33,176,40,1*6E
$GPGSV,3,2,11,10,11,059,,14,17,283,38,17,24,314,,22,18,305,37,1*64
$GPGSV,3,3,11,27,05,159,12,28,03,104,,32,40,063,49,1*5B
$GLGSV,3,1,10,65,10,032,,66,58,050,46,67,57,183,46,68,09,201,,1*7D
$GLGSV,3,2,10,73,09,306,42,74,10,348,37,81,51,116,50,82,72,342,44,1*7B
$GLGSV,3,3,10,83,29,315,35,88,00,127,13,1*7E
$GAGSV,3,1,10,03,04,028,,07,43,140,41,08,40,066,45,13,43,095,43,7*7E
$GAGSV,3,2,10,23,18,247,36,24,02,345,,26,77,325,35,29,08,184,40,7*75
$GAGSV,3,3,10,31,21,300,36,33,28,291,39,7*7F
$GBGSV,3,1,09,02,04,099,35,05,19,121,42,06,14,075,41,09,10,089,42,1*7F
$GBGSV,3,2,09,12,04,132,43,13,05,062,,16,15,071,42,21,34,051,48,1*72
$GBGSV,3,3,09,28,32,305,35,1*44
$GNRMC,210107.00,A,4843.26115,N,00920.55470,E,0.021,,070225,,,A,V*12
$GNGGA,210107.00,4843.26115,N,00920.55470,E,1,12,0.51,250.4,M,47.6,M,,*44
$GPGSV,3,1,11,01,74,307,37,02,80,317,37,03,45,242,38,08,33,176,41,1*6F
$GPGSV,3,2,11,10,11,059,,14,17,283,37,17,24,314,,22,18,305,37,1*6B
$GPGSV,3,3,11,27,05,159,11,28,03,104,,32,40,063,49,1*58
$GLGSV,3,1,10,65,10,032,,66,58,050,46,67,57,183,46,68,09,201,,1*7D
$GLGSV,3,2,10,73,09,306,42,74,10,348,37,81,51,116,50,82,72,342,44,1*7B
$GLGSV,3,3,10,83,29,315,35,88,00,127,10,1*7D
$GAGSV,3,1,10,03,04,028,,07,43,140,41,08,40,066,45,13,43,095,43,7*7E
$GAGSV,3,2,10,23,18,247,36,24,02,345,,26,77,325,35,29,08,184,40,7*75
$GAGSV,3,3,10,31,21,300,36,33,28,291,39,7*7F
$GBGSV,3,1,09,02,04,099,35,05,19,121,42,06,14,075,41,09,10,089,42,1*7F
$GBGSV,3,2,09,12,04,132,43,13,05,062,,16,15,071,42,21,34,051,48,1*72
$GBGSV,3,3,09,28,32,305,35,1*44
$GNRMC,210108.00,A,4843.26110,N,00920.55468,E,0.015,,070225,,,A,V*16
$GNGGA,210108.00,4843.26110,N,00920.55468,E,1,12,0.51,250.4,M,47.6,M,,*47
$GPGSV,3,1,11,01,74,307,37,02,80,317,37,03,45,242,38,08,33,176,41,1*6F
$GPGSV,3,2,11,10,11,059,,14,17,283,38,17,24,314,,22,18,304,37,1*65
$GPGSV,3,3,11,27,05,159,12,28,03,104,,32,40,063,49,1*5B
$GLGSV,3,1,10,65,10,032,,66,58,050,46,67,57,183,45,68,09,201,,1*7E
$GLGSV,3,2,10,73,09,306,42,74,10,348,37,81,51,116,50,82,72,342,43,1*7C
$GLGSV,3,3,10,83,29,315,35,88,00,127,11,1*7C
$GAGSV,3,1,10,03,04,028,,07,43,140,41,08,40,066,45,13,43,095,44,7*79
$GAGSV,3,2,10,23,18,247,36,24,02,345,,26,7,325,36,29,08,184,40,7*76
$GAGSV,3,3,10,31,21,300,36,33,28,291,39,7*7F
$GBGSV,3,1,09,02,04,099,35,05,19,121,42,06,14,075,41,09,10,089,43,1*7E
$GBGSV,3,2,09,12,04,132,43,13,05,062,,16,15,071,41,21,34,051,48,1*71
$GBGSV,3,3,09,28,32,305,34,1*45
