$GNRMC,030000.00,A,4843.26109,N,00920.55346,E,0.006,,080225,,,A,V*11
$GNGGA,030000.00,4843.26109,N,00920.55346,E,1,12,0.51,251.0,M,47.6,M,,*48
$GPGSV,3,1,11,04,15,079,47,05,22,309,43,06,26,209,,07,72,112,46,1*68
$GPGSV,3,2,11,09,45,076,47,11,41,247,40,13,08,260,43,16,12,035,,1*64
$GPGSV,3,3,11,20,56,296,36,29,03,322,,30,51,196,39,1*55
$GLGSV,3,1,10,69,43,079,49,70,55,316,13,71,12,290,,78,14,024,11,1*73
$GLGSV,3,2,10,79,48,071,50,80,36,148,47,84,00,208,11,85,26,250,48,1*7E
$GLGSV,3,3,10,86,28,313,47,87,06,354,,1*74
$GAGSV,3,1,12,04,34,266,38,06,10,262,37,10,46,267,,11,35,303,37,7*7F
$GAGSV,3,2,12,12,43,232,,19,80,029,,21,20,122,48,27,24,067,44,7*73
$GAGSV,3,3,12,29,35,074,46,30,05,021,38,33,09,184,37,36,02,338,,7*7D
$GBGSV,3,1,12,02,01,102,33,05,18,123,43,06,11,046,,09,26,048,40,1*7D
$GBGSV,3,2,12,16,08,044,32,20,07,291,,23,39,160,46,24,11,037,41,1*7C
$GBGSV,3,3,12,25,49,083,49,27,00,217,,29,13,314,,30,14,261,37,1*70
$GNRMC,030001.00,A,4843.26108,N,00920.55349,E,0.007,,080225,,,A,V*1F
$GNGGA,030001.00,4843.26108,N,00920.55349,E,1,12,0.51,251.0,M,47.6,M,,*47
$GPGSV,3,1,11,04,15,079,47,05,22,309,43,06,26,209,,07,72,112,46,1*68
$GPGSV,3,2,11,09,45,076,47,11,41,247,40,13,08,260,43,16,12,035,,1*64
$GPGSV,3,3,11,20,56,296,36,29,03,322,,30,51,196,38,1*54
$GLGSV,3,1,10,69,43,079,49,70,55,316,14,71,12,290,,78,14,024,11,1*74
$GLGSV,3,2,10,79,48,071,50,80,36,148,48,84,00,208,11,85,26,250,48,1*71
$GLGSV,3,3,10,86,28,313,47,87,06,354,,1*74
$GAGSV,3,1,12,04,34,266,38,06,10,262,38,10,46,267,,11,35,303,37,7*70
$GAGSV,3,212,12,43,232,,19,80,029,,21,20,122,48,27,24,067,44,7*73
$GAGSV,3,3,12,29,35,074,46,30,05,021,39,33,09,184,37,36,02,338,,7*7C
$GBGSV,3,1,12,02,01,102,33,05,18,123,43,06,11,046,,09,26,048,40,1*7D
$GBGSV,3,2,12,16,08,044,32,20,07,291,,23,39,160,46,24,11,037,40,1*7D
$GBGSV,3,3,12,25,49,083,49,27,00,217,,29,13,314,,30,14,261,37,1*70
$GNRMC,030002.00,A,4843.26108,N,00920.55351,E,0.005,,080225,,,A,V*17
$GNGGA,030002.00,4843.26108,N,00920.55351,E,1,12,0.51,251.0,M,47.6,M,,*4D
$GPGSV,3,1,11,04,15,079,47,05,22,309,43,06,26,209,,07,72,112,46,1*68
$GPGSV,3,2,11,09,44,077,47,11,41,247,40,13,08,260,43,16,12,035,,1*64
$GPGSV,3,3,11,20,56,296,36,29,03,322,,30,51,196,38,1*54
$GLGSV,3,1,10,69,43,079,49,70,55,316,16,71,12,290,,78,14,024,16,1*71
$GLGSV,3,2,10,79,48,071,50,80,36,148,48,84,00,208,13,85,26,250,4,1*73
$GLGSV,3,3,10,86,28,313,47,87,06,354,,1*74
$GAGSV,3,1,12,04,34,266,38,06,10,262,38,10,46,267,,11,35,303,37,7*70
$GAGSV,3,2,12,12,43,232,,19,80,029,,21,20,122,48,27,24,067,44,7*73
$GAGSV,3,3,12,29,35,074,46,30,05,021,38,33,09,184,37,36,02,338,,7*7D
$GBGSV,3,1,12,02,01,102,33,05,18,123,43,06,11,046,,09,26,048,40,1*7D
$GBGSV,3,2,12,16,08,044,33,20,07,291,,23,39,160,46,24,11,037,40,1*7C
$GBGSV,3,3,12,25,49,083,49,27,00,217,,29,13,314,,30,14,261,37,1*70
$GNRMC,030003.00,A,4843.26108,N,00920.55353,E,0.004,,080225,,,A,V*15
$GNGGA,030003.00,4843.26108,N,00920.55353,E,1,12,0.51,251.0,M,47.6,M,,*4E
$GPGSV,3,1,11,04,15,079,47,05,22,309,43,06,26,209,,07,72,112,46,1*68
$GPGSV,3,2,11,09,44,077,47,11,41,247,40,13,08,260,43,16,12,035,,1*64
$GPGSV,3,3,11,20,56,296,36,29,03,322,,30,51,196,37,1*5B
$GLGSV,3,1,10,69,43,079,49,70,55,316,17,71,12,290,,78,14,024,13,1*75
$GLGSV,3,2,10,79,48,071,49,80,36,148,48,84,00,208,12,85,26,250,48,1*7A
$GLGSV,3,3,10,86,28,313,46,87,06,354,,1*75
$GAGSV,3,1,12,04,34,266,38,06,10,262,38,10,46,267,,11,35,303,37,7*70
$GAGSV,3,2,12,12,43,232,,19,80,029,,21,20,122,48,27,24,067,44,7*73
$GAGSV,3,3,12,29,35,074,46,30,05,021,39,33,09,184,38,36,02,338,,7*73
$GBGSV,3,1,12,02,01,102,33,05,18123,43,06,11,046,,09,26,048,40,1*7D
$GBGSV,3,2,12,16,08,044,32,20,07,291,,23,39,160,46,24,11,037,40,1*7D
$GBGSV,3,3,12,25,49,083,49,27,00,217,,29,13,314,,30,14,261,37,1*70
$GNRMC,030004.00,A,4843.26107,N,00920.55355,E,0.011,,080225,,,A,V*1F
$GNGGA,030004.00,4843.26107,N,00920.55355,E,1,12,0.51,251.0,M,47.6,M,,*40
$GPGSV,3,1,11,04,15,079,47,05,22,309,43,06,26,209,,07,72,112,46,1*68
$GPGSV,3,2,11,09,44,077,47,11,41,246,40,13,08,260,43,16,12,035,,1*65
$GPGSV,3,3,11,20,56,296,36,29,03,322,,30,51,196,37,1*5B
$GLGSV,3,1,10,69,43,079,49,70,55,316,19,71,12,290,,78,14,024,14,1*7C
$GLGSV,3,2,10,79,48,071,49,80,36,148,48,84,00,208,16,85,26,250,48,1*7E
$GLGSV,3,3,10,86,28,313,46,87,06,354,,1*75
$GAGSV,3,1,12,04,34,266,38,06,10,262,38,10,46,267,,11,35,303,37,7*70
$GAGSV,3,2,12,12,43,232,,19,80,029,,21,20,122,48,27,24,067,44,7*73
$GAGSV,3,3,12,29,35,074,46,30,05,021,39,33,09,184,37,36,02,338,,7*7C
$GBGSV,3,1,12,02,01,102,33,05,18,123,43,06,11,046,,09,26,048,40,1*7D
$GBGSV,3,2,12,16,08,044,32,20,07,291,,23,39,160,46,24,11,037,41,1*7C
$GBGSV,3,3,12,25,49,083,49,27,00,217,,29,13,314,,30,14,261,37,1*70
$GNRMC,030005.00,A,4843.26107,N,00920.55357,E,0.007,,080225,,,A,V*1B
$GNGGA,030005.00,4843.26107,N,00920.55357,E,1,12,0.49,250.9,M,47.6,M,,*42
$GPGSV,3,1,11,04,15,079,47,05,22,309,43,06,26,209,,07,72,112,46,1*68
$GPGSV,3,2,11,09,44,077,47,11,41,246,40,13,08,260,43,16,12,035,,1*65
$GPGSV,3,3,11,20,56,296,36,29,03,322,,30,51,196,37,1*5B
$GLGSV,3,1,10,69,43,079,49,70,55,316,17,71,12,290,,78,14,024,16,1*70
$GLGSV,3,2,10,79,48,071,49,80,36,148,48,84,00,208,10,85,26,250,48,1*78
$GLGSV,3,3,10,86,28,313,46,87,06,354,,1*75
$GAGSV,3,1,12,04,34,266,38,06,10,262,38,10,46,267,,11,35,303,37,7*70
$GAGSV,3,2,12,12,43,232,,19,80,029,,21,20,122,48,27,24,067,44,7*73
$GAGSV,3,3,12,29,35,074,46,30,05,021,39,33,09,184,37,36,02,338,,7*7C
$GBGSV,3,1,12,02,01,102,33,05,18,123,43,06,11,046,,09,26,048,40,1*7D
$GBGSV,3,2,12,16,08,044,32,20,07,291,,23,39,160,46,24,11,037,41,1*7C
$GBGSV,3,3,12,25,49,083,49,27,00,217,,29,13,314,,30,14,261,37,1*70
$GNRMC,030006.00,A,4843.26108,N,00920.55359,E,0.002,,080225,,,A,V*1C
$GNGGA,030006.00,4843.26108,N,00920.55359,E,1,12,0.49,250.9,M,47.6,M,,*40
$GPGSV,3,1,11,04,15,079,47,05,22,309,43,06,26,209,,07,72,112,46,1*68
$GPGSV,3,2,11,09,44,077,47,11,41,246,40,13,09,260,43,16,12,035,,1*64
$GPGSV,3,3,11,20,56,296,36,29,03,322,,30,51,196,37,1*5B
$GLGSV,3,1,10,69,43,079,49,70,55,316,16,71,12,290,,78,14,024,15,1*72
$GLGSV,3,2,10,79,48,071,49,80,36,148,48,84,00,208,13,85,26,250,48,1*7B
$GLGSV,3,3,10,86,28,313,46,87,06,354,,1*75
$GAGSV,3,1,12,04,34,266,38,06,10,262,38,10,46,267,,11,35,303,38,7*7F
$GAGSV,3,2,12,12,43,232,,19,80,029,,21,20,122,48,27,24,067,44,7*73
$GAGSV,3,3,12,29,35,074,46,30,05,021,39,33,09,184,37,36,02,338,,7*7C
$GBGSV,3,1,12,02,01,102,33,05,18,123,43,06,11,046,,09,26,048,40,1*7D
$GBGSV,3,2,12,16,08,044,32,20,07,291,,23,39,160,46,24,11,037,41,1*7C
$GBGSV,3,3,12,25,49,083,49,27,00,217,,29,13,314,,30,14,261,37,1*70
$GNRMC,030007.00,A,4843.26108,N,00920.55361,E,0.011,,080225,,,A,V*14
$GNGGA,030007.00,4843.26108,N,00920.55361,E,1,12,0.49,250.8,M,47.6,M,,*4B
$GPGSV,3,1,11,04,15,079,47,05,22,309,43,06,26,209,,07,72,112,46,1*68
$GPGSV,3,2,11,09,44,077,47,11,41,246,40,13,09,260,43,16,12,035,,1*64
$GPGSV,3,3,11,20,56,296,36,29,03,322,,30,51,196,37,1*5B
$GLGSV,3,1,10,69,43,079,48,70,55,316,21,71,12,290,,78,14,024,22,1*73
$GLGSV,3,2,10,79,48,071,49,80,36,148,48,84,00,208,12,85,26,250,49,1*7B
$GLGSV,3,3,10,86,28,313,46,87,06,354,,1*75
$GAGSV,3,1,12,04,34,266,38,06,10,262,38,10,46,267,,11,35,303,38,7*7F
$GAGSV,3,2,12,12,43,232,,19,80,029,,21,20,122,48,27,24,067,44,7*73
$GAGSV,3,3,12,29,35,074,46,30,05,021,39,33,09,184,37,36,02,338,,7*7C
$GBGSV,3,1,12,02,01,102,33,05,18,123,43,06,11,046,,09,26,048,40,1*7D
$GBGSV,3,2,12,16,08,044,32,20,07,291,,23,39,160,46,24,11,037,41,1*7C
$GBGSV,3,3,12,25,49,083,49,27,00,217,,29,13,314,,30,14,261,37,1*70
$GNRMC,030008.00,A,4843.26108,N,00920.55362,E,0.004,,080225,,,A,V*1C
$GNGGA,030008.00,4843.26108,N,00920.55362,E,1,12,0.49,250.8,M,47.6,M,,*47
$GPGSV,3,1,11,04,15,079,47,05,22,309,44,06,26,209,,07,72,112,46,1*6F
$GPGSV,3,2,11,09,44,077,47,11,41,246,40,13,09,260,43,16,12,035,,1*64
$GPGSV,3,3,11,20,56,296,36,29,03,322,,30,51,196,36,1*5A
$GLGSV,3,1,10,69,43,079,48,70,55,316,23,71,12,290,,78,14,024,20,1*73
$GLGSV,3,2,10,79,48,071,49,80,36,148,47,84,00,208,13,85,26,250,49,1*75
$GLGSV,3,3,10,86,28,313,46,87,06,354,,1*75
$GAGSV,3,1,12,04,34,266,38,06,10,262,38,10,46,267,,11,35,303,38,7*7F
$GAGSV,3,2,12,12,43,232,,19,80,029,,21,20,122,48,27,24,067,44,7*73
$GAGSV,3,3,12,29,35,074,46,30,05,021,39,33,09,184,37,36,02,338,,7*7C
$GBGSV,3,1,12,02,01,102,33,0,18,123,43,06,11,046,,09,26,048,40,1*7D
$GBGSV,3,2,12,16,08,044,32,20,07,291,,23,39,160,46,24,11,037,41,1*7C
$GBGSV,3,3,12,25,49,083,49,27,00,217,,29,13,314,,30,14,261,37,1*70
$GNRMC,030009.00,A,4843.26108,N,0920.55363,E,0.033,,080225,,,A,V*18
$GNGGA,030009.00,4843.26108,N,00920.55363,E,1,12,0.48,250.8,M,47.6,M,,*46
$GPGSV,3,1,11,04,15,079,47,05,22,309,43,06,26,209,,07,72,112,46,1*68
$GPGSV,3,2,11,09,44,077,47,11,41,246,40,13,09,260,43,16,11,034,,1*66
$GPGSV,3,3,11,20,56,296,36,29,03,322,,30,51,196,36,1*5A
$GLGSV,3,1,10,69,43,079,48,70,55,316,22,71,12,290,,78,14,024,23,1*71
$GLGSV,3,2,10,79,48,071,49,80,36,148,48,84,00,208,12,85,26,250,49,1*7B
$GLGSV,3,3,10,86,28,313,45,87,06,354,,1*76
$GAGSV,3,1,12,04,34,266,38,06,10,262,38,10,46,267,,11,35,303,38,7*7F
$GAGSV,3,2,12,12,43,232,,19,80,029,,21,20,122,48,27,24,067,44,7*73
$GAGSV,3,3,12,29,35,074,46,30,05,021,39,33,09,184,37,36,02,338,,7*7C
$GBGSV,3,1,12,02,01,102,33,05,18,123,43,06,11,046,,09,26,048,40,1*7D
$GBGSV,3,2,12,16,08,044,32,20,07,291,,23,39,160,47,24,11,037,41,1*7D
$GBGSV,3,3,12,25,49,083,49,27,00,217,,29,13,314,,30,14,261,37,1*70
$GNRMC,030010.00,A,4843.26108,N,00920.55365,E,0.015,,080225,,,A,V*12
$GNGGA,030010.00,4843.26108,N,00920.55365,E,1,12,0.48,250.8,M,47.6,M,,*48
$GPGSV,3,1,11,04,15,079,46,05,22,309,43,06,26,209,,07,72,112,46,1*69
$GPGSV,3,2,11,09,44,077,47,11,41,246,40,13,09,260,43,16,11,034,,1*66
$GPGSV,3,3,11,20,56,296,36,29,03,322,,30,51,196,36,1*5A
$GLGSV,3,1,10,69,43,079,48,70,55,316,24,71,12,290,,78,14,024,24,1*70
$GLGSV,3,2,10,79,48,071,50,80,36,148,47,84,00,208,14,85,25,250,49,1*79
$GLGSV,3,3,10,86,28,313,45,87,06,354,,1*76
$GAGSV,3,1,12,04,34,266,38,06,10,262,38,10,46,267,,11,35,303,38,7*7F
$GAGSV,3,2,12,12,43,232,,19,80,029,,21,20,122,48,27,24,067,44,7*73
$GAGSV,3,3,12,29,35,074,46,30,05,021,39,33,09,184,37,36,02,338,,7*7C
$GBGSV,3,1,12,02,01,102,33,05,18,123,43,06,11,046,,09,26,048,40,1*7D
$GBGSV,3,2,12,16,08,044,31,20,07,291,,23,39,160,47,24,11,037,41,1*7E
$GBGSV,3,3,12,25,49,083,48,27,00,217,,29,13,314,,30,14,261,38,1*7E
$GNRMC,030011.00,A,4843.26109,N,00920.55368,E,0.005,,080225,,,A,V*1E
$GNGGA,030011.00,4843.26109,N,00920.55368,E,1,12,0.48,250.8,M,47.6,M,,*45
$GPGSV,3,1,11,04,15,079,46,05,22,309,43,06,26,209,,07,72,112,46,1*69
$GPGSV,3,2,11,09,44,077,48,11,41,246,41,13,09,260,43,16,11,034,,1*68
$GPGSV,3,3,11,20,56,296,36,29,03,322,,30,51,196,36,1*5A
$GLGSV,3,1,10,69,43,079,48,70,55,316,25,71,12,290,,78,14,024,23,1*76
$GLGSV,3,2,10,79,48,071,50,80,36,148,47,84,00,208,12,85,25,250,49,1*7F
$GLGSV,3,3,10,86,28,313,45,87,06,354,,1*76
$GAGSV,3,1,12,04,34,266,38,06,10,262,38,10,46,267,,11,35,303,38,7*7F
$GAGSV,3,2,12,12,43,232,,19,80,029,,21,20,122,48,27,24,067,44,7*73
$GAGSV,3,3,12,29,35,074,46,30,05,021,39,33,09,184,38,36,02,338,,7*73
$GBGSV,3,1,12,02,01,102,33,05,18,123,43,06,11,046,,09,26,048,40,1*7D
$GBGSV,3,2,12,16,08,044,31,20,07,291,,23,39,160,47,24,11,037,41,1*7E
$GBGSV,3,3,12,25,49,083,48,27,00,217,,29,13,314,,30,14,261,38,1*7E
$GNRMC,030012.00,A,4843.26110,N,00920.55370,E,0.010,,080225,,,A,V*18
$GNGGA,030012.00,4843.26110,N,00920.55370,E,1,12,0.48,250.8,M,47.6,M,,*47
$GPGSV,3,1,11,04,15,079,46,05,22,309,44,06,26,209,,07,72,112,46,1*6E
$GPGSV,3,2,11,09,44,077,48,11,41,246,41,13,09,260,43,16,11,034,,1*68
$GPGSV,3,3,11,20,56,296,35,29,03,322,,30,51,196,35,1*5A
$GLGSV,3,1,10,69,43,079,48,70,55,316,25,71,12,290,,78,14,024,23,1*76
$GLGSV,3,2,10,79,48,071,50,80,36,148,47,84,00,208,12,85,25,250,49,1*7F
$GLGSV,3,3,10,86,28,313,45,87,06,354,,1*76
$GAGSV,3,1,12,04,34,266,38,06,10,262,38,10,46,267,,11,35,303,38,7*7F
$GAGSV,3,2,12,12,43,232,,19,80,029,,21,20,122,48,27,24,067,44,7*73
$GAGSV,3,3,12,29,35,074,46,30,05,021,39,33,09,184,38,36,02,338,,7*73
$GBGSV,3,1,12,02,01,102,33,05,18,123,43,06,11,046,,09,26,048,40,1*7D
$GBGSV,3,2,12,16,08,044,31,20,07,291,,23,39,160,47,24,11,037,41,1*7E
$GBGSV,3,3,12,25,49,083,48,27,00,217,,29,13,314,,30,14,261,38,1*7E
$GNRMC,030013.00,A,4843.26111,N,00920.55373,E,0.005,,080225,,,A,V*1F
$GNGGA,030013.00,4843.26111,N,00920.55373,E,1,12,0.48,250.7,M,47.6,M,,*4B
$GPGSV,3,1,11,04,15,079,46,05,22,309,44,06,26,209,,07,72,112,46,1*6E
$GPGSV,3,2,11,09,44,077,48,11,41,246,41,13,09,260,43,16,11,034,,1*68
$GPGSV,3,3,11,20,56,295,35,29,03,322,,30,51,196,35,1*59
$GLGSV,3,1,10,69,43,079,48,70,55,316,25,71,12,290,,78,14,024,26,1*73
$GLGSV,3,2,10,79,48,071,50,80,36,148,47,84,00,208,12,85,25,250,49,1*7F
$GLGSV,3,3,10,86,28,313,45,87,06,354,,1*76
$GAGSV,3,1,12,04,34,266,38,06,10,262,38,10,46,267,,11,35,303,38,7*7F
$GAGSV,3,2,12,12,43,232,,19,80,029,,21,20,122,48,27,24,067,44,7*73
$GAGSV,3,3,12,29,35,074,46,30,05,021,38,33,09,184,38,36,02,338,,7*72
$GBGSV,3,1,12,02,01,102,33,05,18,123,43,06,11,046,,09,26,048,40,1*7D
$GBGSV,3,2,12,16,08,044,31,20,07,291,,23,39,160,47,24,11,037,41,1*7E
$GBGSV,3,3,12,25,49,083,48,27,00,217,,29,13,314,,30,14,261,38,1*7E
$GNRMC,030014.00,A,4843.26112,N,00920.55376,E,0.013,,080225,,,A,V*19
$GNGGA,030014.00,4843.26112,N,00920.55376,E,1,12,0.48,250.7,M,47.6,M,,*4A
$GPGSV,3,1,11,04,15,079,46,05,22,309,44,06,26,209,,07,72,112,46,1*6E
$GPGSV,3,2,11,09,44,077,48,11,41,246,41,13,09,260,43,16,11,034,,1*68
$GPGSV,3,3,11,20,56,295,35,29,03,322,,30,51,196,36,1*5A
$GLGSV,3,1,10,69,43,079,48,70,55,316,26,71,12,290,,78,14,024,29,1*7F
$GLGSV,3,2,10,79,48,071,50,80,36,148,48,84,00,208,12,85,25,250,49,1*70
$GLGSV,3,3,10,86,28,313,45,87,06,354,,1*76
$GAGSV,3,1,12,04,34,266,38,06,10,262,38,10,46,267,,11,35,303,38,7*7F
$GAGSV,3,2,12,12,43,232,,19,80,029,,21,20,122,48,27,24,067,44,7*73
$GAGSV,3,3,12,29,35,074,46,30,05,021,38,33,09,184,38,36,02,338,,7*72
$GBGSV,3,1,12,02,01,102,33,05,18,123,43,06,11,046,,09,26,048,40,1*7D
$GBGSV,3,2,12,16,08,044,31,20,07,291,,23,39,160,47,24,11,037,41,1*7E
$GBGSV,3,3,12,25,49,083,48,27,00,217,,29,13,314,,30,14,261,39,1*7F
$GNRMC,030015.00,A,4843.26114,N,00920.55380,E,0.013,,080225,,,A,V*17
$GNGGA,030015.00,4843.26114,N,00920.55380,E,1,12,0.48,250.7,M,47.6,M,,*44
$GPGSV,3,1,11,04,15,079,46,05,22,309,43,06,26,209,,07,72,112,46,1*69
$GPGSV,3,2,11,09,44,077,48,11,41,246,41,13,09,260,43,16,11,034,,1*68
$GPGSV,3,3,11,20,56,295,34,29,03,322,,30,51,196,35,1*58
$GLGSV,3,1,10,69,43,079,47,70,55,316,26,71,12,290,,78,14,024,29,1*70
$GLGSV,3,2,10,79,48,071,50,80,36,148,48,84,00,208,14,85,25,250,49,1*76
$GLGSV,3,3,10,86,28,313,45,87,06,354,,1*76
$GAGSV,3,1,12,04,34,266,38,06,10,262,38,10,46,267,,11,35,303,37,7*70
$GAGSV,3,2,12,12,43,232,,19,80,029,,21,20,122,48,27,24,067,44,7*73
$GAGSV,3,3,12,29,35,074,46,30,05,021,39,33,09,184,38,36,02,338,,7*73
$GBGSV,3,1,12,02,01,102,33,05,18,123,43,06,11,046,,09,26,048,40,1*7D
$GBGSV,3,2,12,16,08,044,31,20,07,291,,23,39,160,47,24,11,037,41,1*7E
$GBGSV,3,3,12,25,49,083,48,27,00,217,,29,13,314,,30,14,261,39,1*7F
$GNRMC,030016.00,A,4843.26115,N,00920.55383,E,0.004,,080225,,,A,V*10
$GNGGA,030016.00,4843.26115,N,00920.55383,E,1,12,0.48,250.7,M,47.6,M,,*45
$GPGSV,3,1,11,04,15,079,46,05,22,309,43,06,26,209,,07,72,112,46,1*69
$GPGSV,3,2,11,09,44,077,48,11,41,246,41,13,09,260,43,16,11,034,,1*68
$GPGSV,3,3,11,20,56,295,34,29,03,322,,30,51,196,35,1*58
$GLGSV,3,1,10,69,43,079,47,70,55,316,27,71,12,290,,78,14,024,30,1*79
$GLGSV,3,2,10,79,48,071,50,80,36,148,48,84,00,208,10,85,25,250,49,1*72
$GLGSV,3,3,10,86,28,313,45,87,06,354,,1*76
$GAGSV,3,1,1,04,34,266,38,06,10,262,39,10,46,267,,11,35,303,37,7*71
$GAGSV,3,2,12,12,43,232,,19,80,029,,21,20,122,48,27,24,067,44,7*73
$GAGSV,3,3,12,29,35,074,46,30,05,021,38,33,09,184,38,36,02,338,,7*72
$GBGSV,3,1,12,02,01,102,33,05,18,123,43,06,11,046,,09,26,048,39,1*73
$GBGSV,3,2,12,16,08,044,30,20,07,291,,23,39,160,47,24,11,037,41,1*7F
$GBGSV,3,3,12,25,49,083,48,27,00,217,,29,13,314,,30,13,261,39,1*78
$GNRMC,030017.00,A,4843.26117,N,00920.55385,E,0.004,,080225,,,A,V*15
$GNGGA,030017.00,4843.26117,N,00920.55385,E,1,12,0.48,250.6,M,47.6,M,,*41
$GPGSV,3,1,11,04,15,079,46,05,22,309,43,06,26,209,,07,72,112,46,1*69
$GPGSV,3,2,11,09,44,077,48,11,41,246,41,13,09,260,43,16,11,034,,1*68
$GPGSV,3,3,11,20,56,295,34,29,03,322,,30,51,196,36,1*5B
$GLGSV,3,1,10,69,43,079,47,70,55,316,26,71,12,290,,78,14,024,31,1*79
$GLGSV,3,2,10,79,48,071,50,80,36,148,48,84,00,208,12,85,25,250,48,1*71
$GLGSV,3,3,10,86,28,313,45,87,06,354,,1*76
$GAGSV,3,1,12,04,34,266,38,06,10,262,39,10,46,267,,11,35,303,38,7*7E
$GAGSV,3,2,12,12,43,232,,19,80,029,,21,20,122,48,27,24,067,44,7*73
$GAGSV,3,3,12,29,35,074,45,30,05,021,38,33,09,184,38,36,02,338,,7*71
$GBGSV,3,1,12,02,01,102,33,05,18,123,43,06,11,046,,09,26,048,40,1*7D
$GBGSV,3,2,12,16,08,04,30,20,07,291,,23,39,160,47,24,11,037,41,1*7F
$GBGSV,3,3,12,25,49,083,48,27,00,217,,29,13,314,,30,13,261,39,1*78
$GNRMC,030018.00,A,4843.26119,N,00920.55387,E,0.006,,080225,,,A,V*14
$GNGGA,030018.00,4843.26119,N,00920.55387,E,1,12,0.48,250.5,M,47.6,M,,*41
$GPGSV,3,1,11,04,15,079,45,05,22,309,43,06,26,209,,07,72,112,46,1*6A
$GPGSV,3,2,11,09,44,077,48,11,41,246,41,13,09,260,43,16,11,034,,1*68
$GPGSV,3,3,11,20,56,295,35,29,03,322,,30,51,196,36,1*5A
$GLGSV,3,1,10,69,43,079,47,70,55,316,27,71,12,290,,78,14,024,31,1*78
$GLGSV,3,2,10,79,48,071,49,80,36148,49,84,00,208,12,85,25,250,48,1*78
$GLGSV,3,3,10,86,28,313,45,87,06,354,,1*76
$GAGSV,3,1,12,04,34,266,38,06,10,262,39,10,46,267,,11,35,303,38,7*7E
$GAGSV,3,2,12,12,43,232,,19,80,029,,21,20,122,48,27,24,067,44,7*73
$GAGSV,3,3,12,29,35,074,45,30,05,021,38,33,09,184,38,36,02,338,,7*71
$GBGSV,3,1,12,02,01,102,33,05,18,123,43,06,11,046,,09,26,048,39,1*73
$GBGSV,3,2,12,16,08,044,30,20,07,291,,23,39,160,48,24,11,037,41,1*70
$GBGSV,3,3,12,25,49,083,47,27,00,217,,29,13,314,,30,13,261,39,1*77
$GNRMC,030019.00,A,4843.26120,N,00920.55389,E,0.014,,080225,,,A,V*12
$GNGGA,030019.00,4843.26120,N,00920.55389,E,1,12,0.48,250.4,M,47.6,M,,*45
$GPGSV,3,1,11,04,15,079,45,05,22,309,43,06,26,209,,07,72,112,47,1*6B
$GPGSV,3,2,11,09,44,077,48,11,41,246,41,13,09,260,43,16,11,034,,1*68
$GPGSV,3,3,11,20,56,295,35,29,03,322,,30,51,196,37,1*5B
$GLGSV,3,1,10,69,43,079,47,70,55,316,27,71,12,290,,78,14,024,28,1*70
$GLGSV,3,2,10,79,48,071,49,80,36,148,49,84,00,208,11,85,25,250,48,1*7B
$GLGSV,3,3,10,86,28,313,45,87,06,354,,1*76
$GAGSV,3,1,12,04,34,266,38,06,10,262,39,10,46,267,,11,35,303,38,7*7E
$GAGSV,3,2,12,12,43,232,,19,80,029,,21,20,122,48,27,24,067,44,7*73
$GAGSV,3,3,12,29,35,074,45,30,05,021,39,33,09,184,39,36,02,338,,7*71
$GBGSV,3,1,12,02,01,102,33,05,18,123,43,06,11,046,,09,26,048,39,1*73
$GBGSV,3,2,12,16,08,044,30,20,07,291,,23,39,160,48,24,11,037,41,1*70
$GBGSV,3,3,12,25,49,083,47,27,00,217,,29,13,314,,30,13,261,39,1*77
$GNRMC,030020.00,A,4843.26121,N,00920.55389,E,0.012,,080225,,,A,V*1F
$GNGGA,030020.00,4843.26121,N,00920.55389,E,1,12,0.48,50.4,M,47.6,M,,*4E
$GPGSV,3,1,11,04,15,079,45,05,22,309,43,06,26,209,,07,72,112,47,1*6B
$GPGSV,3,2,11,09,44,077,48,11,41,246,41,13,09,260,43,16,11,034,,1*68
$GPGSV,3,3,11,20,56,295,35,29,03,322,,30,51,196,37,1*5B
$GLGSV,3,1,10,69,43,079,47,70,55,316,26,71,12,290,,78,14,024,28,1*71
$GLGSV,3,2,10,79,48,071,48,80,36,148,50,84,00,208,11,85,25,250,48,1*72
$GLGSV,3,3,10,86,28,313,45,87,06,354,,1*76
$GAGSV,3,1,12,04,34,266,38,06,10,262,39,10,46,267,,11,35,303,38,7*7E
$GAGSV,3,2,12,12,43,232,,19,80,029,,21,20,122,48,27,24,067,44,7*73
$GAGSV,3,3,12,29,35,074,45,30,05,021,39,33,09,184,39,36,02,338,,7*71
$GBGSV,3,1,12,02,01,102,33,05,18,123,43,06,11,046,,09,26,048,40,1*7D
$GBGSV,3,2,12,16,08,044,30,20,07,291,,23,39,160,48,24,11,037,42,1*73
$GBGSV,3,3,12,25,49,083,47,27,00,217,,29,13,314,,30,13,261,38,1*76
$GNRMC,030021.00,A,4843.26122,N,00920.55390,E,0.004,,080225,,,A,V*12
$GNGGA,030021.00,4843.26122,N,00920.55390,E,1,12,0.48,250.3,M,47.6,M,,*43
$GPGSV,3,1,11,04,15,079,45,05,22,309,43,06,26,209,,07,72,112,47,1*6B
$GPGSV,3,2,11,09,44,077,47,11,41,246,41,13,09,260,43,16,11,034,,1*67
$GPGSV,3,3,11,20,56,295,35,29,02,321,,30,51,196,38,1*56
$GLGSV,3,1,10,69,43,079,47,70,55,316,27,71,12,290,,78,14,024,30,1*79
$GLGSV,3,2,10,79,48,071,48,80,36,148,50,84,00,208,09,85,25,250,48,1*7B
$GLGSV,3,3,10,86,28,313,45,87,06,354,,1*76
$GAGSV,3,1,12,04,34,266,38,06,10,262,39,10,46,267,,11,35,303,38,7*7E
$GAGSV,3,2,12,12,43,232,,19,80,029,,21,20,122,48,27,24,067,44,7*73
$GAGSV,3,3,12,29,35,074,45,30,05,021,38,33,09,184,39,36,02,338,,7*70
$GBGSV,3,1,12,02,01,102,33,05,18,123,43,06,11,046,,09,26,048,40,1*7D
$GBGSV,3,2,12,16,08,044,29,20,07,291,,23,39,160,48,24,11,037,41,1*78
$GBGSV,3,3,12,25,49,083,47,27,00,217,,29,13,314,,30,13,261,39,1*77
$GNRMC,030022.00,A,4843.26123,N,00920.55391,E,0.002,,080225,,,A,V*17
$GNGGA,030022.00,4843.26123,N,00920.55391,E,1,12,0.48,250.1,M,47.6,M,,*42
$GPGSV,3,1,11,04,15,079,45,05,22,309,43,06,26,209,,07,72,112,47,1*6B
$GPGSV,3,2,11,09,44,077,47,11,41,246,41,13,09,260,43,16,11,034,,1*67
$GPGSV,3,3,11,20,56,295,35,29,02,321,,30,52,196,38,1*55
$GLGSV,3,1,10,69,43,079,47,70,55,316,27,71,12,290,,78,14,024,31,1*78
$GLGSV,3,2,10,79,48,071,48,80,36,148,50,84,00,208,10,85,25,250,48,1*73
$GLGSV,3,3,10,86,28,313,45,87,06,354,,1*76
$GAGSV,3,1,12,04,34,266,38,06,10,262,39,10,46,267,,11,35,303,38,7*7E
$GAGSV,3,3,12,29,35,074,45,30,05,021,39,33,09,184,39,36,02,338,,7*71
$GBGSV,3,1,12,02,01,102,33,05,18,123,43,06,11,046,,09,26,048,40,1*7D
$GBGSV,3,2,12,16,08,044,29,20,07,291,,23,39,160,48,24,11,037,41,1*78
$GBGSV,3,3,12,25,49,083,47,27,00,217,,29,13,314,,30,13,261,39,1*77
$GNRMC,030023.00,A,4843.26124,N,00920.55390,E,0.003,,080225,,,A,V*11
$GNGGA,030023.00,4843.26124,N,00920.55390,E,1,12,0.48,250.0,M,47.6,M,,*44
$GPGSV,3,1,11,04,15,079,45,05,22,309,43,06,26,209,,07,72,112,47,1*6B
$GPGSV,3,2,11,09,44,077,47,11,41,246,40,13,09,260,43,16,11,034,,1*66
$GPGSV,3,3,11,20,56,295,36,29,02,321,,30,52,196,39,1*57
$GLGSV,3,1,10,69,43,079,47,70,55,316,27,71,12,290,,78,14,024,31,1*78
$GLGSV,3,2,10,79,48,071,48,80,36,148,50,84,00,208,14,85,25,250,48,1*77
$GLGSV,3,3,10,86,28,313,45,87,06,354,,1*76
$GAGSV,3,1,12,04,34,266,38,06,10,262,39,10,46,267,,11,35,303,37,7*71
$GAGSV,3,2,12,12,43,232,,19,80,029,,21,20,122,48,27,24,067,44,7*73
$GAGSV,3,3,12,29,35,074,45,30,05,021,39,33,09,184,39,36,02,338,,7*71
$GBGSV,3,1,12,02,01,102,33,05,18,123,43,06,11,046,,09,26,048,40,1*7D
$GBGSV,3,2,12,16,08,044,28,20,07,291,,23,39,160,48,24,11,037,42,1*7A
$GBGSV,3,3,12,25,49,083,47,27,00,217,,29,13,314,,30,13,261,39,1*77
$GNRMC,030024.00,A,4843.26126,N,00920.55390,E,0.008,,080225,,,A,V*1F
$GNGGA,030024.00,4843.26126,N,00920.55390,E,1,12,0.48,249.9,M,47.6,M,,*40
$GPGSV,3,1,11,04,15,079,45,05,22,309,43,06,26,209,,07,72,112,47,1*6B
$GPGSV,3,2,11,09,44,077,47,11,41,246,40,13,09,260,43,16,11,034,,1*66
$GPGSV,3,3,11,20,56,295,36,29,02,321,,30,52,196,39,1*57
$GLGSV,3,1,10,69,43,079,46,70,55,316,26,71,12,290,,78,14,024,31,1*78
$GLGSV,3,2,10,79,48,071,49,80,36,148,51,84,00,208,10,85,25,250,48,1*73
$GLGSV,3,3,10,86,28,313,46,87,06,354,,1*75
$GAGSV,3,1,12,04,34,266,38,06,10,262,39,10,46,267,,11,35,303,38,7*7E
$GAGSV,3,2,12,12,43,232,,19,80,029,,21,20,122,48,27,24,067,44,7*73
$GAGSV,3,3,12,29,35,074,45,30,05,021,39,33,09,184,39,36,02,338,,7*71
$GBGSV,3,1,12,02,01,102,33,05,18,123,43,06,11,046,,09,26,048,40,1*7D
$GBGSV,3,2,12,16,08,044,28,20,07,291,,23,39,160,48,24,11,037,42,1*7A
$GBGSV,3,3,12,25,49,083,47,27,00,217,,29,13,314,,30,13,261,40,1*79
$GNRMC,030025.00,A,4843.26128,N,00920.55391,E,0.006,,080225,,,A,V*1F
$GNGGA,030025.00,4843.26128,N,00920.55391,E,1,12,0.48,249.8,M,47.6,M,,*4F
$GPGSV,3,1,11,04,15,079,45,05,22,309,43,06,26,209,,07,72,112,47,1*6B
$GPGSV,3,2,11,09,44,077,47,11,41,246,40,13,09,260,43,16,11,034,,1*66
$GPGSV,3,3,11,20,56,295,36,29,02,321,,30,52,196,39,1*57
$GLGSV,3,1,10,69,43,079,46,70,55,316,25,71,12,290,,78,14,024,31,1*7B
$GLGSV,3,2,10,79,48,071,49,80,36,148,51,84,00,208,13,85,25,250,48,1*70
$GLGSV,3,3,10,86,28,313,46,87,06,354,,1*75
$GAGSV,3,1,12,04,34,266,38,06,10,262,39,10,46,267,,11,35,303,37,7*71
$GAGSV,3,2,12,12,43,232,,19,80,029,,21,20,122,48,27,24,067,44,7*73
$GAGSV,3,3,12,29,35,074,45,30,05,021,39,33,09,184,39,36,02,338,,7*71
$GBGSV,3,1,12,02,01,102,33,05,18,123,43,06,11,046,,09,26,048,40,1*7D
$GBGSV,3,2,12,16,08,044,28,20,07,291,,23,39,160,48,24,11,037,42,1*7A
$GBGSV,3,3,12,25,49,083,47,27,00,217,,29,13,314,,30,13,261,40,1*79
$GNRMC,030026.00,A,4843.26130,N,00920.55391,E,0.001,,080225,,,A,V*12
$GNGGA,030026.00,4843.26130,N,00920.55391,E,1,12,0.48,249.8,M,47.6,M,,*45
$GPGSV,3,1,11,04,15,079,45,05,22,309,43,06,26,209,,07,72,112,47,1*6B
$GPGSV,3,2,11,09,44,077,47,11,41,246,40,13,09,260,43,16,11,034,,1*66
$GPGSV,3,3,11,20,56,295,36,29,02,321,,30,52,196,39,1*57
$GLGSV,3,1,10,69,43,079,45,70,55,316,24,71,12,290,,78,14,024,30,1*78
$GLGSV,3,2,10,79,48,071,49,80,36,148,51,84,00,208,12,85,25,250,48,1*71
$GLGSV,3,3,10,86,28,313,46,87,06,354,,1*75
$GAGSV,3,1,12,04,34,266,38,06,10,262,39,10,46,267,,11,35,303,37,7*71
$GAGSV,3,2,12,12,43,232,,19,80,029,,21,20,122,48,27,24,067,44,7*73
$GAGSV,3,3,12,29,35,074,45,30,05,021,39,33,09,184,39,36,02,338,,7*71
$GBGSV,3,1,12,02,01,102,33,05,18,123,43,06,11,046,,09,26,048,39,1*73
$GBGSV,3,2,12,16,08,044,27,20,07,291,,23,39,160,48,24,11,037,42,1*75
$GBGSV,3,3,12,25,49,083,47,27,00,217,,29,13,314,,30,13,261,40,1*79
$GNRMC,030027.00,A,4843.26132,N,00920.55391,E,0.005,,080225,,,A,V*15
$GNGGA,030027.00,4843.26132,N,00920.55391,E,1,12,0.48,249.7,M,47.6,M,,*49
$GPGSV,3,1,11,04,15,079,45,05,22,309,43,06,26,209,,07,72,112,47,1*6B
$GPGSV,3,2,11,09,44,077,47,11,41,246,40,13,09,260,43,16,11,034,,1*66
$GPGSV,3,3,11,20,56,295,36,29,02,321,,30,52,196,39,1*57
$GLGSV,3,1,10,69,43,079,45,70,55,316,23,71,12,290,,78,14,024,28,1*76
$GLGSV,3,2,10,79,48,071,49,80,36,148,51,84,00,208,15,85,25,250,48,1*76
$GLGSV,3,3,10,86,28,313,46,87,06,354,,1*75
$GAGSV,3,1,12,04,34,266,38,06,10,262,39,10,46,267,,11,35,303,37,7*71
$GAGSV,3,2,12,12,43,232,,19,80,029,,21,20,122,48,27,24,067,44,7*73
$GAGSV,3,3,12,29,35,074,45,30,05,021,39,33,09,184,39,36,02,338,,7*71
$GBGSV,3,1,12,02,01,102,33,05,18,123,43,06,11,046,,09,26,048,39,1*73
$GBGSV,3,2,12,16,08,044,26,20,07,291,,23,39,160,48,24,11,037,42,1*74
$GBGSV,3,3,12,25,49,083,47,27,00,217,,29,13,314,,30,13,261,40,1*79
$GNRMC,030028.00,A,4843.26134,N,00920.55391,E,0.008,,080225,,,A,V*11
$GNGGA,030028.00,4843.26134,N,00920.55391,E,1,12,0.48,249.7,M,47.6,M,,*40
$GPGSV,3,1,11,04,15,079,45,05,22,309,42,06,26,209,,07,72,112,47,1*6A
$GPGSV,3,2,11,09,44,077,47,11,41,246,40,13,09,260,42,16,11,034,,1*67
$GPGSV,3,3,11,20,56,295,36,29,02,321,,30,52,196,40,1*59
$GLGSV,3,1,10,69,43,079,44,70,55,316,21,71,12,290,,78,14,024,28,1*75
$GLGSV,3,2,10,79,48,071,49,80,36,148,52,84,00,208,11,85,25,250,48,1*71
$GLGSV,3,3,10,86,28,313,46,87,06,354,,1*75
$GAGSV,3,1,12,04,34,266,37,06,10,262,39,10,46,267,,11,35,303,37,7*7E
$GAGSV,3,2,12,12,43,232,,19,80,029,,21,20,122,48,27,24,067,44,7*73
$GAGSV,3,3,12,29,35,074,45,30,05,021,39,33,09,184,40,36,02,338,,7*7F
$GBGSV,3,1,12,02,01,102,33,05,18,123,43,06,11,046,,09,26,048,40,1*7D
$GBGSV,3,2,12,16,08,044,26,20,07,291,,23,39,160,48,24,11,037,42,1*74
$GBGSV,3,3,12,25,49,083,47,27,00,217,,29,13,314,,30,13,261,40,1*79
$GNRMC,030029.00,A,4843.26137,N,00920.55391,E,0.012,,080225,,,A,V*18
$GNGGA,030029.00,4843.26137,N,00920.55391,E,1,12,0.48,249.6,M,47.6,M,,*43
$GPGSV,3,1,11,04,15,079,45,05,22,309,42,06,26,209,,07,72,112,47,1*6A
$GPGSV,3,2,11,09,44,077,47,11,41,246,40,13,09,260,43,16,11,034,,1*66
$GPGSV,3,3,11,20,56,295,36,29,02,321,,30,52,196,40,1*59
$GLGSV,3,1,10,69,43,079,44,70,55,316,19,71,12,290,,78,14,024,30,1*77
$GLGSV,3,2,10,79,48,071,49,80,36,148,51,84,00,208,11,85,25,250,48,1*72
$GLGSV,3,3,10,86,28,313,46,87,06,354,,1*75
$GAGSV,3,1,12,04,35,266,38,06,10,262,38,10,46,267,,11,35,303,37,7*71
$GAGSV,3,2,12,12,43,232,,19,80,029,,21,20,122,48,27,24,067,44,7*73
$GAGSV,3,3,12,29,35,074,45,30,05,021,39,33,09,184,40,36,02,338,,7*7F
$GBGSV,3,1,12,02,01,102,33,05,18,123,43,06,11,046,,09,26,048,40,1*7D
$GBGSV,3,2,12,16,08,044,26,20,07,291,,23,39,160,48,24,11,037,42,1*74
$GBGSV,3,3,12,25,49,083,47,27,00,217,,29,13,314,,30,13,261,40,1*79
$GNRMC,030030.00,A,4843.26139,N,00920.55391,E,0.003,,080225,,,A,V*1E
$GNGGA,030030.00,4843.26139,N,00920.55391,E,1,12,0.49,249.6,M,47.6,M,,*44
$GPGSV,3,1,11,04,15,079,45,05,22,309,42,06,26,209,,07,72,112,47,1*6A
$GPGSV,3,2,11,09,44,077,47,11,41,246,39,13,09,260,43,16,11,034,,1*68
$GPGSV,3,3,11,20,56,295,36,29,02,321,,30,52,196,40,1*59
$GLGSV,3,1,10,69,43,079,44,70,55,316,18,71,12,290,,78,14,024,32,1*74
$GLGSV,3,2,10,79,48,071,49,80,36,148,51,84,00,208,13,85,25,250,48,1*70
$GLGSV,3,3,10,86,28,313,46,87,06,354,,1*75
$GAGSV,3,1,12,04,35,266,38,06,10,262,38,10,46,267,,11,35,303,37,7*71
$GAGSV,3,2,12,12,43,232,,19,80,029,,21,20,122,48,27,24,067,44,7*73
$GAGSV,3,3,12,29,35,074,45,30,05,021,39,33,09,184,40,36,02,338,,7*7F
$GBGSV,3,1,12,02,01,102,33,05,18,123,43,06,11,046,,09,26,048,40,1*7D
$GBGSV,3,2,12,16,08,044,26,20,07,291,,23,39,160,48,24,11,037,42,1*74
$GBGSV,3,3,12,25,49,083,47,27,00,217,,29,13,314,,30,13,261,41,1*78
$GNRMC,030031.00,A,4843.26142,N,00920.55392,E,0.009,,080225,,,A,V*1A
$GNGGA,030031.00,4843.26142,N,00920.55392,E,1,12,0.49,249.5,M,47.6,M,,*49
$GPGSV,3,1,11,04,15,079,45,05,22,309,42,06,26,209,,07,72,112,47,1*6A
$GPGSV,3,2,11,09,44,077,47,11,41,246,39,13,09,260,43,16,11,034,,1*68
$GPGSV,3,3,11,20,56,295,37,29,02,321,,30,52,196,40,1*58
$GLGSV,3,1,10,69,43,079,43,70,55,316,19,71,12,290,,78,14,024,32,1*72
$GLGSV,3,2,10,79,48,071,48,80,36,148,51,84,00,208,12,85,25,250,48,1*70
$GLGSV,3,3,10,86,28,313,46,87,06,354,,1*75
$GAGSV,3,1,12,04,35,266,38,06,10,263,38,10,46,267,,11,35,303,37,7*70
$GAGSV,3,2,12,12,43,232,,19,80,029,,21,20,122,48,27,24,067,44,7*73
$GAGSV,3,3,12,29,35,074,45,30,05,021,39,33,09,184,40,36,02,338,,7*7F
$GBGSV,3,1,12,02,01,102,33,05,18,123,43,06,11,046,,09,26,048,40,1*7D
$GBGSV,3,2,12,16,08,044,25,20,07,291,,23,39,160,48,24,11,037,42,1*77
$GBGSV,3,3,12,25,49,083,47,27,00,217,,29,13,314,,30,13,261,41,1*78
$GNRMC,030032.00,A,4843.26145,N,00920.55393,E,0.005,,080225,,,A,V*13
$GNGGA,030032.00,4843.26145,N,00920.55393,E,1,12,0.49,249.5,M,47.6,M,,*4C
$GPGSV,3,1,11,04,15,079,45,05,22,309,42,06,26,209,,07,72,112,47,1*6A
$GPGSV,3,2,11,09,44,077,46,11,41,246,39,13,09,260,43,16,11,034,,1*69
$GPGSV,3,3,11,20,56,295,36,29,02,321,,30,52,196,40,1*59
$GLGSV,3,1,10,69,43,079,43,70,55,316,22,71,12,290,,78,14,024,33,1*7B
$GLGSV,3,2,10,79,48,071,48,80,36,148,51,84,00,208,12,85,25,250,48,1*70
$GLGSV,3,3,10,86,28,313,46,87,06,354,,1*75
$GAGSV,3,1,12,04,35,266,38,06,10,263,38,10,46,267,,11,35,303,37,7*70
$GAGSV,3,2,12,12,43,232,,19,80,029,,21,20,122,48,27,24,067,44,7*73
$GAGSV,3,3,12,29,35,074,45,30,05,021,39,33,09,184,40,36,02,338,,7*7F
$GBGSV,3,1,12,02,01,102,33,05,18,123,43,06,11,046,,09,26,048,40,1*7D
$GBGSV,3,2,12,16,08,044,26,20,07,291,,23,39,160,48,24,11,037,42,1*74
$GBGSV,3,3,12,25,49,083,47,27,00,217,,29,13,314,,30,13,261,41,1*78
$GNRMC,030033.00,A,4843.26148,N,00920.55394,E,0.007,,080225,,,A,V*1A
$GNGGA,030033.00,4843.26148,N,00920.55394,E,1,12,0.49,249.5,M,47.6,M,,*47
$GPGSV,3,1,11,04,15,079,46,05,22,309,42,06,26,209,,07,72,112,47,1*69
$GPGSV,3,2,11,09,44,077,46,11,41,246,38,13,09,260,43,16,11,034,,1*68
$GPGSV,3,3,11,20,56,295,36,29,02,321,,30,52,196,40,1*59
$GLGSV,3,1,10,69,43,079,43,70,55,316,23,71,12,290,,78,14,024,32,1*7B
$GLGSV,3,2,10,79,48,071,49,80,36,148,51,84,00,208,13,85,25,250,48,1*70
$GLGSV,3,3,10,86,28,313,46,87,06,354,,1*75
$GAGSV,3,1,12,04,35,266,37,06,10,263,38,10,46,267,,11,35,303,37,7*7F
$GAGSV,3,2,12,12,43,232,,19,80,029,,21,20,122,48,27,24,067,44,7*73
$GAGSV,3,3,12,29,35,074,45,30,05,021,39,33,09,184,40,36,02,338,,7*7F
$GBGSV,3,1,12,02,01,102,33,05,18,123,43,06,11,046,,09,26,048,40,1*7D
$GBGSV,3,2,12,16,08,044,25,20,07,291,,23,39,160,48,24,11,037,42,1*77
$GBGSV,3,3,12,25,49,083,47,27,00,217,,29,13,314,,30,13,261,41,1*78
$GNGGA,030034.00,4843.26150,N,00920.55395,E,1,12,0.49,249.5,M,47.6,M,,*48
$GPGSV,3,1,11,04,15,079,46,05,22,309,42,06,26,209,,07,72,112,47,1*69
$GPGSV,3,2,11,09,44,077,46,11,41,246,38,13,09,260,43,16,11,034,,1*68
$GPGSV,3,3,11,20,56,295,37,29,02,321,,30,52,196,41,1*59
$GLGSV,3,1,10,69,43,079,42,70,55,316,23,71,12,290,,78,14,024,32,1*7A
$GLGSV,3,2,10,79,48,071,48,80,36,148,51,84,00,208,12,85,25,250,48,1*70
$GLGSV,3,3,10,86,28,313,46,87,06,354,,1*75
$GAGSV,3,1,12,04,35,266,38,06,10,263,38,10,46,267,,11,35,303,37,7*70
$GAGSV,3,2,12,12,43,232,,19,80,029,,21,20,122,48,27,24,067,44,7*73
$GAGSV,3,3,12,29,35,074,45,30,05,021,39,33,09,184,40,36,02,338,,7*7F
$GBGSV,3,1,12,02,01,102,33,05,18,123,43,06,11,046,,09,26,048,40,1*7D
$GBGSV,3,2,12,16,08,044,25,20,07,291,,23,39,160,48,24,11,037,42,1*77
$GBGSV,3,3,12,25,49,083,47,27,00,217,,29,13,314,,30,13,261,41,1*78
$GNRMC,030035.00,A,4843.26154,N,00920.55396,E,0.003,,080225,,,A,V*17
$GNGGA,030035.00,4843.26154,N,00920.55396,E,1,12,0.49,249.5,M,47.6,M,,*4E
$GPGSV,3,1,11,04,15,079,46,05,22,309,42,06,26,209,,07,72,112,46,1*68
$GPGSV,3,2,11,09,44,077,45,11,41,246,38,13,09,260,43,16,11,034,,1*6B
$GPGSV,3,3,11,20,56,295,37,29,02,321,,30,52,196,41,1*59
$GLGSV,3,1,10,69,43,079,42,70,55,316,24,71,12,290,,78,14,024,31,1*7E
$GLGSV,3,2,10,79,48,071,48,80,36,148,51,84,00,208,14,85,25,250,48,1*76
$GLGSV,3,3,10,86,28,313,46,87,06,354,,1*75
$GAGSV,3,1,12,04,35,266,38,06,10,263,38,10,46,266,,11,35,303,37,7*71
$GAGSV,3,2,12,12,43,232,,19,80,029,,21,20,122,48,27,24,067,44,7*73
$GAGSV,3,3,12,29,35,074,45,30,05,021,39,33,09,184,40,36,02,338,,7*7F
$GBGSV,3,1,12,02,01,102,33,05,18,123,43,06,11,046,,09,26,048,40,1*7D
$GBGSV,3,2,12,16,08,044,25,20,07,291,,23,39,160,48,24,11,037,42,1*77
$GBGSV,3,3,12,25,49,083,47,27,00,217,,29,13,314,,30,13,261,41,1*78
$GNRMC,030036.00,A,4843.26157,N,00920.55397,E,0.011,,080225,,,A,V*15
$GNGGA,030036.00,4843.26157,N,00920.55397,E,1,12,0.49,249.5,M,47.6,M,,*4F
$GPGSV,3,1,11,04,15,079,46,05,22,309,42,06,26,209,,07,72,112,47,1*69
$GPGSV,3,2,11,09,44,077,45,11,41,246,38,13,09,260,43,16,11,034,,1*6B
$GPGSV,3,3,11,20,56,295,37,29,02,321,,30,52,196,41,1*59
$GLGSV,3,1,10,69,43,079,41,70,55,316,24,71,12,290,,78,14,024,31,1*7D
$GLGSV,3,2,10,79,48,071,48,80,36,148,51,84,00,208,13,85,25,250,48,1*71
$GLGSV,3,3,10,86,28,313,46,87,06,354,,1*75
$GAGSV,3,1,12,04,35,266,38,06,10,263,38,10,46,266,,11,36,302,37,7*73
$GAGSV,3,2,12,12,43,232,,19,80,029,,21,20,122,48,27,24,067,44,7*73
$GAGSV,3,3,12,29,35,074,45,30,05,021,39,33,09,184,40,36,02,338,,7*7F
$GBGSV,3,1,12,02,01,102,33,05,18,123,43,06,11,046,,09,26,048,40,1*7D
$GBGSV,3,2,12,16,08,044,25,20,07,291,,23,39,160,48,24,11,037,42,1*77
$GBGSV,3,3,12,25,49,083,46,27,00,217,,29,13,314,,30,13,261,41,1*79
$GNRMC,030037.00,A,4843.26160,N,00920.55398,E,0.012,,080225,,,A,V*1C
$GNGGA,030037.00,4843.26160,N,00920.55398,E,1,12,0.49,249.5,M,47.6,M,,*45
$GPGSV,3,1,11,04,15,079,46,05,22,309,42,06,26,209,,07,72,112,47,1*69
$GPGSV,3,2,11,09,44,077,45,11,41,246,37,13,09,260,43,16,11,034,,1*64
$GPGSV,3,3,11,20,56,295,37,29,02,321,,30,52,196,41,1*59
$GLGSV,3,1,10,69,43,079,42,70,55,316,24,71,12,290,,78,14,024,32,1*7D
$GLGSV,3,2,10,79,48,071,48,80,36,148,51,84,00,208,13,85,25,250,48,1*71
$GLGSV,3,3,10,86,28,313,46,87,06,354,,1*75
$GAGSV,3,1,12,04,35,266,38,06,10,263,38,10,46,266,,11,36,302,37,7*73
$GAGSV,3,2,12,12,42,231,,19,80,029,,21,20,122,48,27,24,067,44,7*71
$GAGSV,3,3,12,29,35,074,45,30,05,021,39,33,09,184,40,36,02,338,,7*7F
$GBGSV,3,1,12,02,01,102,33,05,18,123,43,06,11,046,,09,26,048,40,1*7D
$GBGSV,3,2,12,16,08,044,25,20,07,291,,23,39,160,48,24,11,037,42,1*77
$GBGSV,3,3,12,25,49,083,46,27,00,217,,29,13,314,,30,13,261,41,1*79
$GNRMC,030038.00,A,4843.26163,N,00920.55400,E,0.002,,080225,,,A,V*17
$GNGGA,030038.00,4843.26163,N,00920.55400,E,1,12,0.50,249.5,M,47.6,M,,*47
$GPGSV,3,1,11,04,15,079,46,05,22,309,42,06,26,209,,07,72,112,47,1*69
$GPGSV,3,2,11,09,44,077,45,11,41,246,37,13,09,260,43,16,11,034,,1*64
$GPGSV,3,3,11,20,56,295,37,29,02,321,,30,52,196,41,1*59
$GLGSV,3,1,10,69,43,079,42,70,55,316,23,71,12,290,,78,14,024,31,1*79
$GLGSV,3,2,10,79,48,071,48,80,36,148,51,84,00,208,11,85,25,250,48,1*73
$GLGSV,3,3,10,86,28,313,46,87,06,354,,1*75
$GAGSV,3,1,12,04,35,266,38,06,10,263,38,10,46,266,,11,36,302,37,7*73
$GAGSV,3,2,12,12,42,231,,19,80,029,,21,20,122,48,27,24,067,43,7*76
$GAGSV,3,3,12,29,35,074,44,30,05,021,39,33,09,184,40,36,02,338,,7*7E
$GBGSV,3,1,12,02,01,102,33,05,18,123,43,06,11,046,,09,26,048,40,1*7D
$GBGSV,3,2,12,16,08,044,25,20,07,291,,23,39,160,48,24,11,037,42,1*77
$GBGSV,3,3,12,25,49,083,46,27,00,217,,29,13,314,,30,13,261,41,1*79
$GNRMC,030039.00,A,4843.26165,N,00920.55402,E,0.005,,080225,,,A,V*15
$GNGGA,030039.00,4843.26165,N,00920.55402,E,1,12,0.50,249.6,M,47.6,M,,*41
$GPGSV,3,1,11,04,15,079,47,05,22,309,42,06,26,209,,07,72,112,46,1*69
$GPGSV,3,2,11,09,44,077,45,11,41,246,37,13,09,260,43,16,11,034,,1*64
$GPGSV,3,3,11,20,56,295,37,29,02,321,,30,52,196,41,1*59
$GLGSV,3,1,10,69,43,079,42,70,55,316,22,71,12,290,,78,14,024,32,1*7B
$GLGSV,3,2,10,79,48,071,48,80,36,148,51,84,00,208,11,85,25,250,47,1*7C
$GLGSV,3,3,10,86,28,313,46,87,06,354,,1*75
$GAGSV,3,1,12,04,35,266,38,06,10,263,38,10,46,266,,11,36,302,37,7*73
$GAGSV,3,2,12,12,42,231,,19,80,029,,21,20,122,48,27,24,067,4,7*71
$GAGSV,3,3,12,29,35,074,44,30,05,021,39,33,09,184,40,36,02,338,,7*7E
$GBGSV,3,1,12,02,01,102,33,05,18,123,43,06,11,046,,09,26,048,40,1*7D
$GBGSV,3,2,12,16,08,044,25,20,07,291,,23,39,160,48,24,11,037,42,1*77
$GBGSV,3,3,12,25,49,083,46,27,00,217,,29,13,314,,30,13,261,41,1*79
$GNRMC,030040.00,A,4843.26168,N,00920.55403,E,0.006,,080225,,,A,V*14
$GNGGA,030040.00,4843.26168,N,00920.55403,E,1,12,0.50,249.7,M,47.6,M,,*42
$GPGSV,3,1,11,04,15,079,47,05,22,309,42,06,26,209,,07,72,112,46,1*69
$GPGSV,3,2,11,09,44,077,45,11,41,246,37,13,09,260,43,16,11,034,,1*64
$GPGSV,3,3,11,20,56,295,38,29,02,321,,30,52,196,41,1*56
$GLGSV,3,1,10,69,43,079,41,70,55,316,22,71,12,290,,78,14,024,33,1*79
$GLGSV,3,2,10,79,48,071,49,80,36,148,51,84,00,208,12,85,25,250,47,1*7E
$GLGSV,3,3,10,86,28,313,46,87,06,354,,1*75
$GAGSV,3,1,12,04,35,266,38,06,10,263,38,10,46,266,,11,36,302,37,7*73
$GAGSV,3,2,12,12,42,231,,19,80,029,,21,20,122,48,27,24,067,44,7*71
$GAGSV,3,3,12,29,35,074,44,30,05,021,39,33,09,184,40,36,02,338,,7*7E
$GBGSV,3,1,12,02,01,102,33,05,18,123,43,06,11,046,,09,26,048,40,1*7D
$GBGSV,3,2,12,16,08,044,25,20,07,291,,23,39,160,48,24,11,037,42,1*77
$GBGSV,3,3,12,25,49,083,46,27,00,217,,29,13,314,,30,13,261,41,1*79
$GNRMC,030041.00,A,4843.26170,N,00920.55405,E,0.005,,080225,,,A,V*19
$GNGGA,030041.00,4843.26170,N,00920.55405,E,1,12,0.50,249.8,M,47.6,M,,*43
$GPGSV,3,1,11,04,15,079,47,05,22,309,42,06,26,209,,07,72,112,46,1*69
$GPGSV,3,2,11,09,44,077,45,11,41,246,37,13,09,260,43,16,11,034,,1*64
$GPGSV,3,3,11,20,56,295,38,29,02,321,,30,52,196,40,1*57
$GLGSV,3,1,10,69,43,079,41,70,55,316,22,71,12,290,,78,14,024,33,1*79
$GLGSV,3,2,10,79,48,071,49,80,36,148,51,84,00,208,17,85,25,250,47,1*7B
$GLGSV,3,3,10,86,28,313,46,87,06,354,,1*75
$GAGSV,3,1,12,04,35,266,38,06,10,263,38,10,46,266,,11,36,302,36,7*72
$GAGSV,3,2,12,12,42,231,,19,80,030,,21,20,122,48,27,24,067,44,7*79
$GAGSV,3,3,12,29,35,074,44,30,05,021,39,33,09,184,40,36,02,338,,7*7E
$GBGSV,3,1,12,02,01,102,33,05,18,123,43,06,11,046,,09,26,048,40,1*7D
$GBGSV,3,2,12,16,08,044,25,20,07,291,,23,39,160,47,24,11,037,41,1*7B
$GBGSV,3,3,12,25,49,083,46,27,00,217,,29,13,314,,30,13,261,41,1*79
$GNRMC,030042.00,A,4843.26173,N,00920.55406,E,0.007,,080225,,,A,V*18
$GNGGA,030042.00,4843.26173,N,00920.55406,E,1,12,0.50,249.9,M,47.6,M,,*41
$GPGSV,3,1,11,04,15,079,47,05,22,309,42,06,26,209,,07,72,112,46,1*69
$GPGSV,3,2,11,09,44,077,45,11,41,246,37,13,09,260,43,16,11,034,,1*64
$GPGSV,3,3,11,20,56,295,38,29,02,321,,30,52,196,41,1*56
$GLGSV,3,110,69,43,079,40,70,55,316,22,71,12,290,,78,14,024,32,1*79
$GLGSV,3,2,10,79,48,071,49,80,36,148,51,84,00,208,09,85,25,250,47,1*74
$GLGSV,3,3,10,86,28,313,46,87,06,354,,1*75
$GAGSV,3,1,12,04,35,266,38,06,10,263,38,10,46,266,,11,36,302,36,7*72
$GAGSV,3,2,12,12,42,231,,19,80,030,,21,21,122,48,27,24,067,44,7*78
$GAGSV,3,3,12,29,35,074,44,30,05,021,38,33,09,184,40,36,02,338,,7*7F
$GBGSV,3,1,12,02,01,102,33,05,18,123,43,06,11,046,,09,26,048,41,1*7C
$GBGSV,3,2,12,16,08,044,24,20,07,291,,23,39,160,47,24,11,037,42,1*79
$GBGSV,3,3,12,25,49,083,46,27,00,217,,29,13,314,,30,13,261,41,1*79
$GNRMC,030043.00,A,4843.26176,N,00920.55407,E,0.011,,080225,,,A,V*1A
$GNGGA,030043.00,4843.26176,N,00920.55407,E,1,12,0.50,250.0,M,47.6,M,,*45
$GPGSV,3,1,11,04,15,079,47,05,22,309,42,06,26,209,,07,72,112,46,1*69
$GPGSV,3,2,11,09,44,077,44,11,41,246,37,13,09,260,43,16,11,034,,1*65
$GPGSV,3,3,11,20,56,295,39,29,02,321,,30,52,196,41,1*57
$GLGSV,3,1,10,69,43,079,40,70,55,316,22,71,12,290,,78,14,024,31,1*7A
$GLGSV,3,2,10,79,48,071,49,80,36,148,51,84,00,208,10,85,25,250,47,1*7C
$GLGSV,3,3,10,86,28,313,46,87,06,354,,1*75
$GAGSV,3,1,12,04,35,266,38,06,10,263,38,10,46,266,,11,36,302,36,7*72
$GAGSV,3,2,12,12,42,231,,19,80,030,,21,21,122,47,27,24,067,44,7*77
$GAGSV,3,3,12,29,35,074,44,30,05,021,38,33,09,184,40,36,02,338,,7*7F
$GBGSV,3,1,12,02,01,102,33,05,18,123,43,06,11,046,,09,26,048,41,1*7C
$GBGSV,3,2,12,16,08,044,25,20,07,291,,23,39,160,47,24,11,037,42,1*78
$GBGSV,3,3,12,25,49,083,46,27,00,217,,29,13,314,,30,13,261,41,1*79
$GNRMC,030044.00,A,4843.26179,N,00920.55408,E,0.010,,080225,,,A,V*1C
$GNGGA,030044.00,4843.26179,N,00920.55408,E,1,12,0.50,250.1,M,47.6,M,,*43
$GPGSV,3,1,11,04,15,079,47,05,22,309,42,06,26,209,,07,72,112,46,1*69
$GPGSV,3,2,11,09,44,077,44,11,41,246,37,13,09,260,43,16,11,034,,1*65
$GPGSV,3,3,11,20,56,295,39,29,02,321,,30,52,196,41,1*57
$GLGSV,3,1,10,69,43,079,40,70,55,316,19,71,12,290,,78,14,024,30,1*73
$GLGSV,3,2,10,79,48,071,49,80,36,148,51,84,00,208,13,85,25,250,47,1*7F
$GLGSV,3,3,10,86,28,313,46,87,06,354,,1*75
$GAGSV,3,1,12,04,35,266,37,06,10,263,38,10,46,266,,11,36,302,36,7*7D
$GAGSV,3,2,12,12,42,231,,19,80,030,,21,21,122,47,27,24,067,44,7*77
$GAGSV,3,3,12,29,35,074,44,30,05,021,38,33,09,184,40,36,02,338,,7*7F
$GBGSV,3,1,12,02,01,102,33,05,18,123,43,06,11,046,,09,26,048,41,1*7C
$GBGSV,3,2,12,16,08,044,25,20,07,291,,23,39,160,47,24,11,037,41,1*7B
$GBGSV,3,3,12,25,49,083,46,27,00,217,,29,13,314,,30,13,261,41,1*79
$GNRMC,030045.00,A,4843.26182,N,00920.55409,E,0.004,,080225,,,A,V*1D
$GNGGA,030045.00,4843.26182,N,00920.55409,E,1,12,0.50,250.2,M,47.6,M,,*44
$GPGSV,3,1,11,04,15,079,47,05,22,309,42,06,26,209,,07,72,112,46,1*69
$GPGSV,3,2,11,09,44,077,44,11,41,246,37,13,09,260,43,16,11,034,,1*65
$GPGSV,3,3,11,20,56,295,39,29,02,321,,30,52,196,41,1*57
$GLGSV,3,1,10,69,43,079,40,70,55,316,16,71,12,290,,78,14,024,30,1*7C
$GLGSV,3,2,10,79,48,071,49,80,36,148,50,84,00,208,09,85,25,250,46,1*74
$GLGSV,3,3,10,86,28,313,47,87,06,354,,1*74
$GAGSV,3,1,12,04,35,266,38,06,10,263,38,10,46,266,,11,36,302,36,7*72
$GAGSV,3,2,12,12,42,231,,19,80,030,,21,21,122,47,27,24,067,44,7*77
$GAGSV,3,3,12,29,35,074,44,30,05,021,38,33,09,184,40,36,02,338,,7*7F
$GBGSV,3,1,12,02,01,102,33,05,18,123,43,06,11,046,,09,26,048,41,1*7C
$GBGSV,3,2,12,16,08,044,25,20,07,291,,23,39,160,47,24,11,037,41,1*7B
$GBGSV,3,3,12,25,49,083,46,27,00,217,,29,13,314,,30,13,261,41,1*79
$GNRMC,030046.00,A,4843.26185,N,00920.55409,E,0.011,,080225,,,A,V*1D
$GNGGA,030046.00,4843.26185,N,00920.55409,E,1,12,0.48,250.3,M,47.6,M,,*48
$GPGSV,3,1,11,04,15,079,47,05,22,309,42,06,26,209,,07,72,112,46,1*69
$GPGSV,3,2,11,09,44,077,43,11,41,246,37,13,09,260,43,16,11,034,,1*62
$GPGSV,3,3,11,20,56,295,39,29,02,321,,30,52,196,41,1*57
$GLGSV,3,1,10,69,43,079,40,70,55,316,14,71,12,290,,78,14,024,30,1*7E
$GLGSV,3,2,10,79,48,071,49,80,36,148,51,84,00,208,12,85,25,250,46,1*7F
$GLGSV,3,3,10,86,28,313,46,87,06,354,,1*75
$GAGSV,3,1,12,04,35,266,37,06,10,263,38,10,46,266,,11,36,302,36,7*7D
$GAGSV,3,2,12,12,42,231,,19,80,030,,21,21,122,47,27,24,067,44,7*77
$GAGSV,3,3,12,29,35,074,44,30,05,021,38,33,09,184,40,36,02,338,,7*7F
$GBGSV,3,1,12,02,01,102,33,05,18,123,43,06,11,046,,09,26,048,41,1*7C
$GBGSV,3,2,12,16,08,044,26,20,07,291,,23,39,160,47,24,11,037,41,1*78
$GBGSV,3,3,12,25,49,083,47,27,00,217,,29,13,314,,30,13,261,41,1*78
$GNRMC,030047.00,A,4843.26188,N,00920.55409,E,0.009,,080225,,,A,V*18
$GNGGA,030047.00,4843.26188,N,00920.55409,E,1,12,0.48,250.4,M,47.6,M,,*43
$GPGSV,3,1,11,04,15,079,46,05,22,309,42,06,26,209,,07,72,112,46,1*68
$GPGSV,3,2,11,09,44,077,43,11,41,246,37,13,09,260,43,16,11,034,,1*62
$GPGSV,3,3,11,20,56,295,39,29,02,321,,30,52,196,41,1*57
$GLGSV,3,1,10,69,43,079,40,70,55,316,14,71,12,290,,78,14,024,31,1*7F
$GLGSV,3,2,10,79,48,071,49,80,36,148,50,84,00,208,15,85,25,250,46,1*79
$GLGSV,3,3,10,86,28,313,46,87,06,354,,1*75
$GAGSV,3,1,12,04,35,266,38,06,10,263,38,10,46,266,,11,36,302,36,7*72
$GAGSV,3,2,12,12,42,231,,19,80,030,,21,21,122,47,27,25,066,44,7*77
$GAGSV,3,3,12,29,35,074,44,30,05,021,38,33,09,184,40,36,02,338,,7*7F
$GBGSV,3,1,12,02,01,102,33,05,18,123,43,06,11,046,,09,26,048,41,1*7C
$GBGSV,3,2,12,16,08,044,25,20,07,291,,23,39,160,47,24,11,037,41,1*7B
$GBGSV,3,3,12,25,49,083,47,27,00,217,,29,13,314,,30,13,261,41,1*78
$GNRMC,030048.00,A,4843.26190,N,00920.55409,E,0.007,,080225,,,A,V*10
$GNGGA,030048.00,4843.26190,N,00920.55409,E,1,12,0.48,250.5,M,47.6,M,,*44
$GPGSV,3,1,11,04,15,079,47,05,22,309,42,06,26,209,,07,72,112,46,1*69
$GPGSV,3,2,11,09,44,077,42,11,41,246,37,13,09,260,43,16,11,034,,1*63
$GPGSV,3,3,11,20,56,295,39,29,02,321,,30,52,196,41,1*57
$GLGSV,3,1,10,69,43,079,39,70,55,316,18,71,12,290,,78,14,024,32,1*7E
$GLGSV,3,2,10,79,48,071,50,80,36,148,50,84,00,208,13,85,25,250,46,1*77
$GLGSV,3,3,10,86,28,313,46,87,06,354,,1*75
$GAGSV,3,1,12,04,35,266,38,06,10,263,38,10,46,266,,11,36,302,37,7*73
$GAGSV,3,2,12,12,42,231,,19,80,030,,21,21,122,47,27,25,066,44,7*77
$GAGSV,3,3,12,29,34,075,44,30,05,021,38,33,09,184,40,36,02,338,,7*7F
$GBGSV,3,1,12,02,01,102,33,05,18,123,43,06,11,046,,09,26,048,41,1*7C
$GBGSV,3,2,12,16,08,044,25,20,07,291,,23,39,160,47,24,11,037,41,1*7B
$GBGSV,3,3,12,25,49,083,47,27,00,217,,29,13,314,,30,13,261,41,1*78
$GNRMC,030049.00,A,4843.26193,N,00920.55409,E,0.007,,080225,,,A,V*12
$GNGGA,030049.00,4843.26193,N,00920.55409,E,1,12,0.48,250.7,M,47.6,M,,*44
$GPGSV,3,1,11,04,15,079,47,05,22,309,42,06,26,209,,07,72,112,46,1*69
$GPGSV,3,2,11,09,44,077,42,11,41,246,37,13,09,260,43,16,11,034,,1*63
$GPGSV,3,3,11,20,56,295,39,29,02,321,,30,52,196,41,1*57
$GLGSV,3,1,10,69,43,079,39,70,55,316,2,71,12,290,,78,14,024,32,1*75
$GLGSV,3,2,10,79,48,071,50,80,36,148,51,84,00,208,13,85,25,250,46,1*76
$GLGSV,3,3,10,86,28,313,46,87,06,354,,1*75
$GAGSV,3,1,1204,35,266,38,06,10,263,38,10,46,266,,11,36,302,36,7*72
$GAGSV,3,2,12,12,42,231,,19,80,030,,21,21,122,47,27,25,066,44,7*77
$GAGSV,3,3,12,29,34,075,44,30,05,020,38,33,09,184,40,36,02,338,,7*7E
$GBGSV,3,1,12,02,01,102,33,05,18,123,43,06,11,046,,09,26,048,41,1*7C
$GBGSV,3,2,12,16,08,044,26,20,07,291,,23,39,160,47,24,11,037,41,1*78
$GBGSV,3,3,12,25,49,083,47,27,00,217,,29,13,314,,30,13,261,41,1*78
$GNRMC,030050.00,A,4843.26195,N,00920.55409,E,0.012,,080225,,,A,V*18
$GNGGA,030050.00,4843.26195,N,00920.55409,E,1,12,0.48,250.8,M,47.6,M,,*45
$GPGSV,3,1,11,04,15,079,47,05,22,309,42,06,26,209,,07,72,112,46,1*69
$GPGSV,3,2,11,09,44,077,42,11,41,246,37,13,09,260,43,16,11,034,,1*63
$GPGSV,3,3,11,20,56,295,38,29,02,321,,30,52,196,42,1*55
$GLGSV,3,1,10,69,43,079,38,70,55,316,22,1,12,290,,78,14,024,31,1*75
$GLGSV,3,2,10,79,48,071,50,80,36,148,51,84,00,208,12,85,25,250,46,1*77
$GLGSV,3,3,10,86,28,313,45,87,06,354,,1*76
$GAGSV,3,1,12,04,35,266,37,06,10,263,38,10,46,266,,11,36,302,37,7*7C
$GAGSV,3,2,12,12,42,231,,19,80,030,,21,21,122,47,27,25,066,44,7*77
$GAGSV,3,3,12,29,34,075,44,30,05,020,38,33,09,184,40,36,02,338,,7*7E
$GBGSV,3,1,12,02,01,102,34,05,18,123,43,06,11,046,,09,26,048,41,1*7B
$GBGSV,3,2,12,16,08,044,26,20,07,291,,23,39,160,47,24,11,037,41,1*78
$GBGSV,3,3,12,25,49,083,47,27,00,217,,29,13,314,,30,13,261,41,1*78
$GNRMC,030051.00,A,4843.26198,N,00920.55408,E,0.007,,080225,,,A,V*11
$GNGGA,030051.00,4843.26198,N,00920.55408,E,1,12,0.48,250.9,M,47.6,M,,*49
$GPGSV,3,1,11,04,15,079,47,05,22,309,42,06,26,209,,07,72,112,46,1*69
$GPGSV,3,2,11,09,44,077,42,11,41,246,37,13,09,260,43,16,11,034,,1*63
$GPGSV,3,3,11,20,56,295,38,29,02,321,,30,52,196,42,1*55
$GLGSV,3,1,10,69,43,079,36,70,55,316,20,71,12,290,,78,14,024,30,1*78
$GLGSV,3,2,10,79,48,071,50,80,36,148,51,84,00,208,12,85,25,250,46,1*77
$GLGSV,3,3,10,86,28,313,45,87,06,354,,1*76
$GAGSV,3,1,12,04,35,266,37,06,10,263,38,10,46,266,,11,36,302,37,7*7C
$GAGSV,3,2,12,12,42,231,,19,80,030,,21,21,122,46,27,25,066,45,7*77
$GAGSV,3,3,12,29,34,075,44,30,05,020,38,33,09,184,39,36,02,338,,7*70
$GBGSV,3,1,12,02,01,102,33,05,18,123,43,06,11,046,,09,26,048,41,1*7C
$GBGSV,3,2,12,16,08,044,26,20,07,291,,23,39,160,46,24,11,037,41,1*79
$GBGSV,3,3,12,25,49,083,47,27,00,217,,29,13,314,30,13,261,41,1*78
$GNRMC,030052.00,A,4843.26200,N,00920.55408,E,0.003,,080225,,,A,V*14
$GNGGA,030052.00,4843.26200,N,00920.55408,E,1,12,0.48,251.0,M,47.6,M,,*40
$GPGSV,3,1,11,04,15,079,47,05,22,309,42,06,26,209,,07,72,112,46,1*69
$GPGSV,3,2,11,09,44,077,43,11,41,246,37,13,09,260,43,16,11,034,,1*62
$GPGSV,3,3,11,20,56,295,38,29,02,321,,30,52,196,42,1*55
$GLGSV,3,1,10,69,43,079,33,70,55,316,24,71,12,290,,78,14,024,30,1*79
$GLGSV,3,2,10,79,48,071,50,80,36,148,51,84,00,208,10,85,25,250,46,1*75
$GLGSV,3,3,10,86,28,313,45,87,06,354,,1*76
$GAGSV,3,1,12,04,35,266,37,06,10,263,38,10,46,266,,11,36,302,37,7*7C
$GAGSV,3,2,12,12,42,231,,19,80,030,,21,21,122,46,27,25,066,45,7*77
$GAGSV,3,3,12,29,34,075,44,30,05,020,38,33,09,184,40,36,02,338,,7*7E
$GBGSV,3,1,12,02,01,102,33,05,18,123,43,06,11,046,,09,26,048,41,1*7C
$GBGSV,3,2,12,16,08,044,27,20,07,291,,23,39,160,46,24,11,037,41,1*78
$GBGSV,3,3,12,25,49,083,47,27,00,217,,29,13,314,,30,13,261,41,1*78
$GNRMC,030053.00,A,4843.26203,N,00920.55409,E,0.010,,080225,,,A,V*15
$GNGGA,030053.00,4843.26203,N,00920.55409,E,1,12,0.48,251.1,M,47.6,M,,*42
$GPGSV,3,1,11,04,15,079,46,05,22,309,43,06,26,209,,07,72,112,45,1*6A
$GPGSV,3,2,11,09,44,077,43,11,41,246,37,13,09,260,43,16,11,034,,1*62
$GPGSV,3,3,11,20,56,295,38,29,02,321,,30,52,196,42,1*55
$GLGSV,3,1,10,69,43,079,29,70,55,316,25,71,12,290,,78,14,024,31,1*72
$GLGSV,3,2,10,79,48,071,50,80,36,148,51,84,00,208,14,85,25,250,46,1*71
$GLGSV,3,3,10,86,28,313,44,87,06,354,,1*77
$GAGSV,3,1,12,04,35,266,37,06,10,263,38,10,46,266,,11,36,302,37,7*7C
$GAGSV,3,2,12,12,42,231,,19,80,030,,21,21,122,46,27,25,066,45,7*77
$GAGSV,3,3,12,29,34,075,44,30,05,020,38,33,09,184,39,36,02,338,,7*70
$GBGSV,3,1,12,02,01,102,33,05,18,123,43,06,11,046,,09,26,048,41,1*7C
$GBGSV,3,2,12,16,08,044,27,20,07,291,,23,39,160,46,24,1,037,41,1*78
$GBGSV,3,3,12,25,49,083,47,27,00,217,,29,13,314,,30,13,261,41,1*78
$GNRMC,030054.00,A,4843.26206,N,00920.55409,E,0.012,,080225,,,A,V*15
$GNGGA,030054.00,4843.26206,N,00920.55409,E,1,12,0.49,251.2,M,47.6,M,,*42
$GPGSV,3,1,11,04,15,079,46,05,22,309,43,06,26,209,,07,72,112,45,1*6A
$GPGSV,3,2,11,09,44,077,43,11,41,246,37,13,09,260,42,16,11,034,,1*63
$GPGSV,3,3,11,20,56,295,37,29,02,321,,30,52,196,42,1*5A
$GLGSV,3,1,10,69,43,079,30,70,55,316,26,71,12,290,,78,14,024,31,1*79
$GLGSV,3,2,10,79,48,071,50,80,36,148,51,84,00,208,11,85,25,250,46,1*74
$GLGSV,3,3,10,86,28,313,44,87,06,354,,1*77
$GAGSV,3,1,12,04,35,266,37,06,10,263,38,10,46,266,,11,36,302,37,7*7C
$GAGSV,3,2,12,12,42,231,,19,80,030,,21,21,122,46,27,25,066,45,7*77
$GAGSV,3,3,12,29,34,075,44,30,05,020,38,33,09,184,39,36,02,338,,7*70
$GBGSV,3,1,12,02,01,102,33,05,18,123,43,06,11,046,,09,26,048,41,1*7C
$GBGSV,3,2,12,16,08,044,28,20,07,291,,23,39,160,46,24,11,037,41,1*77
$GBGSV,3,3,12,25,49,083,47,27,00,217,,29,13,314,,30,13,261,41,1*78
$GNRMC,030055.00,A,4843.26209,N,00920.55410,E,0.013,,080225,,,A,V*12
$GNGGA,030055.00,4843.26209,N,00920.55410,E,1,12,0.49,251.3,M,47.6,M,,*45
$GPGSV,3,1,11,04,15,079,46,05,22,309,43,06,26,209,,07,72,112,45,1*6A
$GPGSV,3,2,11,09,44,077,43,11,41,246,37,13,09,260,42,16,11,034,,1*63
$GPGSV,3,3,11,20,56,295,37,29,02,321,,30,52,196,42,1*5A
$GLGSV,3,1,10,69,43,079,32,70,55,316,28,71,12,290,,78,14,024,32,1*76
$GLGSV,3,2,10,79,48,071,50,80,36,148,51,84,00,208,14,85,25,250,46,1*71
$GLGSV,3,3,10,86,28,313,44,87,06,354,,1*77
$GAGSV,3,1,12,04,35,266,37,06,10,263,38,10,46,266,,11,36,302,37,7*7C
$GAGSV,3,2,12,12,42,231,,19,80,030,,21,21,122,46,27,25,066,45,7*77
$GAGSV,3,3,12,29,34,075,44,30,05,020,38,33,09,184,39,36,02,338,,7*70
$GBGSV,3,1,12,02,01,102,33,05,18,123,43,06,11,046,,09,26,048,41,1*7C
$GBGSV,3,2,12,16,08,044,28,20,07,291,,23,39,160,46,24,11,037,41,1*77
$GBGSV,3,3,12,25,49,083,47,27,00,217,,29,13,314,,30,13,261,41,1*78
$GNRMC,030056.00,A,4843.26211,N,00920.55411,E,0.002,,080225,,,A,V*19
$GNGGA,030056.00,4843.26211,N,00920.55411,E,1,12,0.49,251.3,M,47.6,M,,*4E
$GPGSV,3,1,11,04,15,079,46,05,22,309,43,06,26,209,,07,72,112,45,1*6A
$GPGSV,3,2,11,09,44,077,43,11,41,246,37,13,09,260,42,16,11,034,,1*63
$GPGSV,3,3,11,20,56,295,37,29,02,321,,30,52,196,42,1*5A
$GLGSV,3,1,10,69,43,079,34,70,55,316,28,71,12,290,,78,14,024,33,1*71
$GLGSV,3,2,10,79,48,071,50,80,36,148,51,84,00,208,11,85,25,250,46,1*74
$GLGSV,3,3,10,86,28,313,44,87,06,354,,1*77
$GAGSV,3,1,12,04,35,266,37,06,10,263,38,10,46,266,,11,36,302,37,7*7C
$GAGSV,3,2,12,12,42,231,,19,80,030,,21,21,122,46,27,25,066,45,7*77
$GAGSV,3,3,12,29,34,075,44,30,05,020,38,33,09,184,39,36,02,338,,7*70
$GBGSV,3,1,12,02,01,102,33,05,18,123,43,06,11,046,,09,26,048,41,1*7C
$GBGSV,3,2,12,16,08,044,29,20,07,291,,23,39,160,46,24,11,037,41,1*76
$GBGSV,3,3,12,25,49,083,47,27,00,217,,29,13,314,,30,13,261,41,1*78
$GNRMC,030057.00,A,4843.26213,N,00920.55412,E,0.010,,080225,,,A,V*1A
$GNGGA,030057.00,4843.26213,N,00920.55412,E,1,12,0.49,251.3,M,47.6,M,,*4E
$GPGSV,3,1,11,04,15,079,45,05,22,309,43,06,26,209,,07,72,112,45,1*69
$GPGSV,3,2,11,09,44,077,43,11,41,246,37,13,09,260,42,16,11,034,,1*63
$GPGSV,3,3,11,20,56,295,37,29,02,321,,30,52,196,42,1*5A
$GLGSV,3,1,10,69,43,079,34,70,55,316,28,71,12,290,,78,14,024,33,1*71
$GLGSV,3,2,10,79,48,071,50,80,36,148,51,84,00,208,13,85,25,250,46,1*76
$GLGSV,3,3,10,86,28,313,44,87,06,354,,1*77
$GAGSV,3,1,12,04,35,266,37,06,10,263,38,10,46,266,,11,36,302,37,7*7C
$GAGSV,3,2,12,12,42,231,,19,80,030,,21,21,122,46,27,25,066,45,7*77
$GAGSV,3,3,12,29,34,075,44,30,05,020,38,33,09,184,39,36,02,338,,7*70
$GBGSV,3,1,12,02,01,102,33,05,18,123,43,06,11,046,,09,26,048,42,1*7F
$GBGSV,3,2,12,16,08,044,29,20,07,291,,23,39,160,45,24,11,037,41,1*75
$GBGSV,3,3,12,25,49,083,47,27,00,217,,29,13,314,,30,13,261,41,1*78
$GNRMC,030058.00,A,4843.26215,N,00920.55412,E,0.001,,080225,,,A,V*13
$GNGGA,030058.00,4843.26215,N,00920.55412,E,1,12,0.49,251.3,M,47.6,M,,*47
$GPGSV,3,1,11,04,15,079,45,05,22,309,43,06,26,209,,07,72,112,45,1*69
$GPGSV,3,2,11,09,44,077,44,11,41,246,37,13,09,260,42,16,11,034,,1*64
$GPGSV,3,3,11,20,56,295,37,29,02,321,,30,52,196,43,1*5B
$GLGSV,3,1,10,69,43,079,33,70,55,316,28,71,12,290,,78,14,024,33,1*76
$GLGSV,3,2,10,79,48,071,49,80,36,148,51,84,00,208,13,85,25,250,46,1*7E
$GLGSV,3,3,10,86,28,313,44,87,06,354,,1*77
$GAGSV,3,1,12,04,35,266,37,06,10,263,38,10,46,266,,11,36,302,37,7*7C
$GAGSV,3,2,12,12,42,231,,19,80,030,,21,21,122,46,27,25,066,45,7*77
$GAGSV,3,3,12,29,34,075,44,30,05,020,38,33,09,184,39,36,02,338,,7*70
$GBGSV,3,1,12,02,01,102,33,05,18,123,43,06,11,046,,09,26,048,42,1*7F
$GBGSV,3,2,12,16,08,044,28,20,07,291,,23,39,160,45,24,11,037,41,1*74
$GBGSV,3,3,12,25,49,083,47,27,00,217,,29,13,314,,30,13,261,41,1*78
$GNRMC,030059.00,A,4843.26217,N,00920.55413,E,0.005,,080225,,,A,V*15
$GNGGA,030059.00,4843.26217,N,00920.55413,E,1,12,0.49,251.3,M,47.6,M,,*45
$GPGSV,3,1,11,04,15,079,45,05,22,309,42,06,26,209,,07,72,112,45,1*68
$GPGSV,3,2,11,09,44,077,44,11,41,246,37,13,09,260,42,16,11,034,,1*64
$GPGSV,3,3,11,20,56,295,38,29,02,321,,30,52,196,43,1*54
$GLGSV,3,1,10,69,43,079,34,70,55,316,28,71,12,290,,78,14,024,32,1*70
$GLGSV,3,2,10,79,48,071,49,80,36,148,51,84,00,208,14,85,25,250,46,1*79
$GLGSV,3,3,10,86,28,313,44,87,06,354,,1*77
$GAGSV,3,1,12,04,35,266,37,06,10,263,37,10,46,266,,11,36,302,37,7*73
$GAGSV,3,2,12,12,42,231,,19,80,030,,21,21,122,46,27,25,066,45,7*77
$GAGSV,3,3,12,29,34,075,44,30,05,020,38,33,09,184,39,36,02,338,,7*70
$GBGSV,3,1,12,02,01,102,33,05,18,123,43,06,11,046,,09,26,048,42,1*7F
$GBGSV,3,2,12,16,08,044,29,20,07,291,,23,39,160,45,24,11,037,41,1*75
$GBGSV,3,3,12,25,49,083,47,27,00,217,,29,13,314,,30,13,261,41,1*78
$GNRMC,030100.00,A,4843.26219,N,00920.55414,E,0.014,,080225,,,A,V*11
$GNGGA,030100.00,4843.26219,N,00920.55414,E,1,12,0.49,251.3,M,47.6,M,,*41
$GPGSV,3,1,11,04,15,079,45,05,22,309,43,06,26,209,,07,72,112,45,1*69
$GPGSV,3,2,11,09,44,077,44,11,41,246,38,13,09,260,42,16,11,034,,1*6B
$GPGSV,3,3,11,20,56,295,38,29,02,321,,30,52,196,43,1*54
$GLGSV,3,1,10,69,43,079,34,70,55,316,27,71,12,290,,78,14,024,31,1*7C
$GLGSV,3,2,10,79,48,071,49,80,36,148,51,84,00,208,10,85,25,250,46,1*7D
$GLGSV,3,3,10,86,28,313,44,87,06,354,,1*77
$GAGSV,3,1,12,04,35,266,36,06,10,263,37,10,46,266,,11,36,302,37,7*72
$GAGSV,3,2,12,12,42,231,,19,80,030,,21,21,122,46,27,25,066,44,7*76
$GAGSV,3,3,12,29,34,075,44,30,05,020,38,33,09,184,39,36,02,338,,7*70
$GBGSV,3,1,12,02,01,102,33,05,18,123,43,06,11,046,,09,26,048,41,1*7C
$GBGSV,3,2,12,16,08,044,29,20,07,291,,23,39,160,45,24,11,037,41,1*75
$GBGSV,3,3,12,25,49,083,47,27,00,217,,29,13,314,,30,13,261,41,1*78
$GNRMC,030101.00,A,4843.26223,N,00920.55415,E,0.003,,080225,,,A,V*1E
$GNGGA,030101.00,4843.26223,N,00920.55415,E,1,12,0.49,251.3,M,47.6,M,,*48
$GPGSV,3,1,11,04,15,079,45,05,22,309,43,06,26,209,,07,72,112,45,1*69
$GPGSV,3,2,11,09,44,077,44,11,41,246,38,13,09,260,42,16,11,034,,1*6B
$GPGSV,3,3,11,20,56,295,38,29,02,321,,30,52,196,43,1*54
$GLGSV,3,1,10,69,43,079,34,70,55,316,26,71,12,290,,78,14,024,31,1*7D
$GLGSV,3,2,10,79,48,071,50,80,36,148,50,84,00,208,11,85,25,250,46,1*75
$GLGSV,3,3,10,86,28,313,44,87,06,354,,1*77
$GAGSV,3,1,12,04,35,266,36,06,10,263,37,10,46,266,,11,36,302,37,7*72
$GAGSV,3,2,12,12,42,231,,19,80,030,,21,21,122,46,27,25,066,45,7*77
$GAGSV,3,3,12,29,34,075,44,30,05,020,38,33,09,184,39,36,02,338,,7*70
$GBGSV,3,1,12,02,01,102,33,05,18,123,43,06,11,046,,09,26,048,42,1*7F
$GBGSV,3,2,12,16,08,044,30,20,07,291,,23,39,160,44,24,11,037,41,1*7C
$GBGSV,3,3,12,25,49,083,47,27,00,217,,29,13,314,,30,13,261,41,1*78
$GNRMC,030102.00,A,4843.26225,N,00920.55415,E,0.004,,080225,,,A,V*1C
$GNGGA,030102.00,4843.26225,N,00920.55415,E,1,12,0.48,251.3,M,47.6,M,,*4C
$GPGSV,3,1,11,04,15,079,45,05,22,309,42,06,26,209,,07,72,112,45,1*68
$GPGSV,3,2,11,09,44,077,44,11,41,246,38,13,09,260,42,16,11,034,,1*6B
$GPGSV,3,3,11,20,56,295,38,29,02,321,,30,52,196,43,1*54
$GLGSV,3,2,10,79,48,071,50,80,36,148,50,84,00,208,12,85,25,250,47,1*77
$GLGSV,3,3,10,86,28,313,44,87,06,354,,1*77
$GAGSV,3,1,12,04,35,266,36,06,10,263,37,10,46,266,,11,36,302,37,7*72
$GAGSV,3,2,12,12,42,231,,19,80,030,,21,21,122,46,27,25,066,45,7*77
$GAGSV,3,3,12,29,34,075,44,30,05,020,38,33,09,184,39,36,02,338,,7*70
$GBGSV,3,1,12,02,01,102,33,05,18,123,43,06,11,046,,09,26,048,42,1*7F
$GBGSV,3,2,12,16,08,044,30,20,07,291,,23,39,160,44,24,11,037,41,1*7C
$GBGSV,3,3,12,25,49,083,47,27,00,217,,29,13,314,,30,13,261,41,1*78
$GNRMC,030103.00,A,4843.26227,N,00920.55417,E,0.005,,080225,,,A,V*1C
$GNGGA,030103.00,4843.26227,N,00920.55417,E,1,12,0.48,251.3,M,47.6,M,,*4D
$GPGSV,3,1,11,04,15,079,45,05,22,309,42,06,26,209,,07,72,112,45,1*68
$GPGSV,3,2,11,09,44,077,44,11,41,246,38,13,09,260,42,16,11,034,,1*6B
$GPGSV,3,3,11,20,56,295,39,29,02,321,,30,52,196,43,1*55
$GLGSV,3,1,10,69,43,079,35,70,55,316,22,71,2,290,,78,14,024,33,1*7A
$GLGSV,3,2,10,79,48,071,50,80,36,148,50,84,00,208,12,85,25,250,46,1*76
$GLGSV,3,3,10,86,28,313,44,87,06,354,,1*77
$GAGSV,3,1,12,04,35,266,36,06,10,263,37,10,46,266,,11,36,302,37,7*72
$GAGSV,3,2,12,12,42,231,,19,80,030,,21,21,122,46,27,25,066,45,7*77
$GAGSV,3,3,12,29,34,075,44,30,05,020,38,33,09,184,39,36,02,338,,7*70
$GBGSV,3,1,12,02,01,102,33,05,18,123,43,06,11,046,,09,26,048,42,1*7F
$GBGSV,3,2,12,16,08,044,30,20,07,291,,23,39,160,44,24,11,037,41,1*7C
$GBGSV,3,3,12,25,49,083,47,27,00,217,,29,13,314,,30,13,261,41,1*78
$GNRMC,030104.00,A,4843.26230,N,00920.55418,E,0.004,,080225,,,A,V*13
$GNGGA,030104.00,4843.26230,N,00920.55418,E,1,12,0.48,251.3,M,47.6,M,,*43
$GPGSV,3,1,11,04,15,079,45,05,22,309,42,06,26,209,,07,72,112,45,1*68
$GPGSV,3,2,11,09,44,077,44,11,41,246,38,13,09,260,42,16,11,034,,1*6B
$GPGSV,3,3,11,20,56,295,39,29,02,321,,30,52,196,43,1*55
$GLGSV,3,1,10,69,43,079,35,70,55,316,22,71,12,290,,78,14,024,34,1*7D
$GLGSV,3,2,10,79,48,071,50,80,36,148,50,84,00,208,12,85,25,250,47,1*77
$GLGSV,3,3,10,86,28,313,44,87,06,354,,1*77
$GAGSV,3,1,12,04,35,266,36,06,10,263,37,10,46,266,,11,36,302,37,7*72
$GAGSV,3,2,12,12,42,231,,19,80,030,,21,21,122,45,27,25,066,45,7*74
