$GNRMC,000005.00,A,4843.26022,N,00920.55376,E,0.017,,080225,,,A,V*1C
$GNGGA,000005.00,4843.26022,N,00920.55376,E,1,12,0.48,248.4,M,47.6,M,,*41
$GPGSV,3,1,12,01,23,146,46,02,18,154,48,03,54,082,46,04,82,156,32,1*64
$GPGSV,3,2,12,06,39,308,,07,01,179,,09,53,221,37,11,07,315,,1*62
$GPGSV,3,3,12,17,24,233,42,19,32,263,37,28,12,034,,31,26,053,43,1*60
$GLGSV,3,1,10,67,24,052,43,68,71,010,43,69,45,256,37,76,10,009,42,1*76
$GLGSV,3,2,10,77,18,053,44,78,07,108,42,82,08,168,45,83,47,184,43,1*7E
$GLGSV,3,3,10,84,53,311,,85,06,335,,1*7E
$GAGSV,3,1,09,02,01,026,,07,39,055,43,10,10,316,33,12,32,311,32,7*71
$GAGSV,3,2,09,19,33,218,30,25,00,340,,26,36,148,45,29,77,171,36,7*7F
$GAGSV,3,3,09,33,79,224,37,7*44
$GBGSV,3,1,11,02,03,100,34,05,19,122,38,06,30,050,40,09,37,065,43,1*79
$GBGSV,3,2,11,16,28,046,40,24,17,11,,25,00,148,,26,16,051,42,1*77
$GBGSV,3,3,11,27,46,283,34,28,44,214,43,30,11,325,,1*42
$GNRMC,000006.00,A,4843.26022,N,00920.55374,E,0.040,,080225,,,A,V*1F
$GNGGA,000006.00,4843.26022,N,00920.55374,E,1,12,0.49,248.4,M,47.6,M,,*41
$GPGSV,3,1,12,01,23,146,47,02,18,154,47,03,54,082,46,04,82,156,33,1*6B
$GPGSV,3,2,12,06,39,308,,07,01,179,,09,53,221,37,11,07,315,,1*62
$GPGSV,3,3,12,17,24,233,42,19,32,263,37,28,12,034,,31,26,053,44,1*67
$GLGSV,3,1,10,67,24,052,43,68,70,012,43,69,45,256,37,76,10,009,41,1*76
$GLGSV,3,2,10,77,18,053,44,7807,108,42,82,08,168,45,83,47,184,43,1*7E
$GLGSV,3,3,10,84,53,311,,85,06,335,,1*7E
$GAGSV,3,1,09,02,01,026,,07,39,055,43,10,10,316,33,12,32,311,32,7*71
$GAGSV,3,2,09,19,33,218,30,25,00,340,,26,36,148,45,29,77,171,36,7*7F
$GAGSV,3,3,09,33,79,224,37,7*44
$GBGSV,3,1,11,02,03,100,33,05,19,122,38,06,30,050,40,09,37,065,43,1*7E
$GBGSV,3,2,11,16,28,04640,24,17,101,,25,00,148,,26,16,01,42,1*77
$GBGSV,3,3,11,27,46,283,34,28,44,214,43,30,11,325,,1*42
$GNRMC,000007.00,A,4843.26022,N,00920.55373,E,0.072,,080225,,,A,V*18
$GNGGA,000007.00,4843.26022,N,00920.55373,E,1,12,0.48,248.4,M,47.6,M,,*46
$GPGSV,3,1,12,01,23,146,47,02,18,154,47,03,54,082,47,04,82,156,33,1*6A
$GPGSV,3,2,12,06,39,308,,07,01,179,,09,53,221,37,11,07,315,,1*62
$GPGSV,3,3,12,17,24,233,42,19,32,263,38,28,12,034,,31,26,053,44,1*68
$GLGSV,3,1,10,67,24,052,43,68,70,012,43,69,46,257,37,76,10,009,41,1*74
$GLGSV,3,2,10,77,18,053,44,78,07,108,42,82,08,168,45,83,47,184,43,1*7E
$GLGSV,3,3,10,84,53,311,,85,06,335,,1*7E
$GAGSV,3,1,09,02,01,026,,07,39,055,43,10,10,316,33,12,32,311,32,7*71
$GAGSV,3,2,09,19,33,218,29,25,00,340,,26,36,148,45,29,77,171,36,7*77
$GAGSV,3,3,09,33,79,224,37,7*44
$GBGSV,3,1,11,02,03,100,34,05,19,122,38,06,30,050,40,09,37,065,43,1*79
$GBGSV,3,2,11,16,28,046,40,24,17,101,,25,00,148,,26,16,051,42,1*77
$GBGSV,3,3,11,27,46,283,34,28,44,214,43,30,11,325,,1*42
$GNRMC,000008.00,A,4843.26022,N,00920.55370,E,0.032,,080225,,,A,V*10
$GNGGA,000008.00,4843.26022,N,00920.55370,E,1,12,0.48,248.4,M,47.6,M,,*4A
$GPGSV,3,2,12,06,39,308,,07,01,179,,09,53,221,37,11,07,315,,1*62
$GPGSV,3,3,12,17,24,233,41,19,32,263,38,28,12,034,,31,26,053,44,1*6B
$GLGSV,3,1,10,67,24,052,43,68,70,012,43,69,46,257,38,76,10,009,40,1*7A
$GLGSV,3,2,10,77,18,053,44,78,07,108,42,82,08,168,45,83,47,184,43,1*7E
$GLGSV,3,3,10,84,53,311,,85,06,335,,1*7E
$GAGSV,3,1,09,02,01,026,,07,39,055,43,10,10,316,33,12,32,311,32,7*71
$GAGSV,3,2,09,19,33,218,29,25,00,340,,26,36,148,45,29,77,171,36,7*77
$GAGSV,3,3,09,33,79,224,37,7*44
$GBGSV,3,1,11,02,03,100,34,05,19,122,39,06,30,050,40,09,37,065,43,1*78
$GBGSV,3,2,11,16,28,046,40,24,17,101,,25,00,148,,26,16,051,42,1*77
$GBGSV,3,3,11,27,46,283,34,28,44,214,43,30,11,325,,1*42
$GNRMC,000009.00,A,4843.26023,N,00920.55367,E,0.021,,080225,,,A,V*14
$GNGGA,000009.00,4843.26023,N,00920.55367,E,1,12,0.50,248.2,M,47.6,M,,*43
$GPGSV,3,1,12,01,23,146,47,02,18,154,47,03,54,082,47,04,82,156,33,1*6A
$GPGSV,3,2,12,06,39,308,,07,01,179,,09,53,221,36,11,07,315,,1*63
$GPGSV,3,3,12,17,24,233,41,19,32,263,38,28,12,034,,31,26,053,44,1*6B
$GLGSV,3,1,10,67,24,052,43,68,70,012,43,69,46,257,38,76,10,009,40,1*7A
$GLGSV,3,2,10,77,18,053,44,78,07,108,42,82,08,168,45,83,47,184,43,1*7E
$GLGSV,3,3,10,84,53,311,,85,06,335,,1*7E
$GAGSV,3,1,09,02,01,026,,07,39,055,43,10,10,316,33,12,32,311,32,7*71
$GAGSV,3,2,09,19,33,218,29,25,00,340,,26,36,148,45,29,77,171,36,7*77
$GAGSV,3,3,09,33,79,224,37,7*44
$GBGSV,3,1,11,02,03,100,33,05,19,122,38,06,30,050,40,09,37,065,43,1*7E
$GBGSV,3,2,11,16,28,046,40,24,17,101,,25,00,148,,26,16,051,41,1*74
$GBGSV,3,3,11,27,46,283,34,28,44,214,42,30,11,325,,1*43
$GNRMC,000010.00,A,4843.26023,N,00920.55365,E,0.007,,080225,,,A,V*1A
$GNGGA,000010.00,4843.26023,N,00920.55365,E,1,12,0.49,248.1,M,47.6,M,,*42
$GPGSV,3,1,12,01,23,146,47,02,18,154,47,03,54,082,47,04,82,156,33,1*6A
$GPGSV,3,2,12,06,39,308,,07,01,179,,09,53,221,36,11,07,315,,1*63
$GPGSV,3,3,12,17,24,233,41,19,32,263,38,28,12,034,,31,26,053,44,1*6B
$GLGSV,3,1,10,67,24,052,42,68,70,013,42,69,46,257,38,76,09,008,39,1*7C
$GLGSV,3,2,10,77,19,052,44,78,07,108,42,82,08,168,45,83,46,184,43,1*7F
$GLGSV,3,3,10,84,53,311,,85,06,335,,1*7E
$GAGSV,3,1,09,02,01,026,,07,39,055,43,10,10,316,33,12,32,311,31,7*72
$GAGSV,3,2,09,19,33,218,29,25,00,340,,26,36,148,45,29,77,171,36,7*77
$GAGSV,3,3,09,33,79,224,37,7*44
$GBGSV,3,1,11,02,03,100,34,05,19,122,38,06,30,050,40,09,37,065,43,1*79
$GBGSV,3,2,11,16,28,046,40,24,17,101,,25,00,148,,26,16,051,41,1*74
$GBGSV,3,3,11,27,46,283,34,28,44,214,42,30,11,325,,1*43
$GNRMC,000011.00,A,4843.26024,N,00920.55361,E,0.028,,080225,,,A,V*15
$GNGGA,000011.00,4843.26024,N,00920.55361,E,1,12,0.48,248.0,M,47.6,M,,*40
$GPGSV,3,1,12,01,23,146,47,02,18,154,47,03,54,082,47,04,82,156,33,1*6A
$GPGSV,3,2,12,06,39,308,,07,01,179,,09,53,221,36,11,07,315,,1*63
$GPGSV,3,3,12,17,24,233,41,19,32,263,38,28,12,034,,31,26,053,43,1*6C
$GLGSV,3,1,10,67,24,052,42,68,70,013,42,69,46,257,38,76,09,008,39,1*7C
$GLGSV,3,2,10,77,19,052,44,78,07,108,42,82,08,168,46,83,46,184,43,1*7C
$GLGSV,3,3,10,84,53,311,,85,06,335,,1*7E
$GAGSV,3,1,09,02,01,026,,07,39,055,43,10,10,316,33,12,32,311,31,7*72
$GAGSV,3,2,09,19,33,218,29,25,00,340,,26,36,148,45,29,77,171,36,7*77
$GAGSV,3,3,09,33,79,224,37,7*44
$GBGSV,3,1,11,02,03,100,34,05,19,122,38,06,30,050,40,09,37,065,43,1*79
$GBGSV,3,2,11,16,28,046,40,24,17,101,,25,00,148,,26,16,051,41,1*74
$GBGSV,3,3,11,27,46,283,34,28,44,214,42,30,11,325,,1*43
$GNRMC,000012.00,A,4843.26025,N,00920.55358,E,0.015,,080225,,,A,V*13
$GNGGA,000012.00,4843.26025,N,00920.55358,E,1,12,0.48,247.9,M,47.6,M,,*4E
$GPGSV,3,1,12,01,23,146,47,02,18,154,47,03,4,082,47,04,82,156,33,1*6A
$GPGSV,3,2,12,06,39,308,,07,01,179,,09,53,221,36,11,07,315,,1*63
$GPGSV,3,3,12,17,24,233,41,19,32,263,38,28,12,034,,31,26,053,43,1*6C
$GLGSV,3,1,10,67,24,052,42,68,70,013,42,69,46,257,39,76,09,008,39,1*7D
$GLGSV,3,2,10,77,19,052,44,78,07,108,42,82,08,168,46,83,46,184,43,1*7C
$GLGSV,3,3,10,84,53,311,,85,06,335,,1*7E
$GAGSV,3,1,09,02,01,026,,07,39,055,43,10,10,316,33,12,32,311,31,7*72
$GAGSV,3,2,09,19,33,218,29,25,00,340,,26,36,148,45,29,77,171,36,7*77
$GAGSV,3,3,09,33,79,22,37,7*44
$GBGSV,3,1,11,02,03,100,34,05,19,122,39,06,30,050,40,09,37,065,43,1*78
$GBGSV,3,2,11,16,28,046,40,24,17,101,,25,00,148,,26,16,051,41,1*74
$GBGSV,3,3,11,27,46,283,34,28,44,214,42,30,11,325,,1*43
$GNRMC,000013.00,A,4843.26026,N,00920.55358,E,0.007,,080225,,,A,V*12
$GNGGA,000013.00,4843.26026,N,00920.55358,E,1,12,0.48,247.8,M,47.6,M,,*4D
$GPGSV,3,1,12,01,23,146,48,02,18,154,47,03,54,082,47,04,82,156,33,1*65
$GPGSV,3,2,12,06,39,308,,07,01,179,,09,53,221,36,11,07,315,,1*63
$GPGSV,3,3,12,17,24,233,41,19,32,263,38,28,12,034,,31,26,053,43,1*6C
$GLGSV,3,1,10,67,24,052,42,68,70,013,42,69,46,257,39,76,09,008,38,1*7C
$GLGSV,3,2,10,77,19,052,44,78,07,108,42,82,08,168,46,83,46,184,43,1*7C
$GLGSV,3,3,10,84,53,311,,85,06,335,,1*7E
$GAGSV,3,1,09,02,01,026,,07,39,055,43,10,10,316,33,12,32,311,31,7*72
$GAGSV,3,2,09,19,33,218,30,25,00,340,,26,36,148,46,29,77,171,36,7*7C
$GAGSV,3,3,09,33,79,224,37,7*44
$GBGSV,3,1,11,02,03,100,34,05,19,122,39,06,30,050,40,09,37,065,43,1*78
$GBGSV,3,2,11,16,28,046,40,24,17,101,,25,00,148,,26,16,051,41,1*74
$GBGSV,3,3,11,27,46,283,34,28,44,214,42,30,11,325,,1*43
$GNRMC,000014.00,A,4843.26027,N,00920.55354,E,0.077,,080225,,,A,V*1F
$GNGGA,000014.00,4843.26027,N,00920.55354,E,1,12,0.51,247.7,M,47.6,M,,*40
$GPGSV,3,1,12,01,23,146,48,02,18,154,47,03,54,082,47,04,82,156,32,1*64
$GPGSV,3,2,12,06,39,308,,07,01,179,,09,53,221,36,11,07,315,,1*63
$GPGSV,3,3,12,17,24,233,41,19,32,263,38,28,12,034,,31,26,053,43,1*6C
$GLGSV,3,1,10,67,24,052,42,68,70,013,42,69,46,257,40,76,09,008,38,1*72
$GLGSV,3,2,10,77,19,052,44,78,07,108,43,82,08,168,46,83,46,184,43,1*7D
$GLGSV,3,3,10,84,53,311,,85,06,335,,1*7E
$GAGSV,3,1,09,02,01,026,,07,39,055,43,10,10,316,32,12,32,311,31,7*73
$GAGSV,3,2,09,19,33,218,29,25,00,340,,26,36,148,46,29,77,171,36,7*74
$GAGSV,3,3,09,33,79,224,38,7*4B
$GBGSV,3,1,11,02,03,100,34,05,19,122,38,06,30,050,40,09,7,065,43,1*79
$GBGSV,3,2,11,16,28,046,40,24,17,101,,25,00,148,,26,16,051,41,1*74
$GBGSV,3,3,11,27,46,283,34,28,44,214,42,30,11,325,,1*43
$GNRMC,000015.00,A,4843.26030,N,00920.55348,E,0.073,,080225,,,A,V*11
$GNGGA,000015.00,4843.26030,N,00920.55348,E,1,12,0.48,247.6,M,47.6,M,,*43
$GPGSV,3,1,12,01,23,146,48,02,18,154,47,03,54,082,47,04,82,156,33,1*65
$GPGSV,3,2,12,06,39,308,,07,01,179,,09,53,221,36,11,07,315,,1*63
$GPGSV,3,3,12,17,24,233,41,19,32,263,37,28,12,034,,31,26,053,43,1*63
$GLGSV,3,1,10,67,24,052,42,8,70,013,42,69,46,257,40,76,09,008,38,1*72
$GLGSV,3,2,10,77,19,052,44,78,07,108,43,82,08,168,46,83,46,184,43,1*7D
$GLGSV,3,3,10,84,53,311,,85,06,335,,1*7E
$GAGSV,3,1,09,02,01,026,,07,39,055,43,10,10,316,32,12,32,311,31,7*73
$GAGSV,3,2,09,19,33,218,29,25,00,340,,26,36,148,46,29,77,171,36,7*74
$GAGSV,3,3,09,33,79,224,38,7*4B
$GBGSV,3,1,11,02,03,100,34,05,19,122,39,06,30,050,40,09,37,065,43,1*78
$GBGSV,3,2,11,16,28,046,41,24,17,101,,25,00,148,,26,16,051,41,1*75
$GBGSV,3,3,11,27,46,283,34,28,44,214,42,30,11,325,,1*43
$GNGGA,000016.00,4843.26031,N,00920.55345,E,1,12,0.48,247.5,M,47.6,M,,*4F
$GPGSV,3,1,12,01,23,146,48,02,18,154,47,03,54,082,47,04,82,156,33,1*65
$GPGSV,3,2,12,06,39,308,,07,01,179,,09,53,221,36,11,07,315,,1*63
$GPGSV,3,3,12,17,24,233,40,19,32,263,37,28,12,034,,31,26,053,43,1*62
$GLGSV,3,1,10,67,24,052,42,68,70,013,41,69,46,257,40,76,09,008,38,1*71
$GLGSV,3,2,10,77,19,052,44,78,07,107,43,82,08,168,46,83,46,184,43,1*72
$GLGSV,3,3,10,84,53,311,,85,06,335,,1*7E
$GAGSV,3,1,09,02,01,026,,07,39,055,43,10,10,316,32,12,32,311,31,7*73
$GAGSV,3,2,09,19,33,218,29,25,00,340,,26,36,148,46,29,77,171,36,7*74
$GAGSV,3,3,09,33,79,224,38,7*4B
$GBGSV,3,1,11,02,03,100,34,05,19,122,39,06,30,050,40,09,37,065,43,1*78
$GBGSV,3,2,11,16,28,046,40,24,17,101,,25,00,148,,26,16,051,41,1*74
$GBGSV,3,3,11,27,46,283,34,28,44,214,42,30,11,325,,1*43
$GNGGA,000017.00,4843.26033,N,00920.55343,E,1,12,0.48,247.4,M,47.6,M,,*4B
$GPGSV,3,1,12,01,23,146,49,02,18,154,47,03,54,082,47,04,82,156,33,1*64
$GPGSV,3,2,12,06,39,308,,07,01,179,,09,53,221,37,11,07,315,,1*62
$GPGSV,3,3,12,17,24,233,40,19,32,263,37,28,12,034,,31,26,053,43,1*62
$GLGSV,3,1,10,67,24,052,42,68,70,013,41,69,46,257,40,76,09,008,38,1*71
$GLGSV,3,2,10,77,19,052,43,78,07,107,43,82,08,168,46,83,46,184,43,1*75
$GLGSV,3,3,10,84,53,311,,85,06,335,,1*7E
$GAGSV,3,1,09,02,01,026,,07,39,055,43,10,10,316,32,12,32,311,31,7*73
$GAGSV,3,2,09,19,33,218,29,25,00,340,,26,36,148,46,29,77,171,36,7*74
$GAGSV,3,3,09,33,79,224,38,7*4B
$GBGSV,3,1,11,02,03,100,34,05,19,122,38,06,30,050,40,09,37,065,42,1*78
$GBGSV,3,2,11,16,28,046,40,24,17,101,,25,00,148,,26,16,051,41,1*74
$GBGSV,3,3,11,27,46,283,34,28,44,214,42,30,11,325,,1*43
$GNRMC,000018.00,A,4843.26035,N,00920.55340,E,0.044,,080225,,,A,V*15
$GNGGA,000018.00,4843.26035,N,00920.55340,E,1,12,0.49,247.4,M,47.6,M,,*40
$GPGSV,3,1,12,01,23,146,49,02,18,154,47,03,54,082,47,04,82,156,33,1*64
$GPGSV,3,2,12,06,39,308,,07,01,179,,09,53,221,37,11,07,315,,1*62
$GPGSV,3,3,12,17,24,233,40,19,32,263,37,28,12,034,,31,26,053,43,1*62
$GLGSV,3,1,10,67,24,052,42,68,70,013,41,69,46,257,40,76,09,008,38,1*71
$GLGSV,3,2,10,77,19,052,43,78,07,107,43,82,08,168,46,83,46,184,43,1*75
$GLGSV,3,3,10,84,53,311,,85,06,335,,1*7E
$GAGSV,3,1,09,02,01,026,,07,39,055,43,10,10,316,32,12,32,311,31,7*73
$GAGSV,3,2,09,19,33,218,28,25,00,340,,26,36,148,46,29,77,171,36,7*75
$GAGSV,3,3,09,33,79,224,38,7*4B
$GBGSV,3,1,11,02,03,100,34,05,19,122,38,06,30,050,40,09,37,065,42,1*78
$GBGSV,3,2,11,16,28,046,41,24,17,101,,25,00,148,,26,16,051,42,1*76
$GBGSV,3,3,11,27,46,283,34,28,44,214,42,30,11,325,,1*43
$GNRMC,000019.00,A,4843.26038,N,00920.55336,E,0.015,,080225,,,A,V*1C
$GNGGA,000019.00,4843.26038,N,00920.55336,E,1,12,0.50,247.3,M,47.6,M,,*42
$GPGSV,3,1,12,01,23,146,49,02,18,154,46,03,54,082,47,04,82,156,33,1*65
$GPGSV,3,2,12,06,39,308,,07,01,179,,09,53,221,37,11,07,315,,1*62
$GPGSV,3,3,12,17,24,233,40,19,32,263,37,28,12,034,,31,26,053,43,1*62
$GLGSV,3,1,10,67,24,052,42,68,70,013,40,69,46,257,39,76,09,008,40,1*71
$GLGSV,3,2,10,77,19,052,43,78,07,107,44,82,08,168,46,83,46,184,43,1*72
$GLGSV,3,3,10,84,53,311,,85,06,335,,1*7E
$GAGSV,3,1,09,02,01,026,,07,39,055,43,10,10,316,32,12,32,311,31,7*73
$GAGSV,3,2,09,19,33,218,28,25,00,340,,26,36,148,46,29,77,171,36,7*75
$GAGSV,3,3,09,33,79,224,38,7*4B
$GBGSV,3,1,11,02,03,100,34,05,19,122,38,06,30,050,40,09,37,065,42,1*78
$GBGSV,3,2,11,16,28,046,41,24,17,101,,25,00,148,,26,16,051,42,1*76
$GBGSV,3,3,11,27,46,283,34,28,44,214,42,30,11,325,,1*43
$GNRMC,000020.00,A,4843.26042,N,00920.55331,E,0.057,,080225,,,A,V*1A
$GNGGA,000020.00,4843.26042,N,00920.55331,E,1,12,0.49,247.2,M,47.6,M,,*4B
$GPGSV,3,1,12,01,23,146,49,02,18,154,46,03,54,082,47,04,82,156,33,1*65
$GPGSV,3,2,12,06,39,308,,07,01,179,,09,53,221,37,11,07,315,,1*62
$GPGSV,3,3,12,17,24,233,40,19,32,263,37,28,12,034,,31,26,053,42,1*63
$GLGSV,3,1,10,67,24,052,42,68,70,013,40,69,46,257,39,76,09,008,41,1*70
$GLGSV,3,2,10,77,19,052,44,78,07,107,44,82,07,168,46,83,46,184,42,1*7B
$GLGSV,3,3,10,84,53,311,,85,06,335,,1*7E
$GAGSV,3,1,09,02,01,026,,07,39,055,43,10,10,316,32,12,32,311,31,7*73
$GAGSV,3,2,09,19,33,218,27,25,00,340,,26,36,148,46,29,77,171,36,7*7A
$GAGSV,3,3,09,33,79,224,38,7*4B
$GBGSV,3,1,11,02,03,100,34,05,19,122,39,06,30,050,40,09,37,065,42,1*79
$GBGSV,3,2,11,16,28,046,41,24,17,101,,25,00,148,,26,16,051,42,1*76
$GBGSV,3,3,11,27,46,23,34,28,44,214,42,30,11,325,,1*43
$GNRMC,000021.00,A,4843.26046,N,00920.55326,E,0.039,,080225,,,A,V*11
$GNGGA,000021.00,4843.26046,N,00920.55326,E,1,12,0.49,247.1,M,47.6,M,,*4B
$GPGSV,3,1,12,01,23,146,49,02,18,154,46,03,54,082,47,04,82,156,32,1*64
$GPGSV,3,2,12,06,39,308,,07,01,179,,09,53,221,37,11,07,315,,1*62
$GPGSV,3,3,12,17,24,233,40,19,32,263,37,28,12,034,,31,26,053,43,1*62
$GLGSV,3,1,10,67,24,052,43,68,70,013,39,69,46,257,39,76,09,008,41,1*7F
$GLGSV,3,2,10,77,19,052,44,78,07,107,44,82,07,168,46,83,46,184,42,1*7B
$GLGSV,3,3,10,84,53,311,,85,06,335,,1*7E
$GAGSV,3,1,09,02,01,026,,07,39,055,43,10,10,316,32,12,32,311,31,7*73
$GAGSV,3,2,09,19,33,218,28,25,00,340,,26,36,148,46,29,77,171,36,7*75
$GAGSV,3,3,09,33,79,224,38,7*4B
$GBGSV,3,1,11,02,03,100,34,05,19,122,38,06,30,050,40,09,37,065,42,1*78
$GBGSV,3,2,11,16,28,046,41,24,17,101,,25,00,148,,26,16,051,42,1*76
$GBGSV,3,3,11,27,46,283,34,28,44,214,42,30,11,325,,1*43
$GNRMC,000022.00,A,4843.26050,N,00920.55320,E,0.017,,080225,,,A,V*1F
$GNGGA,000022.00,4843.26050,N,00920.55320,E,1,12,0.50,247.0,M,47.6,M,,*40
$GPGSV,3,1,12,01,23,146,49,02,18,154,46,03,54,082,47,04,82,156,33,1*65
$GPGSV,3,2,12,06,39,308,,07,01,179,,09,53,221,37,11,07,315,,1*62
$GPGSV,3,3,12,17,24,233,39,19,32,263,37,28,12,034,,31,26,053,43,1*6C
$GLGSV,3,1,10,67,24,052,43,68,70,013,39,69,46,257,38,76,09,008,41,1*7E
$GLGSV,3,2,10,77,19,052,44,78,07,107,45,82,07,168,46,83,46,184,42,1*7A
$GLGSV,3,3,10,84,54,310,,85,06,335,,1*78
$GAGSV,3,1,09,02,01,026,,07,39,055,43,10,10,316,32,12,32,311,31,7*73
$GAGSV,3,2,09,19,33,218,28,25,00,340,,26,36,148,46,29,77,171,36,7*75
$GAGSV,3,3,09,33,79,224,38,7*4B
$GBGSV,3,1,11,02,03,100,34,05,19,122,38,06,30,050,40,09,37,065,42,1*78
$GBGSV,3,2,11,16,28,046,41,24,17,101,,25,00,148,,26,16,051,42,1*76
$GBGSV,3,3,11,27,46,283,33,28,44,214,42,30,11,325,,1*44
$GNRMC,000023.00,A,4843.26053,N,00920.55318,E,0.025,,080225,,,A,V*17
$GNGGA,000023.00,4843.26053,N,00920.55318,E,1,12,0.49,247.0,M,47.6,M,,*41
$GPGSV,3,1,12,01,23,146,50,02,18,154,45,03,54,082,47,04,82,156,32,1*6F
$GPGSV,3,2,12,06,39,308,,07,01,179,,09,53,221,37,11,07,315,,1*62
$GPGSV,3,3,12,17,24,233,39,19,32,263,37,28,12,034,,31,26,053,43,1*6C
$GLGSV,3,1,10,67,24,052,43,68,70,013,38,69,46,257,38,76,09,008,40,1*7E
$GLGSV,3,2,10,77,19,052,43,78,07,107,45,82,07,168,46,83,46,184,42,1*7D
$GLGSV,3,3,10,84,54,310,,85,07,335,,1*79
$GAGSV,3,1,09,02,01,026,,07,39,055,43,10,10,316,32,12,32,311,31,7*73
$GAGSV,3,2,09,19,33,218,27,25,00,340,,26,36,148,46,29,77,171,36,7*7A
$GAGSV,3,3,09,33,79,224,37,7*44
$GBGSV,3,1,11,02,03,100,34,05,19,122,38,06,30,050,40,09,37,065,42,1*78
$GBGSV,3,2,11,16,28,046,41,24,17,101,,25,00,148,,26,16,051,43,1*77
$GBGSV,3,3,11,27,46,283,34,28,44,214,42,30,11,325,,1*43
$GNRMC,000024.00,A,4843.26055,N,00920.55318,E,0.022,,080225,,,A,V*11
$GNGGA,000024.00,4843.26055,N,00920.55318,E,1,12,0.49,247.0,M,47.6,M,,*40
$GPGSV,3,1,12,01,23,146,50,02,18,154,45,03,54,082,47,04,82,156,32,1*6F
$GPGSV,3,2,12,06,39,308,,07,01,179,,09,53,221,37,11,07,315,,1*62
$GPGSV,3,3,12,17,24,233,39,19,32,263,37,28,12,034,,31,26,053,43,1*6C
$GLGSV,3,1,10,67,24,052,43,68,70,013,38,69,46,257,38,76,09,008,40,1*7E
$GLGSV,3,2,10,77,19,052,43,78,07,107,45,82,07,168,46,83,46,184,42,1*7D
$GLGSV,3,3,10,84,54,310,,85,07,335,,1*79
$GAGSV,3,1,09,02,01,026,,07,39,055,42,10,10,316,32,12,32,311,31,7*72
$GAGSV,3,2,09,19,33,218,27,25,00,340,,26,36,148,46,29,77,171,36,7*7A
$GAGSV,3,3,09,33,79,224,37,7*44
$GBGSV,3,1,11,02,03,100,34,05,19,122,38,06,30,050,40,09,37,065,42,1*78
$GBGSV,3,2,11,16,28,046,41,24,17,101,,25,00,148,,26,16,051,43,1*77
$GBGSV,3,3,11,27,46,283,34,28,44,214,42,30,11,325,,1*43
$GNRMC,000025.00,A,4843.26058,N,00920.55315,E,0.014,,080225,,,A,V*15
$GNGGA,000025.00,4843.26058,N,00920.55315,E,1,12,0.51,246.9,M,47.6,M,,*40
$GPGSV,3,1,12,01,23,146,50,02,18,154,44,03,54,082,47,04,82,156,32,1*6E
$GPGSV,3,2,12,06,39,308,,07,01,179,,09,53,221,38,11,07,315,,1*6D
$GPGSV,3,3,12,17,24,233,39,19,32,263,38,28,12,034,,31,26,053,43,1*63
$GLGSV,3,1,10,67,24,052,43,68,70,013,38,69,46,257,37,76,09,008,39,1*7F
$GLGSV,3,2,10,77,19,052,43,78,07,107,45,82,07,168,46,83,46,184,42,1*7D
$GLGSV,3,3,10,84,54,310,,85,07,335,,1*79
$GAGSV,3,1,09,02,01,026,,07,39,055,43,10,10,316,32,12,32,311,31,7*73
$GAGSV,3,2,09,19,33,218,27,25,00,340,,26,36,148,46,29,77,171,36,7*7A
$GAGSV,3,3,09,33,79,224,37,7*44
$GBGSV,3,1,11,02,03,100,34,05,19,122,39,06,30,050,40,09,37,065,42,1*79
$GBGSV,3,2,11,16,28,046,40,24,17,101,,25,00,148,,26,16,051,43,1*76
$GBGSV,3,3,11,27,46,283,34,28,44,214,42,30,11,325,,1*43
$GNRMC,000026.00,A,4843.26060,N,00920.55311,E,0.019,,080225,,,A,V*14
$GNGGA,000026.00,4843.26060,N,00920.55311,E,1,12,0.50,246.9,M,47.6,M,,*4D
$GPGSV,3,1,12,01,23,146,50,02,18,154,44,03,54,082,47,04,82,156,33,1*6F
$GPGSV,3,2,12,06,39,308,,07,01,179,,09,53,221,38,11,07,315,,1*6D
$GPGSV,3,3,12,17,24,233,39,19,32,263,38,28,12,034,,31,26,053,43,1*63
$GLGSV,3,1,10,67,24,052,44,68,70,013,38,69,46,257,38,76,09,008,38,1*76
$GLGSV,3,2,10,77,19,052,43,78,07,107,45,82,07,168,46,83,46,184,42,1*7D
$GLGSV,3,3,10,84,54,310,,85,07,335,,1*79
$GAGSV,3,1,09,02,01,026,,07,39,055,43,10,10,316,31,12,32,311,31,7*70
$GAGSV,3,2,09,19,33,218,26,25,00,340,,26,36,148,46,29,77,171,36,7*7B
$GAGSV,3,3,09,33,79,224,37,7*44
$GBGSV,3,1,11,02,03,100,34,05,19,122,39,06,30,050,40,09,37,065,42,1*79
$GBGSV,3,2,11,16,28,046,41,24,17,101,,25,00,148,,26,16,051,43,1*77
$GBGSV,3,3,11,27,46,283,34,28,44,214,42,30,11,325,,1*43
$GNRMC,000027.00,A,4843.26062,N,00920.55308,E,0.012,,080225,,,A,V*14
$GNGGA,000027.00,4843.26062,N,00920.55308,E,1,12,0.49,246.8,M,47.6,M,,*4F
$GPGSV,3,1,12,01,23,146,50,02,18,154,44,03,54,082,47,04,82,156,33,1*6F
$GPGSV,3,2,12,06,39,308,,07,01,179,,09,53,221,38,11,07,315,,1*6D
$GPGSV,3,3,12,17,24,233,39,19,32,263,39,28,12,034,,31,26,053,43,1*62
$GLGSV,3,1,10,67,24,052,44,68,70,013,38,69,46,257,37,76,09,008,39,1*78
$GLGSV,3,2,10,77,19,052,43,78,07,107,45,82,07,168,46,83,46,184,42,1*7D
$GLGSV,3,3,10,84,54,310,,85,07,335,,1*79
$GAGSV,3,1,09,02,01,026,,07,39,055,43,10,10,316,31,12,32,311,31,7*70
$GAGSV,3,2,09,19,33,218,26,25,00,340,,26,36,148,46,29,77,171,36,7*7B
$GAGSV,3,3,09,33,79,224,38,7*4B
$GBGSV,3,1,11,02,03,100,34,05,19,122,39,06,30,050,40,09,37,065,42,1*79
$GBGSV,3,2,11,16,28,046,41,24,17,101,,25,00,148,,26,16,051,43,1*77
$GBGSV,3,3,11,27,46,283,34,28,44,214,42,30,11,325,,1*43
$GNGGA,000028.00,4843.26065,N,00920.55303,E,1,12,0.49,246.7,M,47.6,M,,*43
$GPGSV,3,1,12,01,23,146,50,02,18,154,44,03,54,082,48,04,82,156,33,1*60
$GPGSV,3,2,12,06,39,308,,07,01,179,,09,53,221,38,11,07,315,,1*6D
$GPGSV,3,3,12,17,24,233,39,19,32,263,39,28,12,034,,31,26,053,43,1*62
$GLGSV,3,1,10,67,24,052,44,68,70,013,38,69,46,257,37,76,09,008,40,1*76
$GLGSV,3,2,10,77,19,052,43,78,07,107,46,82,07,168,46,83,46,184,42,1*7E
$GLGSV,3,3,10,84,54,310,,85,07,335,,1*79
$GAGSV,3,1,09,02,01,026,,07,39,055,43,10,10,316,31,12,32,311,31,7*70
$GAGSV,3,2,09,19,33,218,26,25,00,340,,26,36,148,46,29,77,171,36,7*7B
$GAGSV,3,3,09,33,79,224,37,7*44
$GBGSV,3,1,11,02,03,100,34,05,19,122,39,06,30,050,40,09,37,065,42,1*79
$GBGSV,3,2,11,16,28,046,41,24,17,101,,25,00,148,,26,16,051,43,1*77
$GBGSV,3,3,11,27,46,283,34,28,44,214,42,30,11,325,,1*43
$GNRMC,000029.00,A,4843.26070,N,00920.55298,E,0.025,,080225,,,A,V*15
$GNGGA,000029.00,4843.26070,N,00920.55298,E,1,12,0.49,246.5,M,47.6,M,,*47
$GPGSV,3,1,12,01,23,146,50,02,17,154,44,03,54,082,48,04,82,156,33,1*6F
$GPGSV,3,2,12,06,39,308,,07,01,179,,09,53,221,38,11,07,315,,1*6D
$GPGSV,3,3,12,17,24,233,39,19,32,263,39,28,12,034,,31,26,053,43,1*62
$GLGSV,3,1,10,67,24,052,44,68,70,013,38,69,46,257,37,76,09,008,41,1*77
$GLGSV,3,2,10,77,19,052,43,78,07,107,46,82,07,168,46,83,46,184,42,1*7E
$GLGSV,3,3,10,84,54,310,,85,07,335,,1*79
$GAGSV,3,1,09,02,01,026,,07,39,055,43,10,10,316,31,12,32,311,31,7*70
$GAGSV,3,2,09,19,33,218,26,25,00,340,,26,36,148,46,29,77,171,36,7*7B
$GAGSV,3,3,09,33,79,224,37,7*44
$GBGSV,3,1,11,02,03,100,34,05,19,122,39,06,30,050,40,09,37,065,42,1*79
$GBGSV,3,2,11,16,28,046,40,24,17,101,,25,00,148,,26,16,051,43,1*76
$GBGSV,3,3,11,27,46,283,35,28,44,214,42,30,11,325,,1*42
$GNRMC,000030.00,A,4843.26073,N,00920.55294,E,0.010,,080225,,,A,V*14
$GNGGA,000030.00,4843.26073,N,00920.55294,E,1,12,0.51,246.4,M,47.6,M,,*48
$GPGSV,3,1,12,01,23,146,50,02,17,154,44,03,54,082,48,04,82,156,34,1*68
$GPGSV,3,2,12,06,39,308,,07,01,179,,09,53,221,38,11,07,315,,1*6D
$GPGSV,3,3,12,17,24,233,40,19,32,263,39,28,12,034,,31,26,053,43,1*6C
$GLGSV,3,1,10,67,24,052,43,68,70,013,38,69,46,257,37,76,09,008,40,1*71
$GLGSV,3,2,10,77,19,052,42,78,07,107,46,82,07,168,46,83,46,184,42,1*7F
$GLGSV,3,3,10,84,54,310,,85,07,335,,1*79
$GAGSV,3,1,09,02,01,026,,07,39,055,43,10,10,316,31,12,32,311,31,7*70
$GAGSV,3,2,09,19,33,218,26,25,00,340,,26,36,148,46,29,77,171,36,7*7B
$GAGSV,3,3,09,33,79,224,37,7*44
$GBGSV,3,1,11,02,03,100,34,05,19,122,39,06,30,050,40,09,37,065,42,1*79
$GBGSV,3,2,11,16,28,046,40,24,17,101,,25,00,148,,26,16,051,43,1*76
$GBGSV,3,3,11,27,46,283,35,28,44,214,42,30,11,325,,1*42
$GNRMC,000031.00,A,4843.26076,N,00920.55290,E,0.020,,080225,,,A,V*17
$GNGGA,000031.00,4843.26076,N,00920.55290,E,1,12,0.50,246.3,M,47.6,M,,*4E
$GPGSV,3,1,12,01,23,146,50,02,17,154,43,03,54,082,48,04,82,155,34,1*6C
$GPGSV,3,2,12,06,39,308,,07,01,179,,09,53,221,39,11,07,315,,1*6C
$GPGSV,3,3,12,17,24,233,40,19,32,263,39,28,12,034,,31,26,053,43,1*6C
$GLGSV,3,1,10,67,24,052,43,68,70,013,38,69,46,257,36,76,09,008,40,1*70
$GLGSV,3,2,10,77,19,052,42,78,07,107,46,82,07,168,46,83,46,184,42,1*7F
$GLGSV,3,3,10,84,54,310,,85,07,335,,1*79
$GAGSV,3,1,09,02,01,026,,07,39,055,43,10,10,316,31,12,32,311,31,7*70
$GAGSV,3,2,09,19,33,218,26,25,00,340,,26,36,148,46,29,77,171,36,7*7B
$GAGSV,3,3,09,33,79,224,37,7*44
$GBGSV,3,1,11,02,03,100,34,05,19,122,39,06,30,050,40,09,37,065,42,1*79
$GBGSV,3,2,11,16,28,046,40,24,17,101,,25,00,148,,26,16,051,43,1*76
$GBGSV,3,3,11,27,46,283,35,28,44,214,42,30,11,325,,1*42
$GNRMC,000032.00,A,4843.26079,N,00920.55286,E,0.003,,080225,,,A,*1D
$GNGGA,000032.00,4843.26079,N,00920.55286,E,1,12,0.49,246.1,M,47.6,M,,*4F
$GPGSV,3,1,12,01,23,146,50,02,17,154,43,03,54,082,48,04,82,155,34,1*6C
$GPGSV,3,2,12,06,39,308,,07,01,179,,09,53,221,39,11,07,315,,1*6C
$GPGSV,3,3,12,17,24,233,39,19,32,263,40,28,12,034,,31,26,053,43,1*6C
$GLGSV,3,1,10,67,24,052,43,68,70,013,39,69,46,257,36,76,09,008,40,1*71
$GLGSV,3,2,10,77,19,052,42,78,07,107,47,82,07,168,46,83,46,184,42,1*7E
$GLGSV,3,3,10,84,54,310,,85,07,335,,1*79
$GAGSV,3,1,09,02,01,026,,07,39,055,43,10,10,316,31,12,32,311,31,7*70
$GAGSV,3,2,09,19,33,218,26,25,00,340,,26,36,148,46,29,77,171,36,7*7B
$GAGSV,3,3,09,33,79,224,37,7*44
$GBGSV,3,1,11,02,03,100,34,05,19,122,38,06,30,050,40,09,37,065,42,1*78
$GBGSV,3,2,11,16,28,046,41,24,17,101,,25,00,148,,26,16,051,43,1*77
$GBGSV,3,3,11,27,46,283,35,28,44,214,42,30,11,325,,1*42
$GNRMC,000033.00,A,4843.26082,N,00920.55284,E,0.022,,080225,,,A,V*19
$GNGGA,000033.00,4843.26082,N,00920.55284,E,1,12,0.49,246.1,M,47.6,M,,*48
$GPGSV,3,1,12,01,23,146,50,02,17,154,43,03,54,082,48,04,82,155,34,1*6C
$GPGSV,3,2,12,06,40,308,,07,01,179,,09,53,221,39,11,07,315,,1*62
$GPGSV,3,3,12,17,24,233,39,19,32,263,39,28,12,034,,31,26,053,43,1*62
$GLGSV,3,1,10,67,24,052,43,68,70,013,39,69,46,257,35,76,09,008,40,1*72
$GLGSV,3,2,10,77,19,052,42,78,07,107,47,82,07,168,46,83,46,184,42,1*7E
$GLGSV,3,3,10,84,54,310,,85,07,335,,1*79
$GAGSV,3,1,09,02,01,026,,07,39,055,43,10,10,316,31,12,32,311,31,7*70
$GAGSV,3,2,09,19,33,218,25,25,00,340,,26,36,148,46,29,77,171,36,7*78
$GAGSV,3,3,09,33,79,224,37,7*44
$GBGSV,3,1,11,02,03,100,34,05,19,122,39,06,30,050,40,09,37,065,42,1*79
$GBGSV,3,2,11,16,28,046,41,24,17,101,,25,00,148,,26,16,051,44,1*70
$GBGSV,3,3,11,27,46,283,35,28,44,214,42,30,11,325,,1*42
$GNRMC,000034.00,A,4843.26085,N,00920.55281,E,0.014,,080225,,,A,V*19
$GNGGA,000034.00,4843.26085,N,00920.55281,E,1,12,0.49,245.9,M,47.6,M,,*46
$GPGSV,3,1,12,01,23,146,50,02,17,154,43,03,54,082,48,04,82,155,34,1*6C
$GPGSV,3,2,12,06,40,308,,07,02,179,,09,53,221,39,11,07,315,,1*61
$GPGSV,3,3,12,17,24,233,40,19,32,263,39,28,12,034,,31,26,053,43,1*6C
$GLGSV,3,1,10,67,24,052,43,68,70,013,40,69,46,257,35,76,09,008,40,1*7C
$GLGSV,3,2,10,77,19,052,42,78,07,107,47,82,07,168,45,83,46,184,41,1*7E
$GLGSV,3,3,10,84,54,310,,85,07,335,,1*79
$GAGSV,3,1,09,02,01,026,,07,39,055,43,10,10,316,31,12,32,311,31,7*70
$GAGSV,3,2,09,19,33,218,26,25,00,340,,26,36,148,46,29,77,171,36,7*7B
$GAGSV,3,3,09,33,79,224,37,7*44
$GBGSV,3,1,11,02,03,100,34,05,19,122,38,06,30,050,40,09,37,065,42,1*78
$GBGSV,3,2,11,16,28,046,41,24,17,101,,25,00,148,,26,16,051,44,1*70
$GBGSV,3,3,11,27,46,283,36,28,44,214,42,30,11,325,,1*41
$GNRMC,000035.00,A,4843.26089,N,00920.55276,E,0.010,,080225,,,A,V*18
$GNGGA,000035.00,4843.26089,N,00920.55276,E,1,12,0.51,245.8,M,47.6,M,,*4B
$GPGSV,3,1,12,01,23,146,50,02,17,154,42,03,54,082,48,04,82,155,35,1*6C
$GPGSV,3,2,12,06,40,308,,07,02,179,,09,53,221,38,11,07,315,,1*60
$GPGSV,3,3,12,17,24,233,40,19,32,263,39,28,12,034,,31,26,053,43,1*6C
$GLGSV,3,1,10,67,24,052,43,68,70,013,40,69,46,257,34,76,09,008,1,1*7C
$GLGSV,3,2,10,77,19,052,42,78,07,107,47,82,07,168,45,83,46,184,41,1*7E
$GLGSV,3,3,10,84,54,310,,85,07,335,,1*79
$GAGSV,3,1,09,02,01,026,,07,39,055,43,10,10,316,31,12,32,311,31,7*70
$GAGSV,3,2,09,19,33,218,25,25,00,340,,26,36,148,46,29,77,171,35,7*7B
$GAGSV,3,3,09,33,79,224,36,7*45
$GBGSV,3,1,11,02,03,100,34,05,19,122,39,06,30,050,40,09,37,065,42,1*79
$GBGSV,3,2,11,16,28,046,40,24,17,101,,25,00,148,,26,16,051,44,1*71
$GBGSV,3,3,11,27,46,283,36,28,44,214,42,30,11,325,,1*41
$GNRMC,000036.00,A,4843.26092,N,00920.55274,E,0.016,,080225,,,A,V*15
$GNGGA,000036.00,4843.26092,N,00920.55274,E,1,12,0.49,245.7,M,47.6,M,,*46
$GPGSV,3,1,12,01,23,146,50,02,17,154,42,03,54,082,48,04,82,155,34,1*6D
$GPGSV,3,2,12,06,40,308,,07,02,179,,09,54,222,38,11,07,315,,1*64
$GPGSV,3,3,12,17,24,233,40,19,32,263,39,28,12,034,,31,26,053,43,1*6C
$GLGSV,3,1,10,67,24,052,43,68,70,013,40,69,46,257,34,76,09,08,41,1*7C
$GLGSV,3,2,10,77,19,052,42,78,07,107,47,82,07,168,45,83,46,184,42,1*7D
$GLGSV,3,3,10,84,54,310,,85,07,335,,1*79
$GAGSV,3,1,09,02,01,026,,07,39,055,43,10,10,316,31,12,32,311,31,7*70
$GAGSV,3,2,09,19,33,218,25,25,00,340,,26,36,148,46,29,77,171,35,7*7B
$GAGSV,3,3,09,33,79,224,36,7*45
$GBGSV,3,1,11,02,03,100,33,05,19,122,38,06,30,050,40,09,37,065,42,1*7F
$GBGSV,3,2,11,16,28,046,41,24,17,101,,25,00,148,,26,16,051,44,1*70
$GBGSV,3,3,11,27,46,283,36,28,44,214,41,30,11,325,,1*42
$GNRMC,000037.00,A,4843.26095,N,00920.55272,E,0.010,,080225,,,A,V*13
$GNGGA,000037.00,4843.26095,N,00920.55272,E,1,12,0.49,245.5,M,47.6,M,,*44
$GPGSV,3,1,12,01,23,146,50,02,17,154,42,03,54,082,48,04,82,155,34,1*6D
$GPGSV,3,2,12,06,40,308,,07,02,179,,09,54,222,38,11,07,315,,1*64
$GPGSV,3,3,12,17,24,233,39,19,32,263,39,28,12,034,,31,26,053,43,1*62
$GLGSV,3,1,10,67,24,052,44,68,70,013,41,69,46,257,34,76,09,008,41,1*7A
$GLGSV,3,2,10,77,19,052,41,78,07,107,47,82,07,168,45,83,46,184,42,1*7E
$GLGSV,3,3,10,84,54,310,,85,07,335,,1*79
$GAGSV,3,1,09,02,01,026,,07,39,055,43,10,10,316,31,12,32,311,31,7*70
$GAGSV,3,2,09,19,33,218,25,25,00,340,,26,36,148,46,29,77,171,36,7*78
$GAGSV,3,3,09,33,79,224,36,7*45
$GBGSV,3,1,11,02,03,100,34,05,19,122,39,06,30,050,40,09,37,065,42,1*79
$GBGSV,3,2,11,16,28,046,41,24,17,101,,25,00,148,,26,16,051,44,1*70
$GBGSV,3,3,11,27,46,283,36,28,44,214,41,30,11,325,,1*42
$GNRMC,000038.00,A,4843.26098,N,00920.55269,E,0.002,,080225,,,A,V*18
$GNGGA,000038.00,4843.26098,N,00920.55269,E,1,12,0.49,245.4,M,47.6,M,,*4D
$GPGSV,3,1,12,01,23,146,51,02,17,154,42,03,54,082,47,04,82,155,34,1*63
$GPGSV,3,2,12,06,40,308,,07,02,179,,09,54,222,38,11,08,315,,1*6B
$GPGSV,3,3,12,17,24,233,39,19,32,263,39,28,12,034,,31,26,053,43,1*62
$GLGSV,3,1,10,67,24,052,44,68,70,013,42,69,46,257,34,76,09,008,42,1*7A
$GLGSV,3,2,10,77,19,052,41,78,07,107,47,82,07,168,45,83,46,184,42,1*7E
$GLGSV,3,3,10,84,54,310,,85,07,335,,1*79
$GAGSV,3,1,09,02,01,026,,07,39,055,43,10,10,316,31,12,32,311,31,7*70
$GAGSV,3,2,09,19,33,218,25,25,00,340,,26,36,148,46,29,77,171,36,7*78
$GAGSV,3,3,09,33,79,224,36,7*45
$GBGSV,3,1,11,02,03,100,34,05,19,122,39,06,30,050,40,09,37,065,42,1*79
$GBGSV,3,2,11,16,28,046,41,24,17,101,,25,00,148,,26,16,051,44,1*70
$GBGSV,3,3,11,27,46,283,37,28,44,214,41,30,11,325,,1*43
$GNRMC,000039.00,A,4843.26100,N,00920.55270,E,0.017,,080225,,,A,V*15
$GNGGA,000039.00,4843.26100,N,00920.55270,E,1,12,0.49,245.3,M,47.6,M,,*43
$GPGSV,3,1,12,01,23,146,51,02,17,154,42,03,54,082,47,04,82,155,34,1*63
$GPGSV,3,2,12,06,40,308,,07,02,179,,09,54,222,38,11,08,315,,1*6B
$GPGSV,3,3,12,17,24,233,39,19,32,263,39,28,12,034,,31,26,053,43,1*62
$GLGSV,3,1,10,67,24,052,44,68,70,013,42,69,46,257,35,76,09,008,43,1*7A
$GLGSV,3,2,10,77,19,052,41,78,07,107,47,82,07,168,45,83,46,184,41,1*7D
$GLGSV,3,3,10,84,54,310,,85,07,335,,1*79
$GAGSV,3,1,09,02,01,026,,07,39,055,43,10,10,316,31,12,32,311,31,7*70
$GAGSV,3,2,09,19,33,218,26,25,00,340,,26,36,148,46,29,77,171,36,7*7B
$GAGSV,3,3,09,33,79,224,36,7*45
$GBGSV,3,1,11,02,03,100,34,05,19,122,39,06,30,050,40,09,37,065,42,1*79
$GBGSV,3,2,11,16,28,046,41,24,17,101,,25,00,148,,26,16,051,45,1*71
$GBGSV,3,3,11,27,46,283,37,28,44,214,41,30,11,325,,1*43
$GNRMC,000040.00,A,4843.26102,N,00920.55269,E,0.008,,080225,,,A,V*1F
$GNGGA,000040.00,4843.26102,N,00920.55269,E,1,12,0.51,245.2,M,47.6,M,,*4F
$GPGSV,3,1,12,01,23,146,51,02,17,154,41,03,54,082,47,04,82,155,33,1*67
$GPGSV,3,2,12,06,40,308,,07,02,179,,09,54,222,38,11,08,315,,1*6B
$GPGSV,3,3,12,17,24,233,40,19,32,263,39,28,12,034,,31,26,053,42,1*6D
$GLGSV,3,1,10,67,24,052,45,68,70,013,42,69,46,257,34,76,09,008,43,1*7A
$GLGSV,3,2,10,77,19,052,41,78,07,107,47,82,07,168,45,83,46,184,41,1*7D
$GLGSV,3,3,10,84,54,310,,85,07,335,,1*79
$GAGSV,3,1,09,02,01,026,,07,39,055,43,10,10,316,30,12,32,311,31,7*71
$GAGSV,3,2,09,19,33,218,25,25,00,340,,26,36,148,46,29,77,171,36,7*78
$GAGSV,3,3,09,33,79,224,37,7*44
$GBGSV,3,1,11,02,03,100,34,05,19,122,38,06,30,050,40,09,37,065,42,1*78
$GBGSV,3,2,11,16,28,046,41,24,17,101,,25,00,148,,26,16,051,45,1*71
$GBGSV,3,3,11,27,46,283,37,28,44,214,41,30,1,325,,1*43
$GNRMC,000041.00,A,4843.26104,N,00920.55269,E,0.005,,080225,,,A,V*15
$GNGGA,000041.00,4843.26104,N,00920.55269,E,1,12,0.49,245.1,M,47.6,M,,*42
$GPGSV,3,1,12,01,23,146,51,02,17,154,41,03,54,082,47,04,82,155,33,1*67
$GPGSV,3,2,12,06,40,308,,07,02,179,,09,54,222,38,11,08,315,,1*6B
$GPGSV,3,3,12,17,24,233,40,19,32,263,39,28,12,034,,31,26,053,42,1*6D
$GLGSV,3,1,10,67,24,052,45,68,70,013,42,69,46,257,34,76,09,008,43,1*7A
$GLGSV,3,2,10,77,19,052,42,78,07,107,46,82,07,168,45,83,46,184,41,1*7F
$GLGSV,3,3,10,84,54,310,,85,07,335,,1*79
$GAGSV,3,1,09,02,01,026,,07,39,055,43,10,10,316,30,12,32,311,31,7*71
$GAGSV,3,2,09,19,33,218,25,25,00,340,,26,36,148,46,29,77,171,36,7*78
$GAGSV,3,3,09,33,79,224,37,7*44
$GBGSV,3,1,11,02,03,100,34,05,19,122,39,06,30,050,40,09,37,065,42,1*79
$GBGSV,3,2,11,16,28,046,41,24,17,101,,25,00,148,,26,16,051,45,1*71
$GBGSV,3,3,11,27,46,283,37,28,44,214,41,30,11,325,,1*43
$GNRMC,000042.00,A,4843.26106,N,00920.55270,E,0.004,,080225,,,A,V*1D
$GNGGA,000042.00,4843.26106,N,00920.55270,E,1,12,0.49,245.1,M,47.6,M,,*4B
$GPGSV,3,1,12,01,23,146,51,02,17,154,40,03,54,082,47,04,82,155,33,1*66
$GPGSV,3,2,12,06,40,308,,07,02,179,,09,54,222,38,11,08,315,,1*6B
$GPGSV,3,3,12,17,24,233,40,19,32,263,39,28,12,034,,31,26,053,42,1*6D
$GLGSV,3,1,10,67,24,052,45,68,70,013,42,69,46,257,34,76,09,008,42,1*7B
$GLGSV,3,2,10,77,19,052,42,78,07,107,46,82,07,168,45,83,46,184,41,1*7F
$GLGSV,3,3,10,84,54,310,,85,07,335,,1*79
$GAGSV,3,1,09,02,01,026,,07,39,055,43,10,10,316,30,12,32,311,31,7*71
$GAGSV,3,2,09,19,33,218,25,25,00,340,,26,36,148,46,29,77,171,36,7*78
$GAGSV,3,3,09,33,79,224,37,7*44
$GBGSV,3,1,11,02,03,100,34,05,19,122,39,06,30,050,40,09,37,065,42,1*79
$GBGSV,3,2,11,16,28,046,40,24,17,101,,25,00,148,,26,16,051,45,1*70
$GBGSV,3,3,11,27,46,283,37,28,44,214,41,30,11,325,,1*43
$GNRMC,000043.00,A,4843.26109,N,00920.55271,E,0.018,,080225,,,A,V*1F
$GNGGA,000043.00,4843.26109,N,00920.55271,E,1,12,0.49,245.1,M,47.6,M,,*44
$GPGSV,3,1,12,01,23,146,51,02,17,154,40,03,54,082,47,04,82,155,32,1*67
$GPGSV,3,2,12,06,40,308,,07,02,179,,09,54,222,37,11,08,315,,1*64
$GPGSV,3,3,12,17,24,233,40,19,32,263,38,28,12,034,,31,26,053,42,1*6C
$GLGSV,3,1,10,67,24,052,45,68,70,013,42,69,46,257,34,76,09,008,42,1*7B
$GLGSV,3,2,10,77,19,052,41,78,07,107,46,82,07,168,45,83,46,184,41,1*7C
$GLGSV,3,3,10,84,54,310,,85,07,335,,1*79
$GAGSV,3,1,09,02,01,026,,07,39,055,43,10,10,316,30,12,32,311,31,7*71
$GAGSV,3,2,09,19,33,218,25,25,00,340,,26,36,148,46,29,77,171,36,7*78
$GAGSV,3,3,09,33,79,224,37,7*44
$GBGSV,3,1,11,02,03,100,34,05,19,122,38,06,30,050,40,09,37,065,42,1*78
$GBGSV,3,2,11,16,28,046,40,24,17,101,,25,00,148,,26,16,051,45,1*70
$GBGSV,3,3,11,27,46,283,37,28,44,214,41,30,11,325,,1*43
$GNRMC,000044.00,A,4843.26111,N,00920.55271,E,0.003,,080225,,,A,V*1B
$GNGGA,000044.00,4843.26111,N,00920.55271,E,1,12,0.49,245.1,M,47.6,M,,*4A
$GPGSV,3,1,12,01,23,146,51,02,17,154,40,03,54,082,47,04,82,155,32,1*67
$GPGSV,3,2,12,06,40,308,,07,02,179,,09,54,222,37,11,08,315,,1*64
$GLGSV,3,1,10,67,24,052,45,68,70,013,42,69,46,257,33,76,09,008,42,1*7C
$GLGSV,3,2,10,77,19,052,41,78,07,107,46,82,07,168,45,83,46,184,41,1*7C
$GLGSV,3,3,10,84,54,310,,85,07,335,,1*79
$GAGSV,3,1,09,02,01,026,,07,39,055,43,10,10,316,30,12,32,311,31,7*71
$GAGSV,3,2,09,19,33,218,26,25,00,340,,26,36,148,46,29,77,171,35,7*78
$GAGSV,3,3,09,33,79,224,37,7*44
$GBGSV,3,1,11,02,03,100,34,05,19,122,39,06,30,050,40,09,37,065,42,1*79
$GBGSV,3,2,11,16,28,046,41,24,17,101,,25,00,148,,26,16,051,45,1*71
$GBGSV,3,3,11,27,46,283,38,28,44,214,41,30,11,325,,1*4C
$GNRMC,000045.00,A,4843.26112,N,00920.55271,E,0.042,,080225,,,A,V*1C
$GNGGA,000045.00,4843.26112,N,00920.55271,E,1,12,0.51,245.1,M,47.6,M,,*41
$GPGSV,3,1,12,01,23,146,51,02,17,154,40,03,54,082,47,04,82,155,31,1*64
$GPGSV,3,2,12,06,40,308,,07,02,179,,09,54,222,37,11,08,315,,1*64
$GPGSV,3,3,12,17,24,233,41,19,32,263,38,28,12,034,,31,26,053,42,1*6D
$GLGSV,3,1,10,67,24,052,45,68,70,013,42,69,46,257,32,76,09,008,42,1*7D
$GLGSV,3,2,10,77,19,052,41,78,07,107,46,82,07,168,45,83,46,184,41,1*7C
$GLGSV,3,3,10,84,54,310,,85,07,335,,1*79
$GAGSV,3,1,09,02,01,026,,07,39,055,43,10,10,316,30,12,32,311,31,7*71
$GAGSV,3,2,09,19,33,218,26,25,00,340,,26,36,148,46,29,77,171,35,7*78
$GAGSV,3,3,09,33,79,224,37,7*44
$GBGSV,3,1,11,02,03,100,34,05,19,122,39,06,30,050,40,09,37,065,42,1*79
$GBGSV,3,2,11,16,28,046,41,24,17,101,,25,00,148,,26,16,051,45,1*71
$GBGSV,3,3,11,27,46,283,38,28,44,214,41,30,11,325,,1*4C
$GNRMC,000046.00,A,4843.26113,N,00920.55272,E,0.026,,080225,,,A,V*1F
$GNGGA,000046.00,4843.26113,N,00920.55272,E,1,12,0.49,245.1,M,47.6,M,,*49
$GPGSV,3,1,12,01,23,146,51,02,17,154,40,03,54,082,47,04,82,155,30,1*65
$GPGSV,3,2,12,06,40,308,,07,02,179,,09,54,222,36,11,08,315,,1*65
$GPGSV,3,3,12,17,24,233,40,19,32,263,38,28,12,034,,31,26,053,42,1*6C
$GLGSV,3,1,10,67,24,052,45,68,70,013,42,69,46,257,31,76,09,008,42,1*7E
$GLGSV,3,2,10,77,19,052,42,78,07,107,46,82,07,168,45,83,46,184,41,1*7F
$GLGSV,3,3,10,84,54,310,,85,07,335,,1*79
$GAGSV,3,1,09,02,01,026,,07,39,055,43,10,10,316,29,12,32,311,31,7*79
$GAGSV,3,2,09,19,33,218,25,25,00,340,,26,36,148,46,29,77,171,35,7*7B
$GAGSV,3,3,09,33,79,224,37,7*44
$GBGSV,3,1,11,02,03,100,34,05,19122,39,06,30,050,40,09,37,065,43,1*78
$GBGSV,3,2,11,16,28,046,41,24,17,101,,25,00,148,,26,16,051,45,1*71
$GBGSV,3,3,11,27,46,283,38,28,44,214,41,30,11,325,,1*4C
$GNRMC,000047.00,A,4843.26113,N,00920.55274,E,0.011,,080225,,,A,V*1C
$GNGGA,000047.00,4843.26113,N,00920.55274,E,1,12,0.49,245.1,M,47.6,M,,*4E
$GPGSV,3,1,12,01,23,146,51,02,17,154,40,03,54,082,47,04,82,155,29,1*6D
$GPGSV,3,2,12,06,40,308,,07,02,179,,09,54,222,36,11,08,315,,1*65
$GPGSV,3,3,12,17,24,233,40,19,32,263,38,28,12,034,,31,26,053,41,1*6F
$GLGSV,3,1,10,67,24,052,44,68,70,013,43,69,46,257,31,76,09,008,42,1*7E
$GLGSV,3,2,10,77,19,052,42,78,07,107,46,82,07,168,46,83,46,184,40,1*7D
$GLGSV,3,3,10,84,54,310,,85,07,335,,1*79
$GAGSV,3,1,09,02,01,026,,07,39,055,43,10,10,316,29,12,32,311,31,7*79
$GAGSV,3,2,09,19,33,218,26,25,00,340,,26,36,148,46,29,77,171,35,7*78
$GAGSV,3,3,09,33,79,224,37,7*44
$GBGSV,3,1,11,02,03,100,34,05,19,122,39,06,30,050,40,09,37,065,42,1*79
$GBGSV,3,2,11,16,28,046,41,24,17,101,,25,00,148,,26,16,051,45,1*71
$GBGSV,3,3,11,27,46,283,38,28,44,214,41,30,11,325,,1*4C
$GNRMC,000048.00,A,4843.26113,N,00920.55277,E,0.009,,080225,,,A,V*19
$GNGGA,000048.00,4843.26113,N,00920.55277,E,1,12,0.49,245.2,M,47.6,M,,*41
$GPGSV,3,1,12,01,23,146,51,02,17,154,39,03,54,082,47,04,82,155,28,1*62
$GPGSV,3,2,12,06,40,308,,07,02,179,,09,54,222,35,11,08,315,,1*66
$GPGSV,3,3,12,17,24,233,41,19,32,263,38,28,12,034,,31,26,053,41,1*6E
$GLGSV,3,1,10,67,24,052,44,68,70,013,43,69,46,257,31,76,09,008,43,1*7F
$GLGSV,3,2,10,77,19,052,43,78,07,107,47,82,07,168,46,83,46,184,41,1*7C
$GLGSV,3,3,10,84,54,310,,85,07,335,,1*79
$GAGSV,3,1,09,02,01,026,,07,39,055,43,10,10,316,30,12,32,311,31,7*71
$GAGSV,3,2,09,19,33,218,25,25,00,340,,26,36,148,46,29,77,171,35,7*7B
$GAGSV,3,3,09,33,79,224,37,7*44
$GBGSV,3,1,11,02,03,100,34,05,19,122,39,06,30,050,40,09,37,065,42,1*79
$GBGSV,3,2,11,16,28,046,41,24,17,101,,25,00,148,,26,16,051,45,1*71
$GBGSV,3,3,11,27,46,283,38,28,44,214,40,30,11,325,,1*4D
$GNRMC,000049.00,A,4843.26112,N,00920.55281,E,0.020,,080225,,,A,V*1B
$GNGGA,000049.00,4843.26112,N,00920.55281,E,1,12,0.49,245.2,M,47.6,M,,*48
$GPGSV,3,1,12,01,23,146,51,02,17,154,39,03,54,082,47,04,82,155,28,1*62
$GPGSV,3,2,1206,40,308,,07,02,179,,09,54,222,35,11,08,315,,1*66
$GPGSV,3,3,12,17,24,233,41,19,32,263,38,28,12,034,,31,26,053,42,1*6D
$GLGSV,3,1,10,67,24,052,44,68,70,013,43,69,46,257,32,76,09,008,43,1*7C
$GLGSV,3,2,10,77,19,052,43,78,07,107,47,82,07,168,45,83,46,184,41,1*7F
$GLGSV,3,3,10,84,54,310,,85,07,335,,1*79
$GAGSV,3,1,09,02,01,026,,07,39,055,43,10,10,316,29,12,32,311,31,7*79
$GAGSV,3,2,09,19,33,218,26,25,00,340,,26,36,148,46,29,77,171,35,7*78
$GAGSV,3,3,09,33,79,224,37,7*44
$GBGSV,3,1,11,02,03,100,34,05,19,122,39,06,30,050,40,09,37,065,43,1*78
$GBGSV,3,2,11,16,28,046,41,24,17,101,,25,00,148,,26,16,051,45,1*71
$GBGSV,3,3,11,27,46,283,38,28,44,214,40,30,11,325,,1*4D
$GNRMC,000050.00,A,4843.26112,N,00920.55283,E,0.003,,080225,,,A,V*10
$GNGGA,000050.00,4843.26112,N,00920.55283,E,1,12,0.51,245.2,M,47.6,M,,*4B
$GPGSV,3,1,12,01,23,146,51,02,17,154,38,03,54,082,47,04,82,155,27,1*6C
$GPGSV,3,2,12,06,40,308,,07,02,179,,09,54,222,35,11,08,315,,1*66
$GPGSV,3,3,12,17,24,233,41,19,32,263,38,28,12,034,,31,26,053,42,1*6D
$GLGSV,3,1,10,67,24,052,45,68,70,013,43,69,46,257,33,76,09,008,44,1*7B
$GLGSV,3,2,10,77,19,052,43,78,07,107,47,82,07,168,46,83,46,184,41,1*7C
$GLGSV,3,3,10,84,54,310,,85,07,335,,1*79
$GAGSV,3,1,09,02,01,026,,07,39,055,43,10,10,316,29,12,32,311,31,7*79
$GAGSV,3,2,09,19,33,218,26,25,00,340,,26,36,148,46,29,77,171,35,7*78
$GAGSV,3,3,09,33,79,224,37,7*44
$GBGSV,3,1,11,02,03,100,34,05,19,122,39,06,30,050,40,09,37,065,43,1*78
$GBGSV,3,2,11,16,28,046,41,24,17,101,,25,00,148,,26,16,051,45,1*71
$GBGSV,3,3,11,27,46,283,38,28,44,214,40,30,11,325,,1*4D
$GNRMC,000051.00,A,4843.26110,N,00920.55285,E,0.000,,080225,,,A,V*16
$GNGGA,000051.00,4843.26110,N,00920.55285,E,1,12,0.51,245.2,M,47.6,M,,*4E
$GPGSV,3,1,12,01,23,146,51,02,17,154,38,03,54,082,47,04,82,155,26,1*6D
$GPGSV,3,2,12,06,40,308,,07,02,179,,09,54,222,35,11,08,315,,1*66
$GPGSV,3,3,12,17,24,233,40,19,32,263,38,28,12,034,,31,26,053,42,1*6C
$GLGSV,3,1,10,67,24,052,45,68,70,013,43,69,46,257,33,76,09,008,43,1*7C
$GLGSV,3,2,10,77,19,052,43,78,07,107,48,82,07,168,45,83,46,184,41,1*70
$GLGSV,3,3,10,84,54,310,,85,07,335,,1*79
$GAGSV,3,2,09,19,33,218,25,25,00,340,,26,36,148,46,29,77,171,35,7*7B
$GAGSV,3,3,09,33,79,224,38,7*4B
$GBGSV,3,1,11,02,03,100,34,05,19,122,39,06,30,050,40,09,37,065,43,1*78
$GBGSV,3,2,11,16,28,046,41,24,17,101,,25,00,148,,26,16,051,45,1*71
$GBGSV,3,3,11,27,46,283,39,28,44,214,40,30,11,325,,1*4C
$GNRMC,000052.00,A,4843.26109,N,00920.55288,E,0.012,,080225,,,A,V*13
$GNGGA,000052.00,4843.26109,N,00920.55288,E,1,12,0.51,245.2,M,47.6,M,,*48
$GPGSV,3,1,12,01,23,146,51,02,17,154,38,03,54,082,47,04,82,155,26,1*6D
$GPGSV,3,2,12,06,40,308,,07,02,179,,09,54,222,35,11,08,315,,1*66
$GPGSV,3,3,12,17,24,233,40,19,32,263,38,28,12,034,,31,26,053,43,1*6D
$GLGSV,3,1,10,67,24,052,45,68,70,013,43,69,46,257,34,76,09,008,43,1*7B
$GLGSV,3,2,10,77,19,052,43,78,07,107,48,82,07,168,45,83,46,184,41,1*70
$GLGSV,3,3,10,84,54,310,,85,07,335,,1*79
$GAGSV,3,1,09,02,01,026,,07,39,055,43,10,10,316,29,12,32,311,31,7*79
$GAGSV,3,2,09,19,33,218,25,25,00,340,,26,36,148,45,29,77,171,35,7*78
$GAGSV,3,3,09,33,79,224,38,7*4B
$GBGSV,3,1,11,02,03,100,34,05,19,122,39,06,30,050,40,09,37,065,42,1*79
$GBGSV,3,2,11,16,28,046,41,24,17,101,,25,00,148,,26,16,051,45,1*71
$GBGSV,3,3,11,27,46,283,39,28,44,214,40,30,11,325,,1*4C
$GNRMC,000053.00,A,4843.26108,N,00920.55290,E,0.033,,080225,,,A,V*19
$GNGGA,000053.00,4843.26108,N,00920.55290,E,1,12,0.51,245.,M,47.6,M,,*41
$GPGSV,3,1,12,01,23,146,51,02,17,154,38,03,54,082,47,04,82,155,25,1*6E
$GPGSV,3,2,12,06,40,308,,07,02,179,,09,54,222,35,11,08,315,,1*66
$GPGSV,3,3,12,17,24,233,40,19,32,263,38,28,12,034,,31,26,053,43,1*6D
$GLGSV,3,1,10,67,24,052,44,68,70,013,42,69,46,257,34,76,09,008,42,1*7A
$GLGSV,3,2,10,77,19,052,43,78,07,107,48,82,07,168,45,83,46,184,41,1*70
$GLGSV,3,3,10,84,54,310,,85,07,335,,1*79
$GAGSV,3,1,09,02,01,026,,07,39,055,43,10,10,316,29,12,32,311,31,7*79
$GAGSV,3,2,09,19,33,218,24,25,00,340,,26,36,148,45,29,77,171,35,7*79
$GAGSV,3,3,09,33,79,224,38,7*4B
$GBGSV,3,1,11,02,03,100,34,05,19,122,39,06,30,050,40,09,37,065,42,1*79
$GBGSV,3,2,11,16,28,046,41,24,17,101,,25,00,148,,26,16,051,44,1*70
$GBGSV,3,3,11,27,46,283,39,28,44,214,40,30,11,325,,1*4C
$GNRMC,000054.00,A,4843.26107,N,00920.55291,E,0.015,,080225,,,A,V*14
$GNGGA,000054.00,4843.26107,N,00920.55291,E,1,12,0.51,245.3,M,47.6,M,,*49
$GPGSV,3,1,12,01,23,146,51,02,17,154,38,03,54,082,47,04,82,155,24,1*6F
$GPGSV,3,2,12,06,40,308,,07,02,179,,09,54,222,34,11,08,315,,1*67
$GPGSV,3,3,12,17,24,233,40,19,32,263,38,28,12,034,,31,26,053,43,1*6D
$GLGSV,3,1,10,67,24,052,44,68,70,013,42,69,46,257,34,76,09,008,42,1*7A
$GLGSV,3,2,10,77,19,052,43,78,07,107,48,82,07,168,45,83,46,184,41,1*70
$GLGSV,3,3,10,84,54,310,,85,07,335,,1*79
$GAGSV,3,1,09,02,01,026,,07,39,055,44,10,10,316,29,12,32,311,31,7*7E
$GAGSV,3,2,09,19,33,218,25,25,00,340,,26,36,148,45,29,77,171,36,7*7B
$GAGSV,3,3,09,33,79,224,38,7*4B
$GBGSV,3,1,11,02,03,100,34,05,19,122,39,06,30,050,40,09,37,065,42,1*79
$GBGSV,3,2,11,16,28,046,41,24,17,101,,25,00,148,,26,16,051,44,1*70
$GBGSV,3,3,11,27,46,283,38,28,44,214,41,30,11,325,,1*4C
$GNRMC,000055.00,A,4843.26105,N,00920.55292,E,0.008,,080225,,,A,V*18
$GNGGA,000055.00,4843.26105,N,00920.55292,E,1,12,0.49,245.3,M,47.6,M,,*40
$GPGSV,3,1,12,01,23,146,51,02,17,154,37,03,54,082,47,04,82,155,24,1*60
$GPGSV,3,2,12,06,40,308,,07,02,179,,09,54,222,33,11,08,315,,1*60
$GPGSV,3,3,12,17,24,233,40,19,32,263,38,28,12,034,,31,26,053,43,1*6D
$GLGSV,3,1,10,67,24,052,44,68,70,013,42,69,46,257,35,76,09,008,42,1*7B
$GLGSV,3,2,10,77,19,052,43,78,07,107,48,82,07,168,45,83,46,184,42,1*73
$GLGSV,3,3,10,84,54,310,,85,07,335,,1*79
$GAGSV,3,1,09,02,01,026,,07,39,055,44,10,10,316,29,12,32,311,31,7*7E
$GAGSV,3,2,09,19,33,218,26,25,00,340,,26,36,148,45,29,77,171,36,7*78
$GAGSV,3,3,09,33,79,224,38,7*4B
$GBGSV,3,1,11,02,03,100,34,05,19,122,39,06,30,050,40,09,37,065,43,1*78
$GBGSV,3,2,11,16,28,046,41,24,17,101,,25,00,148,,26,16,051,44,1*70
$GBGSV,3,3,11,27,46,283,39,28,44,214,41,30,11,325,,1*4D
$GNRMC,000056.00,A,4843.26104,N,00920.55292,E,0.010,,080225,,,A,V*13
$GNGGA,000056.00,4843.26104,N,00920.55292,E,1,12,0.50,245.3,M,47.6,M,,*4A
$GPGSV,3,1,12,01,23,146,51,02,17,154,37,03,54,082,47,04,82,155,24,1*60
$GPGSV,3,2,12,06,40,308,,07,02,179,,09,54,222,33,11,08,315,,1*60
$GPGSV,3,3,12,17,24,233,40,19,32,263,38,28,12,034,,31,26,053,43,1*6D
$GLGSV,3,1,10,67,24,052,44,68,70,013,42,69,46,257,36,76,09,008,43,1*79
$GLGSV,3,2,10,77,19,052,43,78,07,107,48,82,07,168,45,83,46,184,41,1*70
$GLGSV,3,3,10,84,54,310,,85,07,335,,1*79
$GAGSV,3,1,09,02,01,026,,07,39,055,44,10,10,316,29,12,32,311,31,7*7E
$GAGSV,3,2,09,19,33,218,25,25,00,340,,26,36,148,45,29,77,171,36,7*7B
$GAGSV,3,3,09,33,79,224,38,7*4B
$GBGSV,3,1,11,02,03,100,34,05,19,122,38,06,30,050,40,09,37,065,42,1*78
$GBGSV,3,2,11,16,28,046,41,24,17,101,,25,00,148,,26,16,051,44,1*70
$GBGSV,3,3,11,27,46,283,39,28,44,214,41,30,11,325,,1*4D
$GNRMC,000057.00,A,4843.26103,N,00920.55293,E,0.014,,080225,,,A,V*10
$GNGGA,000057.00,4843.26103,N,00920.55293,E,1,12,0.49,245.3,M,47.6,M,,*45
$GPGSV,3,1,12,01,23,146,50,02,17,154,35,03,54,082,47,04,82,155,23,1*64
$GPGSV,3,2,12,06,40,308,,07,02,179,,09,54,222,33,11,08,315,,1*60
$GPGSV,3,3,12,17,24,233,40,19,32,263,38,28,12,034,,31,26,053,44,1*6A
$GLGSV,3,1,10,67,24,052,44,68,70,013,41,69,46,257,38,76,09,008,42,1*75
$GLGSV,3,2,10,77,19,052,43,78,07,107,48,82,07,168,45,83,46,184,41,1*70
$GLGSV,3,3,10,84,54,310,,85,07,335,,1*79
$GAGSV,3,1,09,02,01,026,,07,39,055,44,10,10,316,30,12,32,311,31,7*76
$GAGSV,3,2,09,19,33,218,25,25,00,340,,26,36,148,45,29,77,171,36,7*7B
$GAGSV,3,3,09,33,79,224,38,7*4B
$GBGSV,3,1,11,02,03,100,34,05,19,122,39,06,30,050,40,09,37,065,42,1*79
$GBGSV,3,2,11,16,28,046,41,24,17,101,,25,00,148,,26,16,051,44,1*70
$GBGSV,3,3,11,27,46,283,39,28,44,214,41,30,11,325,,1*4D
$GNRMC,000058.00,A,4843.26102,N,00920.55296,E,0.022,,080225,,,A,V*1E
$GNGGA,000058.00,4843.26102,N,00920.55296,E,1,12,0.49,245.3,M,47.6,M,,*4E
$GPGSV,3,1,12,01,23,146,51,02,17,154,36,03,54,082,47,04,82,155,24,1*61
$GPGSV,3,2,12,06,40,308,,07,02,179,,09,54,222,33,11,08,315,,1*60
$GPGSV,3,3,12,17,24,233,40,19,32,263,38,28,12,034,,31,26,053,43,1*6D
$GLGSV,3,1,10,67,24,052,44,68,70,013,41,69,46,257,35,76,09,008,41,1*7B
$GLGSV,3,2,10,77,19,052,43,78,07,107,48,82,07,168,45,83,46,184,41,1*70
$GLGSV,3,3,10,84,54,310,,85,07,335,,1*79
$GAGSV,3,1,09,02,01,026,,07,39,055,44,10,10,316,29,12,32,311,31,7*7E
$GAGSV,3,2,09,19,33,218,24,25,00,340,,26,36,148,45,29,77,171,36,7*7A
$GAGSV,3,3,09,33,79,224,38,7*4B
$GBGSV,3,1,11,02,03,100,34,05,19,122,39,06,30,050,40,09,37,065,43,1*78
$GBGSV,3,2,11,16,28,046,40,24,17,101,,25,00,148,,26,16,051,44,1*71
$GBGSV,3,3,11,27,46,283,38,28,44,214,41,30,11,325,,1*4C
$GNRMC,000059.00,A,4843.26101,N,00920.55297,E,0.030,,080225,,,A,V*1E
$GNGGA,000059.00,4843.26101,N,00920.55297,E,1,12,0.51,245.3,M,47.6,M,,*44
$GPGSV,3,1,12,01,23,146,51,02,17,154,36,03,54,082,47,04,82,155,25,1*60
$GPGSV,3,2,12,06,40,308,,07,02,179,,09,54,222,33,11,08,315,,1*60
$GPGSV,3,3,12,17,24,233,40,19,32,263,39,28,12,034,,31,26,053,43,1*6C
$GLGSV,3,1,10,67,24,052,44,68,70,013,41,69,46,257,35,76,09,008,39,1*74
$GLGSV,3,2,10,77,19,052,44,78,07,107,48,82,07,168,45,83,46,184,41,1*77
$GLGSV,3,3,10,84,54,310,,85,07,335,,1*79
$GAGSV,3,1,09,02,01,026,,07,39,055,44,10,10,316,28,12,32,311,31,7*7F
$GAGSV,3,2,09,19,33,218,24,25,00,340,,26,36,148,45,29,77,171,36,7*7A
$GAGSV,3,3,09,33,79,224,38,7*4B
$GBGSV,3,1,11,02,03,100,34,05,19,122,39,06,30,050,40,09,37,065,43,1*78
$GBGSV,3,2,11,16,28,046,41,24,17,101,,25,00,148,,26,16,051,44,1*70
$GBGSV,3,3,11,27,46,283,38,28,44,214,41,30,11,325,,1*4C
$GNRMC,000100.00,A,4843.26099,N,00920.55298,E,0.017,,080225,,,A,V*19
$GNGGA,000100.00,4843.26099,N,00920.55298,E,1,12,0.51,245.3,M,47.6,M,,*46
$GPGSV,3,1,12,01,23,146,50,02,17,154,37,03,54,082,47,04,82,155,25,1*60
$GPGSV,3,2,12,06,40,308,,07,02,179,,09,54,222,33,11,08,315,,1*60
$GPGSV,3,3,12,17,24,233,40,19,32,263,38,28,12,034,,31,26,053,43,1*6D
$GLGSV,3,1,10,67,24,052,44,68,70,013,41,69,46,257,36,76,09,008,41,1*78
$GLGSV,3,2,10,77,19,052,44,78,07,107,47,82,07,168,45,83,46,184,41,1*78
$GLGSV,3,3,10,84,54,310,,85,07,335,,1*79
$GAGSV,3,1,09,02,01,026,,07,39,055,44,10,10,316,28,12,32,311,31,7*7F
$GAGSV,3,2,09,19,33,218,23,25,00,340,,26,36,148,45,29,77,171,36,7*7D
$GAGSV,3,3,09,33,79,224,38,7*4B
$GBGSV,3,1,11,02,03,100,34,05,19,122,39,06,30,050,40,09,37,065,43,1*78
$GBGSV,3,2,11,16,28,046,41,24,17,11,,25,00,148,,26,16,051,44,1*70
$GBGSV,3,3,11,27,46,283,38,28,44,214,41,30,11,325,,1*4C
$GNRMC,000101.00,A,4843.26098,N,00920.55298,E,0.017,,080225,,,A,V*19
$GNGGA,000101.00,4843.26098,N,00920.55298,E,1,12,0.56,245.3,M,47.6,M,,*41
$GPGSV,3,1,12,01,23,146,50,02,17,154,37,03,54,082,47,04,82,155,26,1*63
$GPGSV,3,2,12,06,40,308,,07,02,179,,09,54,222,33,11,08,315,,1*60
$GPGSV,3,3,12,17,24,233,39,19,32,263,39,28,12,034,,31,26,053,43,1*62
$GLGSV,3,1,10,67,24,052,44,68,70,013,41,69,46,257,35,76,09,008,41,1*7B
$GLGSV,3,2,10,77,19,052,44,78,07,107,47,82,07,168,45,83,46,184,41,1*78
$GLGSV,3,3,10,84,54,310,,85,07,335,,1*79
$GAGSV,3,1,09,02,01,026,,07,39,055,44,10,10,316,28,12,32,311,31,7*7F
$GAGSV,3,2,09,19,33,218,22,25,00,340,,26,36,148,45,29,77,171,36,7*7C
$GAGSV,3,3,09,33,79,224,38,7*4B
$GBGSV,3,1,11,02,03,100,34,05,19,122,39,06,30,050,40,09,37,065,43,1*78
$GBGSV,3,2,11,16,28,046,41,24,17,101,,25,00,148,,26,16,051,44,1*70
$GBGSV,3,3,11,27,46,283,38,28,44,214,42,30,11,325,,1*4F
$GNRMC,000102.00,A,4843.26096,N,00920.55298,E,0.029,,080225,,,A,V*19
$GNGGA,000102.00,4843.26096,N,00920.55298,E,1,12,0.56,245.3,M,47.6,M,,*4C
$GPGSV,3,1,12,01,23,146,50,02,17,154,38,03,54,082,47,04,82,155,28,1*62
$GPGSV,3,2,12,06,40,308,,07,02,179,,09,54,222,33,11,08,315,,1*60
$GPGSV,3,3,12,17,24,233,39,19,32,263,39,28,12,034,,31,26,053,43,1*62
$GLGSV,3,1,10,67,24,052,44,68,70,013,40,69,46,257,34,76,09,008,41,1*7B
$GLGSV,3,2,10,77,19,052,44,78,07,107,47,82,07,168,45,83,46,184,41,1*78
$GLGSV,3,3,10,84,54,310,,85,07,335,,1*79
$GAGSV,3,1,09,02,01,026,,07,39,055,44,10,10,316,28,12,32,311,31,7*7F
$GAGSV,3,2,09,19,33,218,22,25,00,340,,26,36,148,44,29,77,171,36,7*7D
$GAGSV,3,3,09,33,79,224,38,7*4B
$GBGSV,3,1,11,02,03,100,34,05,19,122,39,06,30,050,40,09,37,065,43,1*78
$GBGSV,3,2,11,16,28,046,41,24,17,101,,25,00,148,,26,16,051,44,1*70
$GBGSV,3,3,11,27,46,283,38,28,44,214,42,30,11,325,,1*4F
$GNRMC,000103.00,A,4843.26095,N,00920.55297,E,0.006,,080225,,,A,V*19
$GNGGA,000103.00,4843.26095,N,00920.55297,E,1,12,0.56,245.3,M,47.6,M,,*41
$GPGSV,3,1,12,01,23,146,50,02,17,154,38,03,54,082,47,04,82,155,29,1*63
$GPGSV,3,2,12,06,40,308,,07,02,179,,09,54,222,34,11,08,315,,1*67
$GPGSV,3,3,12,17,24,233,39,19,32,263,38,28,12,034,,31,26,053,43,1*63
$GLGSV,3,1,10,67,24,052,44,68,70,013,41,69,46,257,33,76,09,008,42,1*7E
$GLGSV,3,2,10,77,19,052,44,78,07,107,48,82,07,168,45,83,46,184,41,1*77
$GLGSV,3,3,10,84,54,310,,85,07,335,,1*79
$GAGSV,3,1,09,02,01,026,,07,39,055,44,10,10,316,27,12,32,311,31,7*70
$GAGSV,3,2,09,19,33,218,20,25,00,340,,26,36,148,44,29,77,171,37,7*7E
$GAGSV,3,3,09,33,79,224,38,7*4B
$GBGSV,3,1,11,02,03,100,34,05,19,122,39,06,30,050,40,09,37,065,43,1*78
$GBGSV,3,2,11,16,28,046,41,24,17,101,,25,00,148,,26,16,051,44,1*70
$GBGSV,3,3,11,27,46,283,38,28,44,214,42,30,11,325,,1*4F
$GNRMC,000104.00,A,4843.26092,N,00920.55299,E,0.024,,080225,,,A,V*17
$GNGGA,000104.00,4843.26092,N,00920.55299,E,1,12,0.53,245.4,M,47.6,M,,*4D
$GPGSV,3,1,12,01,23,146,50,02,17,154,39,03,54,082,47,04,82,155,30,1*6A
$GPGSV,3,2,12,06,40,308,,07,02,179,,09,54,222,34,11,08,315,,1*67
$GPGSV,3,3,12,17,24,233,39,19,32,263,39,28,12,034,,31,26,053,43,1*62
$GLGSV,3,1,10,67,24,052,44,8,70,013,41,69,46,257,33,76,09,008,42,1*7E
$GLGSV,3,2,10,77,19,052,44,78,07,107,48,82,07,168,45,83,46,184,41,1*77
$GLGSV,3,3,10,84,54,310,,85,07,335,,1*79
$GAGSV,3,1,09,02,01,026,,07,39,055,44,10,10,316,27,12,32,311,31,7*70
$GAGSV,3,2,09,19,33,218,20,25,00,340,,26,36,148,44,29,77,171,37,7*7E
$GAGSV,3,3,09,33,79,224,38,7*4B
$GBGSV,3,1,11,02,03,100,34,05,19,122,39,06,30,050,40,09,37,065,43,1*78
$GBGSV,3,2,11,16,28,046,41,24,17,101,,25,00,148,,26,16,051,44,1*70
$GBGSV,3,,11,27,46,283,38,28,44,214,42,30,11,325,,1*4F
$GNRMC,000105.00,A,4843.26091,N,00920.55301,E,0.019,,080225,,,A,V*1B
$GNGGA,000105.00,4843.26091,N,00920.55301,E,1,12,0.53,245.4,M,47.6,M,,*4F
$GPGSV,3,1,12,01,23,146,50,02,17,154,39,03,54,082,47,04,82,155,31,1*6B
$GPGSV,3,2,12,06,40,308,,07,02,179,,09,54,222,34,11,08,315,,1*67
$GPGSV,3,3,12,17,24,233,39,19,32,263,39,28,12,034,,31,26,053,43,1*62
$GLGSV,3,1,10,67,24,052,43,68,70,013,41,69,46,257,33,76,09,008,41,1*7A
$GLGSV,3,2,10,77,19,052,44,78,07,107,48,82,07,168,45,83,46,184,42,1*74
$GLGSV,3,3,10,84,54,310,,85,07,335,,1*79
$GAGSV,3,1,09,02,01,026,,07,39,055,44,10,10,316,27,12,32,311,31,7*70
$GAGSV,3,2,09,19,33,218,21,25,00,340,,26,36,148,44,29,77,171,37,7*7F
$GAGSV,3,3,09,33,79,224,38,7*4B
$GBGSV,3,1,11,02,03,100,34,05,19,122,39,06,30,050,40,09,37,065,42,1*79
$GBGSV,3,2,11,16,28,046,41,24,17,101,,25,00,148,,26,16,051,44,1*70
$GBGSV,3,3,11,27,46,283,38,28,44,214,42,30,11,325,,1*4F
$GNRMC,000106.00,A,4843.26089,N,00920.55303,E,0.024,,080225,,,A,V*1D
$GNGGA,000106.00,4843.26089,N,00920.55303,E,1,12,0.52,245.4,M,47.6,M,,*46
$GPGSV,3,1,12,01,23,146,50,02,17,154,39,03,54,082,47,04,82,155,31,1*6B
$GPGSV,3,2,12,06,40,308,,07,02,179,,09,54,222,34,11,08,315,,1*67
$GPGSV,3,3,12,17,24,233,38,19,32,263,39,28,12,034,,31,26,053,43,1*63
$GLGSV,3,1,10,67,24,052,42,68,70,013,41,69,46,257,34,76,09,008,40,1*7D
$GLGSV,3,2,10,77,19,052,44,78,07,107,48,82,07,168,45,83,46,184,42,1*74
$GLGSV,3,3,10,84,54,310,,85,07,335,,1*79
$GAGSV,3,1,09,02,01,026,,07,39,055,44,10,10,316,27,12,32,311,31,7*70
$GAGSV,3,2,09,19,33,218,23,25,00,340,,26,36,148,44,29,77,171,37,7*7D
$GAGSV,3,3,09,33,79,224,38,7*4B
$GBGSV,3,1,11,02,03,100,34,05,19,122,39,06,30,050,40,09,37,065,42,1*79
$GBGSV,3,2,11,16,28,046,41,24,17,101,,25,00,148,,26,16,051,44,1*70
$GBGSV,3,3,11,27,46,283,38,28,44,214,42,30,11,325,,1*4F
$GNGGA,000107.00,4843.26088,N,00920.55306,E,1,12,0.48,245.5,M,47.6,M,,*49
$GPGSV,3,1,12,01,23,146,50,02,17,154,40,03,54,082,48,04,82,155,32,1*69
$GPGSV,3,2,12,06,40,308,,07,02,179,,09,54,222,35,11,08,315,,1*66
$GPGSV,3,3,12,17,24,233,37,19,32,263,39,28,12,034,,31,26,053,43,1*6C
$GLGSV,3,1,10,67,24,052,42,68,70,013,42,69,46,257,34,76,09,008,40,1*7E
$GLGSV,3,2,10,77,19,052,44,78,07,107,48,82,07,168,45,83,46,184,42,1*74
$GLGSV,3,3,10,84,54,310,,85,07,335,,1*79
$GAGSV,3,1,09,02,01,026,,07,39,055,44,10,10,316,26,12,32,311,31,7*71
$GAGSV,3,2,09,19,33,218,25,25,00,340,,26,36,148,44,29,77,171,37,7*7B
$GAGSV,3,3,09,33,79,224,38,7*4B
$GBGSV,3,1,11,02,03,100,34,05,19,122,39,06,30,050,40,09,37,065,43,1*78
$GBGSV,3,2,11,16,28,046,41,24,17,101,,25,00,148,,26,16,051,44,1*70
$GBGSV,3,3,11,27,46,283,38,28,44,214,42,30,11,325,,1*4F
$GNRMC,000108.00,A,4843.26088,N,00920.55306,E,0.006,,080225,,,A,V*17
$GNGGA,000108.00,4843.26088,N,00920.55306,E,1,12,0.50,245.4,M,47.6,M,,*4E
$GPGSV,3,1,12,01,23,146,50,02,17,154,40,03,54,082,48,04,82,155,32,1*69
$GPGSV,3,2,12,06,40,308,,07,02,179,,09,54,222,36,11,08,315,,1*65
$GPGSV,3,3,12,17,24,233,37,19,32,263,39,28,12,034,,31,26,053,43,1*6C
$GLGSV,3,1,10,67,24,052,42,68,70,013,42,69,46,257,35,76,09,008,40,1*7F
$GLGSV,3,2,10,77,19,052,44,78,07,107,48,82,07,168,44,83,46,184,42,1*75
$GLGSV,3,3,10,84,54,310,,85,07,335,,1*79
$GAGSV,3,1,09,02,01,026,,07,39,055,44,10,10,316,26,12,32,311,31,7*71
$GAGSV,3,2,09,19,33,218,27,25,00,340,,26,36,148,44,29,77,171,37,7*79
$GAGSV,3,3,09,33,79,224,38,7*4B
$GBGSV,3,1,11,02,03,100,34,05,19,122,38,06,30,050,40,09,37,065,43,1*79
$GBGSV,3,2,11,16,28,046,40,24,17,101,,25,00,148,,26,16,051,44,1*71
$GBGSV,3,3,11,27,46,283,38,28,44,214,42,30,11,325,,1*4F
$GNRMC,000109.00,A,4843.26088,N,00920.55307,E,0.015,,080225,,,A,V*15
$GNGGA,000109.00,4843.26088,N,00920.55307,E,1,12,0.50,245.4,M,47.6,M,,*4E
$GPGSV,3,1,12,01,23,146,50,02,17,154,40,03,54,082,48,04,82,155,33,1*68
$GPGSV,3,2,12,06,40,308,,07,02,179,,09,54,222,36,11,08,315,,1*65
$GPGSV,3,3,12,17,24,233,37,19,32,263,40,28,12,034,,31,26,053,43,1*62
$GLGSV,3,1,10,67,24,052,42,68,70,013,42,69,46,257,35,76,09,008,41,1*7E
$GLGSV,3,2,10,77,19,052,43,78,07,107,48,82,07,168,44,83,46,184,42,1*72
$GLGSV,3,3,10,84,54,310,,85,07,335,,1*79
$GAGSV,3,1,09,02,01,026,,07,39,055,44,10,10,316,26,12,32,311,31,7*71
$GAGSV,3,2,09,19,33,218,28,25,00,340,,26,36,148,44,29,77,171,37,7*76
$GAGSV,3,3,09,33,79,224,38,7*4B
$GBGSV,3,1,11,02,03,100,34,05,19,122,38,06,30,050,40,09,37,065,43,1*79
$GBGSV,3,2,11,16,28,046,40,24,17,101,,25,00,148,,26,16,051,44,1*71
$GBGSV,3,3,11,27,46,283,38,28,44,214,42,30,11,325,,1*4F
$GNRMC,000110.00,A,4843.26087,N,00920.55308,E,0.008,,080225,,,A,V*11
$GNGGA,000110.00,4843.26087,N,00920.55308,E,1,12,0.50,245.3,M,47.6,M,,*41
$GPGSV,3,1,12,01,23,146,49,02,17,154,41,03,54,082,48,04,82,155,34,1*66
$GPGSV,3,2,12,06,40,308,,07,02,179,,09,54,222,36,11,08,315,,1*65
$GPGSV,3,3,12,17,24,233,37,19,32,263,40,28,12,034,,31,26,053,43,1*62
$GLGSV,3,1,10,67,24,052,42,68,70,013,42,69,46,257,35,76,09,008,41,1*7E
$GLGSV,3,2,10,77,19,052,43,78,07,107,48,82,07,168,44,83,46,184,43,1*73
$GLGSV,3,3,10,84,54,310,,85,07,335,,1*79
$GAGSV,3,1,09,02,01,026,,07,39,055,44,10,10,316,26,12,32,311,31,7*71
$GAGSV,3,2,09,19,33,218,29,25,00,340,,26,36,148,44,29,77,171,37,7*77
$GAGSV,3,3,09,33,79,224,38,7*4B
$GBGSV,3,1,11,02,03,100,34,05,19,122,39,06,30,050,40,09,37,065,43,1*78
$GBGSV,3,2,11,16,28,046,40,24,17,101,,25,00,148,,26,16,051,44,1*71
$GBGSV,3,3,11,27,46,283,38,28,44,214,42,30,11,325,,1*4F
$GNRMC,000111.00,A,4843.26086,N,00920.55310,E,0.021,,080225,,,A,V*13
$GNGGA,000111.00,4843.26086,N,00920.55310,E,1,12,0.50,245.3,M,47.6,M,,*48
$GPGSV,3,1,12,01,23,146,49,02,17,154,41,03,54,082,48,04,82,155,34,1*66
$GPGSV,3,2,12,06,40,308,,07,02,179,,09,54,222,37,11,08,315,,1*64
$GPGSV,3,3,12,17,24,233,36,19,32,263,40,28,12,034,,31,26,053,43,1*63
$GLGSV,3,1,10,67,24,052,42,68,70,013,43,69,46,257,35,76,09,008,41,1*7F
$GLGSV,3,2,10,77,19,052,42,78,07,107,48,82,07,168,44,83,46,184,43,1*72
$GLGSV,3,3,10,84,54,310,,85,07,335,,1*79
$GAGSV,3,1,09,02,01,026,,07,39,055,44,10,10,316,26,12,33,311,31,7*70
$GAGSV,3,2,09,19,33,218,29,25,00,340,,26,36,148,44,29,78,170,37,7*79
$GAGSV,3,3,09,33,79,221,38,7*4E
$GBGSV,3,1,11,02,03,100,34,05,19,122,39,06,30,050,40,09,37,065,43,1*78
$GBGSV,3,2,11,16,28,046,40,24,17,101,,25,00,148,,26,16,051,44,1*71
$GBGSV,3,3,11,27,46,283,38,28,44,214,42,30,11,325,,1*4F
$GNRMC,000112.00,A,4843.26086,N,00920.55311,E,0.047,,080225,,,A,V*11
$GNGGA,000112.00,4843.26086,N,00920.55311,E,1,12,0.50,245.2,M,47.6,M,,*4B
$GPGSV,3,1,12,01,23,146,49,02,17,154,41,03,54,082,48,04,82,155,35,1*67
$GPGSV,3,2,12,06,40,308,,07,02,179,,09,54,222,37,11,08,315,,1*64
$GPGSV,3,3,12,17,24,233,36,19,32,263,40,28,12,034,,31,26,053,42,1*62
$GLGSV,3,1,10,67,24,052,42,68,70,013,43,69,46,257,34,76,09,008,42,1*7D
$GLGSV,3,2,10,77,19,052,42,78,07,107,48,82,07,168,44,83,46,184,43,1*72
$GLGSV,3,3,10,84,54,310,,85,07,335,,1*79
