$GNRMC,100000.00,A,4843.26126,N,00920.55506,E,0.013,,080225,,,A,V*18
$GNGGA,100000.00,4843.26126,N,00920.55506,E,1,12,0.45,253.2,M,47.6,M,,*40
$GPGSV,3,1,11,06,18,087,43,10,05,271,,11,09,118,,12,80,275,30,1*68
$GPGSV,3,2,11,15,07,181,38,17,07,036,31,19,32,051,47,24,62,134,43,1*6E
$GPGSV,3,3,11,25,39,258,29,29,02,200,,32,29,309,41,1*53
$GLGSV,3,1,10,65,29,228,36,66,41,292,37,67,12,341,37,74,15,080,41,1*7C
$GLGSV,3,2,10,75,62,043,47,76,41,290,41,77,00,273,,84,32,047,39,1*72
$GLGSV,3,3,10,85,35,112,46,86,03,157,,1*7C
$GAGSV,3,1,11,03,18,320,31,05,53,271,,06,18,175,39,09,37,191,43,7*7A
$GAGSV,3,3,11,26,14,043,35,31,59,061,42,33,15,092,44,7*43
$GBGSV,3,1,09,05,15,124,41,07,11,049,,10,23,054,39,19,15,219,37,1*7D
$GBGSV,3,2,09,21,15,324,,22,29,272,31,27,41,098,45,28,24,048,46,1*70
$GBGSV,3,3,09,30,25,157,50,1*4D
$GNRMC,100001.00,A,4843.26125,N,00920.55506,E,0.026,,080225,,,A,V*1C
$GNGGA,100001.00,4843.26125,N,00920.55506,E,1,12,0.45,253.2,M,47.6,M,,*42
$GPGSV,3,1,11,06,18,087,43,10,05,271,,11,09,118,,12,80,275,31,1*69
$GPGSV,3,2,11,15,07,181,38,17,07,036,1,19,32,051,47,24,62,134,45,1*68
$GPGSV,3,3,11,25,39,258,29,29,02,200,,32,29,309,40,1*52
$GLGSV,3,1,10,65,29,228,36,66,41,292,37,67,12,341,37,74,15,080,41,1*7C
$GLGSV,3,2,10,75,62,043,44,76,41,290,42,77,00,273,,84,32,047,38,1*73
$GLGSV,3,3,10,85,35,112,46,86,03,157,,1*7C
$GAGSV,3,1,11,03,18,320,31,05,53,271,,06,18,175,39,09,37,191,42,7*7B
$GAGSV,3,2,11,16,36,252,,23,09,067,,24,63,256,35,25,12,249,32,7*72
$GAGSV,3,3,11,26,14,043,35,31,59,061,43,33,15,092,44,7*42
$GBGSV,3,1,09,05,15,124,41,07,11,049,,10,23,054,39,19,15,219,37,1*7D
$GBGSV,3,2,09,21,15,324,,22,29,272,31,27,41,098,46,28,24,048,46,1*73
$GBGSV,3,3,09,30,25,157,50,1*4D
$GNRMC,100002.00,A,4843.26124,N,00920.55506,E,0.012,,080225,,,A,V*19
$GNGGA,100002.00,4843.26124,N,00920.55506,E,1,12,0.45,253.3,M,47.6,M,,*41
$GPGSV,3,1,1106,18,086,43,10,05,271,,11,09,118,,12,80,275,30,1*69
$GPGSV,3,2,11,15,06,181,38,17,07,036,32,19,32,051,47,24,62,134,44,1*6B
$GPGSV,3,3,11,25,39,258,29,29,02,200,,32,30,309,42,1*58
$GLGSV,3,1,10,65,29,228,35,66,41,292,38,67,12,341,37,74,15,080,41,1*70
$GLGSV,3,2,10,75,62,043,45,76,41,290,40,77,00,273,,84,32,047,38,1*70
$GLGSV,3,3,10,85,35,112,46,86,03,157,,1*7C
$GAGSV,3,1,11,03,18,320,35,05,53,271,,06,18,175,39,09,37,191,43,7*7E
$GAGSV,3,2,11,16,36,252,,23,09,067,,24,63,256,34,25,12,249,33,7*72
$GAGSV,3,3,11,26,14,043,35,31,59,061,43,33,15,092,44,7*42
$GBGSV,3,1,09,05,15,124,41,07,11,049,,10,23,054,39,19,14,218,37,1*7D
$GBGSV,3,2,09,21,15,324,,22,29,272,31,27,41,098,45,28,24,048,46,1*70
$GBGSV,3,3,09,30,25,157,50,1*4D
$GNRMC,100003.00,A,4843.26122,N,00920.55505,E,0.013,,080225,,A,V*1C
$GNGGA,100003.00,4843.26122,N,00920.55505,E,1,12,0.44,253.3,M,47.6,M,,*44
$GPGSV,3,1,11,06,18,086,44,10,05,271,,11,09,118,,12,80,275,31,1*6F
$GPGSV,3,2,11,15,06,181,37,17,07,036,31,19,32,051,47,24,62,134,45,1*66
$GPGSV,3,3,11,25,39,258,29,29,02,200,,32,30,309,41,1*5B
$GLGSV,3,1,10,65,29,228,36,66,41,292,37,67,12,341,38,74,15,080,41,1*73
$GLGSV,3,2,10,75,62,043,44,76,41,290,42,77,00,273,,84,32,047,38,1*73
$GLGSV,3,3,10,85,35,112,46,86,03,157,,1*7C
$GAGSV,3,1,11,03,18,320,31,05,53,271,,06,18,175,39,09,37,191,42,7*7B
$GAGSV,3,2,11,16,36,252,,23,09,067,,24,63,256,35,25,12,249,32,7*72
$GAGSV,3,3,11,26,14,043,35,31,59,061,43,33,15,092,44,7*42
$GBGSV,3,1,09,05,15,124,41,07,11,049,,10,23,054,39,19,14,218,37,1*7D
$GBGSV,3,2,09,21,15,324,,22,29,272,31,27,41,098,45,28,24,048,46,1*70
$GBGSV,3,3,09,30,25,157,50,1*4D
$GNRMC,100004.00,A,4843.26121,N,00920.55503,E,0.022,,080225,,,A,V*1C
$GNGGA,100004.00,4843.26121,N,00920.55503,E,1,12,0.44,253.3,M,47.6,M,,*46
$GPGSV,3,1,11,06,18,086,43,10,05,271,,11,09,118,,12,80,275,31,1*68
$GPGSV,3,2,11,15,06,181,37,17,07,036,31,19,32,051,47,24,62,134,43,1*60
$GPGSV,3,3,11,25,39,258,30,29,02,200,,32,30,309,41,1*53
$GLGSV,3,1,10,65,29,228,35,66,41,292,37,67,12,341,37,74,15,080,40,1*7E
$GLGSV,3,2,10,75,62,043,44,76,41,290,41,77,00,273,,84,32,047,38,1*70
$GLGSV,3,3,10,85,35,112,46,86,03,157,,1*7C
$GAGSV,3,1,11,03,18,320,31,05,53,271,,06,18,175,39,09,37,191,42,7*7B
$GAGSV,3,2,11,16,36,252,,23,09,067,,24,63,256,35,25,12,249,33,7*73
$GAGSV,3,3,11,26,14,043,35,31,59,061,43,33,15,092,45,7*43
$GBGSV,3,1,09,05,15,124,41,07,11,049,,10,23,054,39,19,14,218,36,1*7C
$GBGSV,3,2,09,21,15,324,,22,29,272,31,27,41,098,45,28,24,048,46,1*70
$GBGSV,3,3,09,30,25,157,50,1*4D
$GNRMC,100005.00,A,4843.26119,N,00920.55502,E,0.014,,080225,,,A,V*12
$GNGGA,100005.00,4843.26119,N,00920.55502,E,1,12,0.44,253.3,M,47.6,M,,*4D
$GPGSV,3,1,11,06,18,086,43,10,05,271,,11,09,118,,12,80,275,31,1*68
$GPGSV,3,2,11,15,06,181,37,17,07,036,31,19,32,051,47,24,62,134,43,1*60
$GPGSV,3,3,11,25,39,258,31,29,02,200,,32,30,309,41,1*52
$GLGSV,3,1,10,65,29,228,36,66,41,292,37,67,12,341,38,74,15,080,40,1*72
$GLGSV,3,2,10,75,62,043,44,76,41,290,41,77,00,273,,84,32,047,38,1*70
$GLGSV,3,3,10,85,35,112,46,86,03,157,,1*7C
$GAGSV,3,1,11,03,18,320,31,05,53,271,,06,18,175,39,09,37,191,43,7*7A
$GAGSV,3,2,11,16,36,252,,23,09,067,,24,63,256,35,25,12,249,33,7*73
$GAGSV,3,3,11,26,14,043,34,31,59,061,42,33,15,092,45,7*43
$GBGSV,3,1,09,05,15,124,41,07,11,049,,10,23,054,39,19,14,218,36,1*7C
$GBGSV,3,2,09,21,15,324,,22,29,271,31,27,41,098,46,28,24,048,46,1*70
$GBGSV,3,3,09,30,25,157,50,1*4D
$GNRMC,100006.00,A,4843.26118,N,00920.55500,E,0.016,,080225,,,A,V*10
$GNGGA,100006.00,4843.26118,N,00920.55500,E,1,12,0.45,253.3,M,47.6,M,,*4C
$GPGSV,3,1,11,06,18,086,44,10,05,271,,11,09,118,,12,80,275,32,1*6C
$GPGSV,3,2,11,15,06,181,37,17,07,036,31,19,32,051,47,24,62,134,43,1*60
$GPGSV,3,3,11,25,39,258,31,29,02,200,,32,30,309,41,1*52
$GLGSV,3,1,10,65,29,228,37,66,41,292,37,67,12,341,38,74,15,080,40,1*73
$GLGSV,3,2,10,75,62,043,44,76,41,290,40,77,00,273,,84,32,047,38,1*71
$GLGSV,3,3,10,85,35,112,46,86,03,157,,1*7C
$GAGSV,3,1,11,03,18,320,31,05,53,271,,06,18,175,39,09,37,191,43,7*7A
$GAGSV,3,2,11,16,36,252,,23,09,067,,24,63,256,35,25,12,249,33,7*73
$GAGSV,3,3,11,26,14,043,34,31,59,061,44,33,15,092,44,7*44
$GBGSV,3,1,09,05,15,124,41,07,11,049,,10,23,054,39,19,1,218,36,1*7C
$GBGSV,3,2,09,21,15,324,,22,29,271,31,27,41,098,46,28,24,048,46,1*70
$GBGSV,3,3,09,30,25,157,50,1*4D
$GNRMC,100007.00,A,4843.26116,N,00920.55498E,0.027,,080225,,,A,V*1D
$GNGGA,100007.00,4843.26116,N,00920.55498,E,1,12,0.44,253.3,M,47.6,M,,*42
$GPGSV,3,1,11,06,18,086,43,10,05,271,,11,09,118,,12,80,275,32,1*6B
$GPGSV,3,2,11,15,06,18137,17,07,036,30,19,32,051,47,24,62,134,43,1*61
$GPGSV,3,3,11,25,39,258,31,29,02,200,,32,30,309,41,1*52
$GLGSV,3,1,10,65,29,228,37,66,41,292,36,67,12,341,38,74,15,080,40,1*72
$GLGSV,3,2,10,75,62,043,43,76,41,290,39,77,00,273,,84,32,047,38,1*78
$GLGSV,3,3,10,85,35,112,46,86,03,157,,1*7C
$GAGSV,3,1,11,03,18,320,31,05,53,271,,06,18,175,39,09,37,191,43,7*7A
$GAGSV,3,2,11,16,36,252,,23,09,067,,24,63,256,35,25,12,249,33,7*73
$GAGSV,3,3,11,26,14,043,34,31,59,061,43,33,15,092,44,7*43
$GBGSV,3,1,09,05,15,124,41,07,11,049,,10,23,054,39,19,14,218,36,1*7C
$GBGSV,3,2,09,21,15,324,,22,29,271,31,27,41,098,45,28,24,048,46,1*73
$GBGSV,3,3,09,30,25,157,50,1*4D
$GNRMC,100008.00,A,4843.26115,N,00920.55497,E,0.018,,080225,,,A,V*12
$GNGGA,100008.00,4843.26115,N,00920.55497,E,1,12,0.44,253.3,M,47.6,M,,*41
$GPGSV,3,1,11,06,18,086,43,10,05,271,,11,09,118,,12,80,275,32,1*6B
$GPGSV,3,2,11,15,06,181,37,17,07,036,31,19,32,051,47,24,62,134,43,1*60
$GPGSV,3,3,11,25,39,258,31,29,02,200,,32,30,309,41,1*52
$GLGSV,3,1,10,65,29,228,37,66,41,292,36,67,12,341,38,74,15,080,39,1*7C
$GLGSV,3,2,10,75,62,043,42,76,41,290,39,77,00,273,,84,32,047,38,1*79
$GLGSV,3,3,10,85,35,112,45,86,03,157,,1*7F
$GAGSV,3,1,11,03,18,320,31,05,53,271,,06,18,175,39,09,37,191,42,7*7B
$GAGSV,3,2,11,16,36,252,,23,09,067,,24,63,256,35,25,12,249,33,7*73
$GAGSV,3,3,11,26,14,043,34,31,59,061,43,33,15,092,44,7*43
$GBGSV,3,1,09,05,15,124,41,07,11,049,,10,23,054,39,19,14,218,36,1*7C
$GBGSV,3,2,09,21,15,324,,22,29,271,31,27,41,098,44,28,24,048,46,1*72
$GBGSV,3,3,09,30,25,157,50,1*4D
$GNRMC,100009.00,A,4843.26114,N,00920.55496,E,0.017,,080225,,,A,V*1C
$GNGGA,100009.00,4843.26114,N,00920.55496,E,1,12,0.44,253.3,M,47.6,M,,*40
$GPGSV,3,1,11,06,18,086,43,10,05,271,,11,09,118,,12,80,275,33,1*6A
$GPGSV,3,2,11,15,06,181,37,17,07,036,31,19,32,051,47,24,62,134,44,1*67
$GPGSV,3,3,11,25,39,258,31,29,02,200,,32,30,309,41,1*52
$GLGSV,3,1,10,65,29,228,37,66,41,292,36,67,12,341,39,74,15,080,40,1*73
$GLGSV,3,2,10,75,62,043,39,76,41,290,38,77,00,273,,84,32,047,38,1*74
$GLGSV,3,3,10,85,35,112,46,86,03,157,,1*7C
$GAGSV,3,1,11,03,18,320,31,05,53,271,,06,18,175,40,09,37,191,43,7*74
$GAGSV,3,2,11,16,36,252,,23,09,067,,24,63,256,35,25,12,249,32,7*72
$GAGSV,3,3,11,26,14,043,33,31,59,061,44,33,15,092,44,7*43
$GBGSV,3,1,09,05,15,124,41,07,11,049,,10,23,054,39,19,14,218,36,1*7C
$GBGSV,3,2,09,21,15,324,,22,29,271,31,27,41,098,43,28,24,04846,1*75
$GBGSV,3,3,09,30,25,157,50,1*4D
$GNRMC,100010.00,A,4843.26113,N,00920.55496,E,0.020,,080225,,,A,V*17
$GNGGA,100010.00,4843.26113,N,00920.55496,E,1,12,0.44,253.3,M,47.6,M,,*4F
$GPGSV,3,1,11,06,18,086,43,10,05,271,,11,09,118,,12,80,275,34,1*6D
$GPGSV,3,2,11,15,06,181,36,17,07,036,31,19,32,051,47,24,62,134,44,1*66
$GPGSV,3,3,11,25,39,258,32,29,02,200,,32,30,309,41,1*51
$GLGSV,3,1,10,65,28,228,38,66,41,292,35,67,13,341,39,74,15,081,39,1*70
$GLGSV,3,2,10,75,61,045,41,76,42,290,38,77,00,273,,84,32,046,38,1*7C
$GLGSV,3,3,10,85,35,111,45,86,03,157,,1*7C
$GAGSV,3,1,11,03,18,320,32,05,53,271,,06,18,175,40,09,37,191,43,7*77
$GAGSV,3,2,11,16,36,252,,23,09,067,,24,63,256,35,25,12,249,32,7*72
$GAGSV,3,3,11,26,14,043,33,31,59,061,43,33,15,092,44,7*44
$GBGSV,3,1,09,05,15,124,41,07,11,049,,10,23,054,39,19,14,218,35,1*7F
$GBGSV,3,2,09,21,15,324,,22,29,271,32,27,41,097,44,28,24,048,46,1*7E
$GBGSV,3,3,09,30,25,157,50,1*4D
$GNRMC,100011.00,A,4843.26112,N,00920.55494,E,0.033,,080225,,,A,V*17
$GNGGA,100011.00,4843.26112,N,00920.55494,E,1,12,0.45,253.2,M,47.6,M,,*4D
$GPGSV,3,1,11,06,18,086,43,10,05,271,,11,09,118,,12,80,275,34,1*6D
$GPGSV,3,2,11,15,06,181,36,17,07,036,30,19,32,051,47,24,62,134,44,1*67
$GPGSV,3,3,11,25,39,258,31,29,02,200,,32,30,309,41,1*52
$GLGSV,3,1,10,65,28,228,37,66,41,292,36,67,13,341,39,74,15,081,39,1*7C
$GLGSV,3,,10,75,61,045,43,76,42,290,37,77,00,273,,84,32,046,38,1*71
$GLGSV,3,3,10,85,35,111,45,86,03,157,,1*7C
$GAGSV,3,1,11,03,18,320,33,05,53,271,,06,18,175,39,09,37,191,43,7*78
$GAGSV,3,2,11,16,36,252,,23,09,067,,24,63,256,35,25,12,249,32,7*72
$GAGSV,3,3,11,26,14,043,32,31,59,061,43,33,15,092,44,7*45
$GBGSV,3,1,09,05,15,124,41,07,11,049,,10,23,054,40,19,14,218,36,1*72
$GBGSV,3,2,09,21,15,324,,22,29,271,32,27,41,097,44,28,24,047,46,1*71
$GBGSV,3,3,09,30,25,157,50,1*4D
$GNRMC,100012.00,A,4843.26111,N,00920.55494,E,0.011,,080225,,,A,V*17
$GNGGA,100012.00,4843.26111,N,00920.55494,E,1,12,0.44,253.2,M,47.6,M,,*4C
$GPGSV,3,1,11,06,18,086,42,10,05,271,,11,09,118,,12,80,275,34,1*6C
$GPGSV,3,2,11,15,06,181,36,17,07,036,31,19,32,051,47,24,62,134,43,1*61
$GPGSV,3,3,11,25,39,258,32,29,02,200,,32,30,309,40,1*50
$GLGSV,3,1,10,65,28,228,37,66,41,292,36,67,13,341,40,74,15,081,39,1*72
$GLGSV,3,2,10,75,61,045,43,76,42,290,37,77,00,273,,84,32,046,38,1*71
$GLGSV,3,3,10,85,35,111,43,86,03,157,,1*7A
$GAGSV,3,1,11,03,18,320,32,05,53,271,,06,18,175,39,09,37,191,43,7*79
$GAGSV,3,2,11,16,36,252,,23,09,067,,24,63,256,35,25,12,249,32,7*72
$GAGSV,3,3,11,26,14,043,31,31,59,061,43,33,15,092,44,7*46
$GBGSV,3,1,09,05,15,124,40,07,11,049,,10,23,054,40,19,14,218,35,1*70
$GBGSV,3,2,09,21,15,324,,22,29,271,32,27,41,097,43,28,24,047,46,1*76
$GBGSV,3,3,09,30,25,157,50,1*4D
$GNRMC,100013.00,A,4843.26111,N,00920.55492,E,0.022,,080225,,,A,V*10
$GNGGA,100013.00,4843.26111,N,00920.55492,E,1,12,0.44,253.2,M,47.6,M,,*4B
$GPGSV,3,1,11,06,18,086,42,10,05,271,,11,09,118,,12,80,275,34,1*6C
$GPGSV,3,2,11,15,06,181,36,17,07,036,30,19,32,051,47,24,62,134,42,1*61
$GPGSV,3,3,11,25,39,258,26,29,02,200,,32,30,309,40,1*55
$GLGSV,3,1,10,65,28,228,36,66,41,292,38,67,13,341,38,74,15,081,39,1*72
$GLGSV,3,2,10,75,61,045,39,76,42,290,36,77,00,273,,84,32,046,38,1*7D
$GLGSV,3,3,10,85,35,111,43,86,03,157,,1*7A
$GAGSV,3,1,11,03,18,320,35,05,53,271,,06,18,175,38,09,37,191,43,7*7F
$GAGSV,3,2,11,16,36,252,,23,09,067,,24,63,256,35,25,12,249,35,7*75
$GAGSV,3,3,11,26,14,043,30,31,59,061,44,33,15,092,44,7*40
$GBGSV,3,1,09,05,15,124,41,07,11,049,,10,23,054,40,19,14,218,36,1*72
$GBGSV,3,2,09,21,15,324,,22,29,271,33,27,41,097,41,28,24,047,46,1*75
$GBGSV,3,3,09,30,26,157,50,1*4E
$GNRMC,100014.00,A,4843.26110,N,00920.55493,E,0.005,,080225,,,A,V*12
$GNGGA,100014.00,4843.26110,N,00920.55493,E,1,12,0.44,253.3,M,47.6,M,,*4D
$GPGSV,3,1,11,06,18,086,42,10,05,271,,11,09,118,,12,80,275,34,1*6C
$GPGSV,3,2,11,15,06,181,36,17,07,036,30,19,32,051,47,24,62,134,43,1*60
$GPGSV,3,3,11,25,39,258,34,29,02,200,,32,30,309,40,1*56
$GLGSV,3,1,10,65,28,228,36,66,41,292,35,67,13,341,41,74,15,081,39,1*71
$GLGSV,3,2,10,75,61,045,39,76,42,290,36,77,00,273,,84,32,046,38,1*7D
$GLGSV,3,3,10,85,35,111,43,86,03,157,,1*7A
$GAGSV,3,1,11,03,18,320,31,05,53,271,,06,18,175,38,09,37,191,43,7*7B
$GAGSV,3,2,11,16,36,252,,23,09,067,,24,63,256,35,25,12,249,33,7*73
$GAGSV,3,3,11,26,14,043,29,31,59,061,44,33,15,092,43,7*4F
$GBGSV,3,1,09,05,15,124,40,07,11,049,,10,23,054,40,19,14,218,35,1*70
$GBGSV,3,2,09,21,15,324,,22,29,271,33,27,41,097,41,28,24,047,46,1*75
$GBGSV,3,3,09,30,26,157,49,1*46
$GNRMC,100015.00,A,4843.26109,N,00920.55494,E,0.053,,080225,,,A,V*1F
$GNGGA,100015.00,4843.6109,N,00920.55494,E,1,12,0.44,253.3,M,47.6,M,,*43
$GPGSV,3,1,11,06,18,086,42,10,05,271,,11,09,118,,12,80,275,34,1*6C
$GPGSV,3,2,11,15,06,181,35,17,07,036,30,19,32,051,48,24,62,134,43,1*6C
$GPGSV,3,3,11,25,39,258,33,29,02,200,,32,30,309,40,1*51
$GLGSV,3,1,10,65,28,228,36,66,41,292,36,67,13,341,41,74,15,081,39,1*72
$GLGSV,3,2,10,75,61,045,41,76,42,290,35,77,00,273,,84,32,046,37,1*7E
$GLGSV,3,3,10,85,35,111,43,86,03,157,,1*7A
$GAGSV,3,1,11,03,18,320,35,05,53,271,,06,18,175,38,09,37,191,43,7*7F
$GAGSV,3,2,11,16,36,252,,23,09,067,,24,63,256,35,25,12,249,33,7*73
$GAGSV,3,3,11,26,14,043,29,31,59,061,44,33,15,092,44,7*48
$GBGSV,3,1,09,05,15,124,41,07,11,049,,10,23,054,40,19,14,218,36,1*72
$GBGSV,3,2,09,21,15,324,,22,29,271,33,27,41,097,41,28,24,047,46,1*75
$GNRMC,100016.00,A,4843.26107,N,00920.55493,E,0.015,,080225,,,A,V*17
$GNGGA,100016.00,4843.26107,N,00920.55493,E,1,12,0.45,253.2,M,47.6,M,,*49
$GPGSV,3,1,11,06,18,086,42,10,05,271,,11,09,118,,12,80,275,34,1*6C
$GPGSV,3,2,11,15,06,181,35,17,07,036,30,19,32,051,47,24,62,134,43,1*63
$GPGSV,3,3,11,25,39,258,33,29,02,200,,32,30,309,40,1*51
$GLGSV,3,1,10,65,28,228,36,66,41,290,35,67,13,341,41,74,15,081,39,1*73
$GLGSV,3,2,10,75,61,045,39,76,42,290,35,77,00,273,,84,32,046,37,1*71
$GLGSV,3,3,10,85,35,111,41,86,03,157,,1*78
$GAGSV,3,1,1,03,18,320,33,05,53,271,,06,18,175,38,09,37,191,42,7*78
$GAGSV,3,2,11,16,36,252,,23,09,067,,24,63,256,35,25,12,249,33,7*73
$GAGSV,3,3,11,26,14,043,29,31,59,06,43,33,15,092,43,7*48
$GBGSV,3,1,09,05,15,124,40,07,11,049,,10,23,054,40,19,14,218,36,1*73
$GBGSV,3,2,09,21,15,324,,22,29,271,32,27,41,097,41,28,24,047,46,1*74
$GBGSV,3,3,09,30,26,157,49,1*46
$GNRMC,100017.00,A,4843.26107,N,00920.55492,E,0.009,,080225,,,A,V*1A
$GNGGA,100017.00,4843.26107,N,00920.55492,E,1,12,0.44,253.2,M,47.6,M,,*48
$GPGSV,3,1,11,06,18,086,43,10,05,271,,11,09,118,,12,80,275,34,1*6D
$GPGSV,3,2,11,15,06,181,36,17,07,036,30,19,32,051,47,24,62,134,42,1*61
$GPGSV,3,3,11,25,39,258,33,29,02,200,,32,30,309,40,1*51
$GLGSV,3,1,10,65,28,228,36,66,41,290,37,67,13,341,39,74,15,081,40,1*70
$GLGSV,3,2,10,75,61,045,42,76,42,290,35,77,00,273,,84,32,046,37,1*7D
$GLGSV,3,3,10,85,35,111,40,86,03,157,,1*79
$GAGSV,3,1,11,03,18,320,34,05,53,271,,06,18,175,38,09,37,191,43,7*7E
$GAGSV,3,2,11,16,36,252,,23,09,067,,24,63,256,35,25,12,249,33,7*73
$GAGSV,3,3,11,26,14,043,29,31,59,061,43,33,15,092,43,7*48
$GBGSV,3,1,09,05,15,124,40,07,11,049,,10,23,054,40,19,14,218,36,1*73
$GBGSV,3,2,09,21,15,324,,22,29,271,33,27,41,097,42,28,24,047,46,1*76
$GBGSV,3,3,09,30,26,157,49,1*46
$GNRMC,100018.00,A,4843.26106,N,00920.55492,E,0.029,,080225,,,A,V*16
$GNGGA,100018.00,4843.26106,N,00920.55492,E,1,12,0.44,253.2,M,47.6,M,,*46
$GPGSV,3,1,11,06,18,086,43,10,05,271,,11,09,118,,12,80,275,34,1*6D
$GPGSV,3,2,11,15,06,181,35,17,07,036,29,19,32,051,47,24,62,134,42,1*6A
$GPGSV,3,3,11,25,39,258,35,29,02,200,,32,30,309,39,1*59
$GLGSV,3,2,10,75,61,045,43,76,42,290,35,77,00,273,,84,32,046,37,1*7C
$GLGSV,3,3,10,85,35,111,41,86,03,157,,1*78
$GAGSV,3,1,11,03,18,320,33,05,53,271,,06,18,175,38,09,37,191,42,7*78
$GAGSV,3,2,11,16,36,252,,23,09,067,,24,63,256,35,25,12,249,33,7*73
$GAGSV,3,3,11,26,14,043,30,31,59,061,44,33,15,092,43,7*47
$GBGSV,3,2,09,21,15,324,,22,29,271,33,27,41,097,42,28,24,047,46,1*76
$GBGSV,3,3,09,30,26,157,49,1*46
$GNRMC,100019.00,A,4843.26105,N,00920.55494,E,0.028,,080225,,,A,V*13
$GNGGA,100019.00,4843.26105,N,00920.55494,E,1,12,0.44,253.1,M,47.6,M,,*41
$GPGSV,3,,11,06,18,086,42,10,05,271,,11,09,118,,12,80,275,34,1*6C
$GPGSV,3,2,11,15,06,181,36,17,07,036,29,19,32,051,47,24,62,134,45,1*6E
$GPGSV,3,3,11,25,39,258,33,29,02,200,,32,30,309,39,1*5F
$GLGSV,3,1,10,65,28,228,35,66,41,290,34,67,13,341,41,74,15,081,40,1*7F
$GLGSV,3,2,10,75,61,045,43,76,42,290,35,77,00,273,,84,32,046,37,1*7C
$GLGSV,3,3,10,85,35,111,41,86,03,157,,1*78
$GAGSV,3,1,11,03,18,320,32,05,53,271,,06,18,175,38,09,37,191,43,7*78
$GAGSV,3,3,11,26,14,043,30,31,59,061,44,33,15,092,43,7*47
$GBGSV,3,1,09,05,15,124,40,07,11,049,,10,23,054,40,19,14,218,36,1*73
$GBGSV,3,2,09,21,15,324,,22,29,271,33,27,41,097,41,28,24,047,46,1*75
$GBGSV,3,3,09,30,26,157,49,1*46
$GNRMC,100020.00,A,4843.26104,N,00920.55495,E,0.024,,080225,,,A,V*15
$GNGGA,100020.00,4843.26104,N,00920.55495,E,1,12,0.44,253.1,M,47.6,M,,*4B
$GPGSV,3,1,11,06,18,086,42,10,05,271,,11,09,118,,12,80,275,34,1*6C
$GPGSV,3,2,11,15,06,181,35,17,07,036,30,19,32,051,47,24,62,134,43,1*63
$GPGSV,3,3,11,25,39,258,34,29,02,200,,32,30,309,39,1*58
$GLGSV,3,1,10,65,28,228,36,66,41,290,34,67,13,341,41,74,15,081,40,1*7C
$GLGSV,3,2,10,75,61,045,43,76,42,90,36,77,00,273,,84,32,046,37,1*7F
$GLGSV,3,3,10,85,35,111,40,86,03,157,,1*79
$GAGSV,3,1,11,03,18,320,32,05,53,271,,06,18,175,38,09,37,191,43,7*78
$GAGSV,3,2,11,16,36,252,,23,09,067,,24,63,256,34,25,12,249,34,7*75
$GAGSV,3,3,11,26,14,043,31,31,59,061,43,33,15,092,43,7*41
$GBGSV,3,1,09,05,15,124,40,07,11,049,,10,23,054,40,19,14,218,36,1*73
$GBGSV,3,2,09,21,15,324,,22,29,271,33,27,41,097,44,28,24,047,46,1*70
$GBGSV,3,3,09,30,26,157,49,1*46
$GNRMC,100021.00,A,4843.26103,N,00920.55495,E,0.009,,080225,,,A,V*1C
$GNGGA,100021.00,4843.26103,N,00920.55495,E,1,12,0.45,253.1,M,47.6,M,,*4C
$GPGSV,3,1,11,06,18,086,42,10,05,271,,11,09,118,,12,80,275,33,1*6B
$GPGSV,3,2,11,15,06,181,36,17,07,036,29,19,32,051,47,24,62,134,44,1*6F
$GPGSV,3,3,11,25,39,258,34,29,02,200,,32,30,309,38,1*59
$GLGSV,3,1,10,65,28,228,36,66,41,290,33,67,13,341,41,74,15,081,40,1*7B
$GLGSV,3,2,10,75,61,045,43,76,42,290,37,77,00,273,,84,32,046,38,1*71
$GLGSV,3,3,10,85,35,111,42,86,03,157,,1*7B
$GAGSV,3,1,11,03,18,320,32,05,53,271,,06,18,175,38,09,37,191,43,7*78
$GAGSV,3,2,11,16,36,252,,23,09,067,,24,63,256,35,25,12,249,33,7*73
$GAGSV,3,3,11,26,14,043,31,31,59,06142,33,15,092,43,7*40
$GBGSV,3,1,09,05,15,124,40,07,11,049,,10,23,054,40,19,14,218,35,1*70
$GBGSV,3,2,09,21,15,324,,22,29,271,33,27,41,097,44,28,24,047,46,1*70
$GBGSV,3,3,09,30,26,157,49,1*46
$GNRMC,100022.00,A,4843.26102,N,00920.55496,E,0.012,,080225,,,A,V*17
$GNGGA,100022.00,4843.26102,N,00920.55496,E,1,12,0.44,253.1,M,47.6,M,,*4C
$GPGSV,3,1,11,06,18,086,42,10,05,271,,11,09,118,,12,80,275,33,1*6B
$GPGSV,3,2,11,15,06,181,35,17,07,036,29,19,32,051,47,24,62,134,44,1*6C
$GPGSV,3,3,11,25,39,258,34,29,02,200,,32,30,309,38,1*59
$GLGSV,3,1,10,65,28,228,35,66,41,290,32,67,13,341,41,74,15,081,40,1*79
$GLGSV,3,2,10,75,61,045,44,76,42,290,37,77,00,273,,84,32,046,38,1*76
$GLGSV,3,3,10,85,35,111,42,86,03,157,,1*7B
$GAGSV,3,1,11,03,18,320,32,05,53,271,,06,18,175,37,09,37,191,43,7*77
$GAGSV,3,2,11,16,36,252,,23,09,067,,24,63,256,35,25,12,249,33,7*73
$GAGSV,3,3,11,26,14,043,31,31,59,061,42,33,15,092,44,7*47
$GBGSV,3,1,09,05,15,124,41,07,11,049,,10,23,054,40,19,14,218,36,1*72
$GBGSV,32,09,21,15,324,,22,29,271,33,27,41,097,43,28,24,047,46,1*77
$GBGSV,3,3,09,30,26,157,49,1*46
$GNRMC,100023.00,A,4843.26100,N,00920.55498,E,0.014,,080225,,,A,V*1C
$GNGGA,100023.00,4843.26100,N,00920.55498,E,1,12,0.44,253.1,M,47.6,M,,*41
$GPGSV,3,1,11,06,18,086,42,10,05,271,,11,09,118,,12,80,275,32,1*6A
$GPGSV,3,2,11,15,06,181,35,17,07,036,29,19,32,051,47,24,62,134,45,1*6D
$GPGSV,3,3,11,25,39,258,34,29,02,200,,32,30,309,38,1*59
$GLGSV,3,1,10,65,28,228,35,66,41,290,32,67,13,341,41,74,15,081,40,1*79
$GLGSV,3,2,10,75,61,045,44,76,42,290,38,77,00,273,,84,32,046,38,1*79
$GLGSV,3,3,10,85,35,111,44,86,03,157,,1*7D
$GAGSV,3,1,11,03,18,320,33,05,53,271,,06,18,175,38,09,37,191,44,7*7E
$GAGSV,3,2,11,16,36,252,,23,09,067,,24,63,25,35,25,12,249,37,7*77
$GAGSV,3,3,11,26,14,043,31,31,59,061,44,33,15,092,44,7*41
$GBGSV,3,1,09,05,15,124,40,07,11,049,,10,23,054,40,19,14,218,36,1*73
$GBGSV,3,2,09,21,15,324,,22,29,271,34,27,41,097,44,28,24,047,46,1*77
$GBGSV,3,3,09,30,26,157,49,1*46
$GNRMC,100024.00,A,4843.26099,N,00920.55499,E,0.019,,080225,,,A,V*16
$GNGGA,100024.00,4843.26099,N,00920.55499,E,1,12,0.44,253.0,M,47.6,M,,*47
$GPGSV,3,1,11,06,18,086,42,10,05,271,,11,09,118,,12,80,275,32,1*6A
$GPGSV,3,2,11,15,06,181,36,17,07,036,29,19,32,051,47,24,62,134,44,1*6F
$GPGSV,3,3,11,25,39,258,34,29,02,200,,32,30,309,38,1*59
$GLGSV,3,1,10,65,28,228,36,66,41,290,32,67,13,341,41,74,15,081,40,1*7A
$GLGSV,3,2,10,75,61,045,45,76,42,290,38,77,00,273,,84,32,046,38,1*78
$GLGSV,3,3,10,85,35,111,45,86,03,157,,1*7C
$GAGSV,3,1,11,03,8,320,33,05,53,271,,06,18,175,37,09,37,191,44,7*71
$GAGSV,3,2,11,16,36,252,,23,09,067,,24,63,256,35,25,12,249,34,7*74
$GAGSV,3,3,11,26,14,043,31,31,59,061,44,33,15,092,44,7*41
$GBGSV,3,1,09,05,15,124,40,07,11,049,,10,23,054,40,19,14,218,35,1*70
$GBGSV,3,2,09,21,15,324,,22,29,271,33,27,41,097,44,28,24,047,46,1*70
$GBGSV,3,3,09,30,26,157,49,1*46
$GNRMC,100025.00,A,4843.26098,N,00920.55500,E,0.008,,080225,,,A,V*17
$GNGGA,100025.00,4843.26098,N,00920.55500,E,1,12,0.44,253.0,M,47.6,M,,*46
$GPGSV,3,1,11,06,18,086,43,10,05,271,,11,09,118,,12,80,275,31,1*68
$GPGSV,3,2,11,15,06,181,36,17,07,036,29,19,32,051,47,24,62,134,43,1*68
$GPGSV,3,3,11,25,39,258,34,29,02,200,,32,30,309,38,1*59
$GLGSV,3,1,10,65,28,228,36,66,41,290,31,67,13,341,41,74,15,081,40,1*79
$GLGSV,3,2,10,75,61,045,42,76,42,290,38,77,00,273,,84,32,046,38,1*7F
$GLGSV,3,3,10,85,35,111,44,86,03,157,,1*7D
$GAGSV,3,1,11,03,18,320,32,05,53,271,,06,18,175,38,09,37,191,43,7*78
$GAGSV,3,2,11,16,36,252,,23,09,067,,24,63,256,34,25,12,249,34,7*75
$GAGSV,3,3,11,26,14,043,31,31,59,061,44,33,15,092,44,7*41
$GBGSV,3,1,09,05,15,124,41,07,11,049,,10,23,054,40,19,14,218,36,1*72
$GBGSV,3,2,09,21,15,324,,22,29,271,33,27,41,097,43,28,24,047,46,1*77
$GBGSV,3,3,09,30,26,157,49,1*46
$GNRMC,100026.00,A,4843.26097,N,00920.55499,E,0.006,,080225,,,A,V*14
$GNGGA,100026.00,4843.26097,N,00920.55499,E,1,12,0.45,252.9,M,47.6,M,,*42
$GPGSV,3,1,11,06,18,086,43,10,05,271,,11,09,118,,12,81,278,31,1*64
$GPGSV,3,2,11,15,06,181,35,17,07,036,29,19,32,051,47,24,62,134,43,1*6B
$GPGSV,3,3,11,25,39,258,35,29,02,200,,32,30,309,38,1*58
$GLGSV,3,1,10,65,28,228,36,66,41,290,30,67,13,341,41,74,15,081,41,1*79
$GLGSV,3,2,10,75,61,045,42,76,42,290,38,77,00,273,,84,32,046,38,1*7F
$GLGSV,3,3,10,85,35,111,42,86,03,157,,1*7B
$GAGSV,3,1,11,03,18,320,33,05,53,271,,06,18,175,38,09,37,191,43,7*79
$GAGSV,3,2,11,16,36,252,,23,09,067,,24,63,256,34,25,12,249,33,7*72
$GAGSV,3,3,11,26,14,043,32,31,59,061,44,33,15,092,44,7*42
$GBGSV,3,1,09,05,15,124,41,07,11,049,,10,23,054,40,19,14,218,35,1*71
$GBGSV,3,2,09,21,15,324,,22,29,271,32,27,41,097,41,28,24,047,47,1*75
$GBGSV,3,3,09,30,26,157,48,1*47
$GNRMC,100027.00,A,4843.26096,N,00920.55500,E,0.008,,080225,,,A,V*1B
$GNGGA,100027.00,4843.26096,N,00920.55500,E,1,12,0.45,252.9,M,47.6,M,,*43
$GPGSV,3,1,11,06,18,086,43,10,05,271,,11,09,118,,12,81,278,30,1*65
$GPGSV,3,2,11,15,06,181,35,17,07,036,28,19,32,051,47,24,62,134,43,1*6A
$GPGSV,3,3,11,25,39,258,35,29,02,200,,32,30,309,38,1*58
$GLGSV,3,1,10,65,28,228,36,66,41,290,28,67,13,341,41,74,15,081,41,1*70
$GLGSV,3,2,10,75,61,045,44,76,42,290,37,77,00,274,,84,32,046,38,1*71
$GLGSV,3,3,10,85,35,111,44,86,03,157,,1*7D
$GAGSV,3,1,11,03,18,320,32,05,53,271,,06,18,175,38,09,37,191,43,7*78
$GAGSV,3,2,11,16,36,252,,23,09,067,,24,63,256,34,25,12,249,34,7*75
$GAGSV,3,3,11,26,14,043,32,31,59,061,44,33,15,092,44,7*42
$GBGSV,3,1,09,05,15,124,40,07,11,049,,10,23,054,40,19,14,218,35,1*70
$GBGSV,3,2,09,21,15,324,,22,29,271,32,27,41,097,41,28,24,047,47,1*75
$GBGSV,3,3,09,30,26,157,48,1*47
$GNRMC,100028.00,A,4843.26094,N,00920.55502,E,0.017,,080225,,,A,V*1A
$GNGGA,100028.00,4843.26094,N,00920.55502,E,1,12,0.45,252.9,M,47.6,M,,*4C
$GPGSV,3,1,11,06,18,086,43,10,05,271,,11,09,118,,12,81,278,30,1*65
$GPGSV,3,2,11,15,06,181,35,17,07,036,28,19,32,051,7,24,62,134,42,1*6B
$GPGSV,3,3,11,25,39,258,35,29,02,200,,32,30,309,38,1*58
$GLGSV,3,1,10,65,28,228,35,66,41,290,26,67,13,341,41,74,15,081,41,1*7D
$GLGSV,3,2,10,75,61,045,43,76,42,290,37,77,00,274,,84,32,046,38,1*76
$GLGSV,3,3,10,85,35,111,44,86,03,157,,1*7D
$GAGSV,3,1,11,03,18,320,32,05,53,271,,06,18,175,38,09,37,191,43,7*78
$GAGSV,3,2,11,16,36,252,,23,09,067,,24,63,256,34,25,12,249,34,7*75
$GAGSV,3,3,11,26,14,043,33,31,59,061,44,33,15,092,44,7*43
$GBGSV,3,1,09,05,15,124,41,07,11,049,,10,23,054,40,19,14,218,35,1*71
$GBGSV,3,2,09,21,15,324,,22,29,271,32,27,41,097,41,28,24,047,47,1*75
$GBGSV,3,3,09,30,26,157,48,1*47
$GNRMC,100029.00,A,4843.26093,N,00920.55504,E,0.014,,080225,,,A,V*19
$GNGGA,100029.00,4843.26093,N,00920.55504,E,1,12,0.45,252.9,M,47.6,M,,*4C
$GPGSV,3,1,11,06,18,086,44,10,05,271,,11,09,118,,12,81,278,29,1*6A
$GPGSV,3,2,11,15,06,181,35,17,07,036,28,19,32,051,47,24,62,134,45,1*6C
$GPGSV,3,3,11,25,39,258,35,29,02,200,,32,30,309,38,1*58
$GLGSV,3,1,10,65,28,228,36,66,41,290,24,67,13,341,41,74,15,081,41,1*7C
$GLGSV,3,2,10,75,61,045,44,76,42,290,36,77,00,274,,84,32,046,38,1*70
$GLGSV,3,3,10,85,35,111,46,86,03,157,,1*7F
$GAGSV,3,1,11,03,18,320,32,05,53,271,,06,18,175,38,09,37,191,43,7*78
$GAGSV,3,2,11,16,36,252,,23,09,067,,24,63,256,34,25,12,249,33,7*72
$GAGSV,3,3,11,26,14,043,33,31,59,061,44,33,15,092,44,7*43
$GBGSV,3,1,09,05,15,124,41,07,11,049,,10,23,054,40,19,14,218,35,1*71
$GBGSV,3,2,09,21,15,324,,22,29,271,32,27,41,097,39,28,24,047,47,1*7A
$GBGSV,3,3,09,30,26,157,48,1*47
$GNRMC,100030.00,A,4843.26093,N,00920.55507,E,0.007,,080225,,,A,V*10
$GNGGA,100030.00,4843.26093,N,00920.55507,E,1,12,0.45,252.9,M,47.6,M,,*47
$GPGSV,3,1,11,06,18,086,44,10,05,271,,11,09,118,,12,81,278,29,1*6A
$GPGSV,3,2,11,15,06,181,35,17,07,036,28,19,32,051,47,24,62,134,43,1*6A
$GPGSV,3,3,11,25,39,258,34,29,02,200,,32,30,309,38,1*59
$GLGSV,3,1,10,65,28,228,36,66,41,290,22,67,13,341,41,74,15,081,41,1*7A
$GLGSV,3,2,10,75,61,045,44,76,42,290,37,77,00,274,,84,32,046,38,1*71
$GLGSV,3,3,10,85,35,111,46,86,03,157,,1*7F
$GAGSV,3,1,11,03,18,320,32,05,53,271,,06,18,175,38,09,37,191,43,7*78
$GAGSV,3,2,11,16,36,252,,23,09,067,,24,63,256,35,25,12,249,33,7*73
$GAGSV,3,3,11,26,14,043,33,31,59,061,43,33,15,092,44,7*44
$GBGSV,3,1,09,05,15,124,41,07,11,049,,10,23,054,40,19,14,218,35,1*71
$GBGSV,3,2,09,21,15,324,,22,29,271,32,27,41,097,41,28,24,047,47,1*75
$GBGSV,3,3,09,30,26,157,48,1*47
$GNRMC,100031.00,A,4843.26092,N,00920.55507,E,0.017,,080225,,,A,V*11
$GNGGA,100031.00,4843.26092,N,00920.55507,E,1,12,0.46,252.9,M,47.6,M,,*44
$GPGSV,3,1,11,06,18,086,45,10,05,271,,11,09,118,,12,81,278,29,1*6B
$GPGSV,3,2,11,15,06,181,35,17,07,036,29,19,32,051,46,24,62,134,44,1*6D
$GPGSV,3,3,11,25,39,258,34,29,02200,,32,30,309,38,1*59
$GLGSV,3,1,10,65,28,228,36,66,41,290,22,67,13,341,40,74,15,081,41,1*7B
$GLGSV,3,2,10,75,61,045,44,76,42,290,37,77,00,274,,84,32,046,38,1*71
$GLGSV,3,3,10,85,35,111,46,86,03,157,,1*7F
$GAGSV,3,1,11,03,18,320,32,05,53,271,,06,18,175,38,09,37,191,43,7*78
$GAGSV,3,2,11,16,36,252,,23,09,067,,24,63,256,34,25,12,249,33,7*72
$GAGSV,3,3,11,26,14,043,33,31,59,061,42,33,15,092,44,7*45
$GBGSV,3,1,09,05,15,124,42,07,11,049,,10,23,054,40,19,14,218,35,1*72
$GBGSV,3,2,09,21,15,324,,22,29,271,32,27,41,097,42,28,24,047,47,1*76
$GBGSV,3,3,09,30,26,157,47,1*48
$GNRMC,100032.00,A,4843.26091,N,00920.55507,E,0.001,,080225,,,A,V*16
$GNGGA,100032.00,4843.26091,N,00920.55507,E,1,12,0.45,252.9,M,47.6,M,,*47
$GPGSV,3,1,11,06,18,086,45,10,05,271,,11,09,118,,12,81,278,29,1*6B
$GPGSV,3,2,11,15,06,181,35,17,07,036,29,19,32,051,46,24,62,134,45,1*6C
$GPGSV,3,3,11,25,39,258,34,29,02,200,,32,30,309,38,1*59
$GLGSV,3,1,10,65,28,228,36,66,41,290,22,67,13,341,40,74,15,081,41,1*7B
$GLGSV,3,2,10,75,61,045,42,76,42,290,37,77,00,274,,84,32,046,38,1*77
$GLGSV,3,3,10,85,35,111,45,86,03,157,,1*7C
$GAGSV,3,1,11,03,18,320,32,05,53,271,,06,18,175,38,09,37,191,43,7*78
$GAGSV,3,2,11,16,36,252,,23,09,067,,24,63,256,34,25,12,249,33,7*72
$GAGSV,3,3,11,26,14,043,33,31,59,061,43,33,15,092,44,7*44
$GBGSV,3,1,09,05,15,124,42,07,11,049,,10,23,054,40,19,14,218,35,1*72
$GBGSV,3,2,09,21,15,324,,22,29,271,32,27,41,097,40,28,24,047,47,1*74
$GBGSV,3,3,09,30,26,157,48,1*47
$GNRMC,100033.00,A,4843.26090,N,00920.55508,E,0.012,,080225,,,A,V*1B
$GNGGA,100033.00,4843.26090,N,00920.55508,E,1,12,0.45,252.9,M,47.6,M,,*48
$GPGSV,3,1,11,06,18,086,45,10,05,271,,11,09,118,,12,81,278,30,1*63
$GPGSV,3,2,11,15,06,181,35,17,07,036,29,19,32,051,46,24,62,134,47,1*6E
$GPGSV,3,3,11,25,39,258,34,29,02,200,,32,30,309,38,1*59
$GLGSV,3,1,10,65,28,228,35,66,41,290,22,67,13,341,41,74,15,081,42,1*7A
$GLGSV,3,2,10,75,61,045,45,76,42,290,37,77,00,274,,84,32,046,38,1*70
$GLGSV,3,3,10,85,35,111,43,86,03,157,,1*7A
$GAGSV,3,1,11,03,18,320,32,05,53,271,,06,18,175,38,09,37,191,43,7*78
$GAGSV,3,2,11,16,36,252,,23,09,067,,24,63,256,34,25,12,249,33,7*72
$GAGSV,3,3,11,26,14,043,32,31,59,061,42,33,15,092,44,7*44
$GBGSV,3,1,09,05,15,124,42,07,11,049,,10,23,054,40,19,14,218,34,1*73
$GBGSV,3,2,09,21,15,324,,22,29,271,33,27,41,097,40,28,24,047,47,1*75
$GBGSV,3,3,09,30,26,157,48,1*47
$GNRMC,100034.00,A,4843.26089,N,00920.55509,E,0.005,,080225,,,A,V*13
$GNGGA,100034.00,4843.26089,N,00920.55509,E,1,12,0.45,252.9,M,47.6,M,,*46
$GPGSV,3,1,11,06,18,086,45,10,05,271,,11,09,118,,12,81,278,30,1*63
$GPGSV,3,2,11,15,06,181,35,17,07,036,28,19,32,051,46,24,62,134,46,1*6E
$GPGSV,3,3,11,25,39,258,34,29,02,200,,32,30,309,38,1*59
$GLGSV,3,1,10,65,28,228,35,66,41,290,21,67,13,341,41,74,15,081,42,1*79
$GLGSV,3,2,10,75,61,045,46,76,42,290,37,77,00,274,,84,32,046,38,1*73
$GLGSV,3,3,10,85,35,111,45,86,03,157,,1*7C
$GAGSV,3,1,11,03,18,320,32,05,53,271,,06,18,175,37,09,37,191,43,7*77
$GAGSV,3,2,11,16,36,252,,23,09,067,,24,63,256,34,25,12,249,33,7*72
$GAGSV,3,3,11,26,14,043,33,31,59,061,43,33,15,092,43,7*43
$GBGSV,3,1,09,05,15,124,42,07,11,049,,10,23,054,40,19,14,218,34,1*73
$GBGSV,3,2,09,21,15,324,,22,29,271,33,27,41,097,41,28,24,047,47,1*74
$GBGSV,3,3,09,30,26,157,48,1*47
$GNRMC,100035.00,A,4843.26089,N,00920.55511,E,0.017,,080225,,,A,V*18
$GNGGA,100035.00,4843.26089,N,00920.55511,E,1,12,0.45,253.0,M,47.6,M,,*46
$GPGSV,3,1,11,06,18,086,45,10,05,271,,11,09,118,,12,81,278,31,1*62
$GPGSV,3,2,11,15,06,181,34,17,07,036,29,19,32,051,46,24,62,134,45,1*6D
$GPGSV,3,3,11,25,39,258,34,29,02,200,,32,30,309,38,1*59
$GLGSV,3,1,10,65,28,228,36,66,41,290,21,67,13,341,41,74,15,081,42,1*7A
$GLGSV,3,2,10,75,61,045,45,76,42,290,37,77,00,274,,84,32,046,38,1*70
$GLGSV,3,3,10,85,36,111,44,86,03,157,,1*7E
$GAGSV,3,1,11,03,18,320,32,05,53,271,,06,18,175,37,09,37,191,44,7*70
$GAGSV,3,2,11,16,36,252,,23,09,067,,24,63,256,34,25,12,249,33,7*72
$GAGSV,3,3,11,26,14,043,33,31,59,061,42,33,15,092,43,7*42
$GBGSV,3,1,09,05,15,124,42,07,11,049,,10,23,054,40,19,14,218,34,1*73
$GBGSV,3,2,09,21,15,324,,22,29,271,33,27,41,097,42,28,24,047,47,1*77
$GBGSV,3,3,09,30,26,157,48,1*47
$GNRMC,100036.00,A,4843.26088,N,00920.55511,E,0.013,,080225,,,A,V*1E
$GNGGA,100036.00,4843.26088,N,00920.55511,E,1,12,0.46,253.0,M,47.6,M,,*47
$GPGSV,3,1,11,06,18,086,45,10,05,271,,11,09,118,,12,81,278,31,1*62
$GPGSV,3,2,11,15,06,181,34,17,07,036,29,19,32,051,46,24,62,134,45,1*6D
$GPGSV,3,3,11,25,39,258,34,29,02,200,,32,30,309,38,1*59
$GLGSV,3,1,10,65,28,228,37,66,41,290,22,67,13,341,41,74,15,081,42,1*78
$GLGSV,3,2,10,75,61,045,47,76,42,290,37,77,00,274,,84,32,046,38,1*72
$GLGSV,3,3,10,85,36,111,45,86,03,157,,1*7F
$GAGSV,3,1,11,03,18,320,32,05,53,271,,06,18,175,37,09,37,191,43,7*77
$GAGSV,3,2,11,16,36,252,,23,09,067,,24,63,256,34,25,12,249,32,7*73
$GAGSV,3,3,11,26,14,043,33,31,59,061,40,33,15,092,43,7*40
$GBGSV,3,1,09,05,15,124,42,07,11,049,,10,23,054,40,19,14,218,34,1*73
$GBGSV,3,2,09,21,15,324,,22,29,271,33,27,41,097,42,28,24,047,47,1*77
$GBGSV,3,3,09,30,26,157,49,1*46
$GNRMC,100037.00,A,4843.26088,N,00920.55510,E,0.002,,080225,,,A,V*1E
$GNGGA,100037.00,4843.26088,N,00920.55510,E,1,12,0.45,252.9,M,47.6,M,,*4C
$GPGSV,3,1,11,06,18,086,45,10,05,271,,11,09,118,,12,81,278,32,1*61
$GPGSV,3,2,11,15,06,181,34,17,07,036,29,19,32,051,46,24,62,134,46,1*6E
$GPGSV,3,3,11,25,39,258,33,29,02,200,,32,30,309,38,1*5E
$GLGSV,3,1,10,65,28,228,37,66,41,290,23,67,13,341,41,74,15,081,42,1*79
$GLGSV,3,3,10,85,36,111,44,86,03,157,,1*7E
$GAGSV,3,1,11,03,18,320,31,05,53,271,,06,18,175,36,09,37,191,43,7*75
$GAGSV,3,2,11,16,36,252,,23,09,067,,24,63,256,33,25,12,249,32,7*74
$GAGSV,3,3,11,26,14,043,33,31,59,061,42,33,15,092,43,7*42
$GBGSV,3,1,09,05,15,124,42,07,11,049,,10,23,054,40,19,14,218,34,1*73
$GBGSV,3,2,09,21,15,324,,22,29,271,33,27,41,097,43,28,24,047,47,1*76
$GBGSV,3,3,09,3026,157,48,1*47
$GNRMC,100038.00,A,4843.26087,N,00920.55510,E,0.030,,080225,,,A,V*1F
$GNGGA,100038.00,4843.26087,N,00920.55510,E,1,12,0.45,252.9,M,47.6,M,,*4C
$GPGSV,3,1,11,06,18,086,45,10,05,271,,11,09,118,,12,81,278,33,1*60
$GPGSV,3,2,11,15,06,181,34,17,07,036,28,19,32,051,46,24,62,134,48,1*61
$GPGSV,3,3,11,25,39,258,33,29,02,200,,32,30,309,39,1*5F
$GLGSV,3,1,10,65,28,228,37,66,41,290,25,67,13,341,41,74,15,081,41,1*7C
$GLGSV,3,2,10,75,61,045,47,76,42,290,36,77,00,274,,84,32,046,37,1*7C
$GLGSV,3,3,1,85,36,111,46,86,03,157,,1*7C
$GAGSV,3,1,11,03,18,320,32,05,53,271,,06,18,175,37,09,37,191,43,7*77
$GAGSV,3,2,11,16,36,252,,23,09,067,,24,63,256,32,25,12,249,32,7*75
$GAGSV,3,3,11,26,14,043,33,31,59,061,41,33,15,092,43,7*41
$GBGSV,3,1,09,05,15,124,42,07,11,049,,10,23,054,40,19,14,218,34,1*73
$GBGSV,3,2,09,21,15,324,,22,29,271,33,27,41,097,44,28,24,047,47,1*71
$GBGSV,3,3,09,30,26,157,48,1*47
$GNRMC,100039.00,A,4843.26087,N,00920.55510,E,0.014,,080225,,,A,V*18
$GNGGA,100039.00,4843.2608,N,00920.55510,E,1,12,0.45,252.9,M,47.6,M,,*4D
$GPGSV,3,1,11,06,18,086,45,10,05,271,,11,09,118,,12,81,278,32,1*61
$GPGSV,3,2,11,15,06,181,33,17,07,036,28,19,32,051,47,24,62,134,47,1*68
$GPGSV,3,3,11,25,39,258,33,29,02,200,,32,30,309,39,1*5F
$GLGSV,3,1,10,65,28,228,37,66,41,290,27,67,13,341,41,74,15,081,41,1*7E
$GLGSV,3,2,10,75,61,045,47,76,42,290,36,77,00,274,,84,32,046,37,1*7C
$GLGSV,3,3,10,85,36,111,44,86,03,157,,1*7E
$GAGSV,3,1,11,03,18,320,32,05,53,271,,06,18,175,36,09,37,191,43,7*76
$GAGSV,3,2,11,16,36,252,,23,09,067,,24,63,26,32,25,12,249,2,7*75
$GAGSV,3,3,11,26,14,043,33,31,59,061,41,33,15,092,43,7*41
$GBGSV,3,1,09,05,15,124,42,07,11,049,,10,23,054,40,19,14,218,34,1*73
$GBGSV,3,2,09,21,15,324,,22,29,271,34,27,41,097,43,28,24,047,47,1*71
$GBGSV,3,3,09,30,26,157,48,1*47
$GNRMC,100040.00,A,4843.26088,N,00920.55511,E,0.004,,080225,,,A,V*19
$GNGGA,100040.00,4843.26088,N,00920.55511,E,1,12,0.45,252.9,M,47.6,M,,*4D
$GPGSV,3,1,11,06,18,086,45,10,05,271,,11,09,118,,12,81,278,33,1*60
$GPGSV,3,2,11,15,06,181,33,17,07,036,27,19,32,051,47,24,62,134,48,1*68
$GPGSV,3,3,11,25,39,258,32,29,02,200,,32,30,309,39,1*5E
$GLGSV,3,1,10,65,28,228,37,66,41,290,29,67,13,341,41,74,15,081,41,1*70
$GLGSV,3,2,10,75,61,045,48,76,42,290,36,77,00,274,,84,32,046,36,1*72
$GLGSV,3,3,10,85,36,111,45,86,03,157,,1*7F
$GAGSV,3,1,11,03,18,320,31,05,53,271,,06,18,175,36,09,37,191,43,7*75
$GAGSV,3,2,11,16,36,252,,23,09,067,,24,63,256,31,25,12,249,32,7*76
$GAGSV,3,3,11,26,14,043,32,31,59,061,41,33,15,092,43,7*40
$GBGSV,3,1,09,05,15,124,42,07,11,049,,10,23,054,40,19,14,218,35,1*72
$GBGSV,3,2,09,21,15,324,,22,29,271,33,27,41,097,43,28,24,047,47,1*76
$GBGSV,3,3,09,30,26,157,48,1*47
$GNRMC,100041.00,A4843.26088,N,00920.55508,E,0.005,,080225,,,A,V*11
$GNGGA,100041.00,4843.26088,N,00920.55508,E,1,12,0.45,252.8,M,47.6,M,,*45
$GPGSV,3,1,11,06,18,086,45,10,05,271,,11,09,118,,12,81,278,34,1*67
$GPGSV,3,2,11,15,06,181,33,17,07,036,27,19,32,051,47,24,62,134,48,1*68
$GLGSV,3,1,10,65,28,228,37,66,41,290,30,67,13,341,40,74,15,081,41,1*79
$GLGSV,3,2,10,75,61,045,46,76,42,290,35,77,00,274,,84,32,046,36,1*7F
$GLGSV,3,3,10,85,36,111,44,86,03,157,,1*7E
$GAGSV,3,1,11,03,18,320,31,05,53,271,,06,18,175,37,09,37,191,43,7*74
$GAGSV,3,2,11,16,36,252,,23,09,067,,24,63,256,31,25,12,249,32,7*76
$GAGSV,3,3,11,26,14,043,32,31,59,061,41,33,15,092,43,7*40
$GBGSV,3,1,09,05,15,124,42,07,11,049,,10,23,054,40,19,14,218,34,1*73
$GBGSV,3,2,09,21,15,324,,22,29,271,33,27,41,097,43,28,24,047,47,1*76
$GBGSV,3,3,09,30,26,157,49,1*46
$GNRMC,100042.00,A,4843.26088,N,00920.55505,E,0.002,,080225,,,A,V*18
$GNGGA,100042.00,4843.26088,N,00920.55505,E,1,12,0.44,252.8,M,47.6,M,,*4A
$GPGSV,3,1,11,06,18,086,44,10,05,271,,11,09,118,,12,81,278,34,1*66
$GPGSV,3,2,11,15,06,181,33,17,07,036,27,19,32,051,47,24,62,134,47,1*67
$GPGSV,3,3,11,25,39,258,31,29,02,200,,32,30,309,39,1*5D
$GLGSV,3,1,10,65,28,228,37,66,41,290,32,67,13,341,40,74,15,081,41,1*7B
$GLGSV,3,2,10,75,61,045,47,76,42,290,36,77,00,274,,84,32,046,37,1*7C
$GLGSV,3,3,10,85,36,111,44,86,03,157,,1*7E
$GAGSV,3,1,11,03,18,320,31,05,53,271,,06,18,175,37,09,37,191,43,7*74
$GAGSV,3,2,11,16,36,252,,23,09,067,,24,63,256,31,25,12,249,32,7*76
$GAGSV,3,3,11,26,14,043,32,31,59,061,40,33,15,092,43,7*41
$GBGSV,3,1,09,05,15,124,42,07,11,049,,10,23,054,40,19,14,218,34,1*73
$GBGSV,3,2,09,21,15,324,,22,29,271,34,27,41,097,43,28,24,047,47,1*71
$GBGSV,3,3,09,30,26,157,49,1*46
$GNRMC,100043.00,A,4843.26088,N,00920.55503,E,0.015,,080225,,,A,V*19
$GNGGA,100043.00,4843.26088,N,00920.55503,E,1,12,0.44,252.8,M,47.6,M,,*4D
$GPGSV,3,1,11,06,18,086,44,10,05,271,,11,09,118,,12,81,278,34,1*66
$GPGSV,3,2,11,15,06,181,33,17,07,036,28,19,32,051,47,24,62,134,47,1*68
$GPGSV,3,3,11,25,39,258,31,29,02,200,,32,30,309,39,1*5D
$GLGSV,3,1,10,65,28,228,37,66,41,290,32,67,13,341,40,74,15,081,41,1*7B
$GLGSV,3,2,10,75,61,045,47,76,42,290,35,77,00,274,,84,32,046,37,1*7F
$GLGSV,3,3,10,85,36,111,43,86,03,157,,1*79
$GAGSV,3,1,11,03,18,320,31,05,53,271,,06,18,175,36,09,37,191,43,7*75
$GAGSV,3,2,11,16,36,252,,23,09,067,,24,63,256,31,25,12,249,32,7*76
$GAGSV,3,3,11,26,14,043,32,31,59,061,40,33,15,092,43,7*41
$GBGSV,3,1,09,05,15,124,42,07,11,049,,10,23,054,40,19,14,218,35,1*72
$GBGSV,3,2,09,21,15,324,,22,29,271,34,27,41,097,44,28,24,047,47,1*76
$GBGSV,3,3,09,30,26,157,49,1*46
$GNRMC,100044.00,A,4843.26088,N,00920.55502,E,0.005,,080225,,,A,V*1E
$GNGGA,100044.00,4843.26088,N,00920.55502,E,1,12,0.44,252.8,M,47.6,M,,*4B
$GPGSV,3,1,11,06,18,086,43,10,05,271,,11,09,118,,12,81,278,35,1*60
$GPGSV,3,2,11,15,06,181,33,17,07,036,28,19,32,051,47,24,62,134,49,1*66
$GPGSV,3,3,11,25,39,258,31,29,02,20,,32,30,309,39,1*5D
$GLGSV,3,1,10,65,28,228,38,66,41,290,32,67,13,341,40,74,15,081,40,1*75
$GLGSV,3,2,10,75,61,045,46,76,42,290,35,77,00,274,,84,32,046,37,1*7E
$GLGSV,3,3,10,85,36,111,42,86,03,157,,1*78
$GAGSV,3,1,11,03,18,320,31,05,53,271,,06,18,175,36,09,37,191,43,7*75
$GAGSV,3,2,11,16,36,252,,23,09,067,,24,63,256,31,25,12,249,32,7*76
$GAGSV,3,3,11,26,14,043,32,31,59,061,40,33,15,092,42,7*40
$GBGSV,3,1,09,05,15,124,42,07,11,049,,10,23,054,40,19,14,218,35,1*72
$GBGSV,2,09,21,15,324,,22,29,271,35,27,41,097,44,28,24,047,47,1*77
$GBGSV,3,3,09,30,26,157,49,1*46
$GNRMC,100045.00,A,4843.26089,N,00920.55501,E,0.013,,080225,,,A,V*1A
$GNGGA,100045.00,4843.26089,N,00920.55501,E,1,12,0.44,252.8,M,47.6,M,,*48
$GPGSV,3,1,11,06,18,086,43,10,05,271,,11,09,118,,12,81,278,34,1*61
$GPGSV,3,2,11,15,06,181,34,17,07,036,28,19,32,051,47,24,62,13,48,1*60
$GPGSV,3,3,11,25,39,258,31,29,02,200,,32,30,309,39,1*5D
$GLGSV,3,1,10,65,28,228,38,66,41,290,34,67,13,341,40,74,15,081,40,1*73
$GLGSV,3,2,10,75,61,045,45,76,42,290,35,77,00,274,,84,32,046,37,1*7D
$GLGSV,3,3,10,85,36,111,41,86,03,157,,1*7B
$GAGSV,3,1,11,03,18,320,31,05,53,271,,06,18,175,35,09,37,191,43,7*76
$GAGSV,3,2,11,16,36,252,,23,09,067,,24,63,256,31,25,12,249,32,7*76
$GAGSV,3,3,11,26,14,043,32,31,59,061,39,33,15,092,43,7*4F
$GBGSV,3,1,09,05,15,124,42,07,11,049,,10,23,054,40,19,14,218,35,1*72
$GBGSV,3,2,09,21,15,324,,22,29,271,35,27,41,097,45,28,24,047,47,1*76
$GBGSV,3,3,09,30,2,157,49,1*46
$GNRMC,100046.00,A4843.26088,N,00920.55499,E,0.014,,080225,,,A,V*1F
$GNGGA,100046.00,4843.26088,N,00920.55499,E,1,12,0.45,252.8,M,47.6,M,,*4B
$GPGSV,3,1,11,06,18,086,43,10,05,271,,11,09,118,,12,81,278,34,1*61
$GPGSV,3,2,11,15,06,181,34,17,07,036,28,19,32,051,47,24,62,134,48,1*60
$GPGSV,3,3,11,25,39,258,31,29,02,200,,32,30,309,39,1*5D
$GLGSV,3,1,10,65,28,228,38,66,41,290,34,67,13,341,40,74,15,081,40,1*73
$GLGSV,3,2,10,75,61,045,46,76,42,290,35,77,00,274,,84,32,046,38,1*71
$GLGSV,3,3,10,85,36,111,43,86,03,157,,1*79
$GAGSV,3,1,11,03,18,320,31,05,53,271,,06,18,175,35,09,37,191,43,7*76
$GAGSV,3,2,11,16,36,252,,23,09,067,,24,63,256,31,25,12,249,32,7*76
$GAGSV,3,3,11,26,14,043,32,31,59,061,41,33,15,092,42,7*41
$GBGSV,3,1,09,05,15,124,42,07,11,049,,10,23,054,41,19,14,218,35,1*73
$GBGSV,3,2,09,21,15,324,,22,29,271,35,27,41,097,45,28,24,047,47,1*76
$GNRMC,100047.00,A,4843.26088,N,00920.55497,E,0.018,,080225,,,A,V*1C
$GNGGA,100047.00,4843.26088,N,00920.55497,E,1,12,0.44,252.8,M,47.6,M,,*45
$GPGSV,3,1,11,06,18,086,42,10,05,271,,11,09,118,,12,81,278,34,1*60
$GPGSV,3,2,11,15,06,181,33,17,07,036,28,19,32,051,47,24,62,134,49,1*66
$GPGSV,3,3,11,25,39,258,31,29,02,200,,32,30,309,39,1*5D
$GLGSV,3,1,10,65,28,228,39,66,41,290,35,67,13,341,40,74,15,081,39,1*7D
$GLGSV,3,2,10,75,61,045,44,76,42,290,35,77,00,274,,84,32,046,38,1*73
$GLGSV,3,3,10,85,36,111,43,86,03,157,,1*79
$GAGSV,3,1,11,03,18,320,31,05,53,271,,06,18,175,36,09,37,191,43,7*75
$GAGSV,3,2,11,16,36,252,,23,09,067,,24,63,256,31,25,12,249,32,7*76
$GAGSV,3,3,11,26,14,043,32,31,59,061,40,33,15,092,42,7*40
$GBGSV,3,2,09,21,15,324,,22,29,271,35,27,41,097,44,28,24,047,47,1*77
$GBGSV,3,3,09,30,26,157,48,1*47
$GNRMC,100048.00,A,4843.26088,N,00920.55496,E,0.008,,080225,,,A,V*13
$GNGGA,100048.00,4843.26088,N,00920.55496,E,1,12,0.44,252.8,M,47.6,M,,*4B
$GPGSV,3,1,11,06,18,086,42,10,05,271,,11,09,118,,12,81,278,34,1*60
$GPGSV,3,2,11,15,06,181,33,17,07,036,28,19,32,051,47,24,62,134,48,1*67
$GPGSV,3,3,11,25,39,258,31,29,02,200,,32,30,309,39,1*5D
$GLGSV,3,1,10,65,28,228,38,66,41,290,36,67,13,341,40,74,15,081,39,1*7F
$GLGSV,3,2,10,75,61,045,45,76,42,290,35,77,00,274,,84,32,046,38,1*72
$GLGSV,3,3,10,85,36,111,44,86,03,157,,1*7E
$GAGSV,3,1,11,03,18,320,31,05,53,271,,06,18,175,36,09,37,191,43,7*75
$GAGSV,3,2,11,16,36,252,,23,09,067,,24,63,256,31,25,12,249,32,7*76
$GAGSV,3,3,11,26,14,043,32,31,59,061,40,33,15,092,42,7*40
$GBGSV,3,1,09,05,15,124,42,07,11,049,,10,23,054,41,19,14,218,35,1*73
$GBGSV,3,2,09,21,15,324,,22,29,271,35,27,41,097,45,28,24,047,47,1*76
$GBGSV,3,3,09,30,26,157,49,1*46
$GNRMC,100049.00,A,4843.26088,N,00920.55495,E,0.011,,080225,,,A,V*19
$GNGGA,100049.00,4843.26088,N,00920.55495,E,1,12,0.44,252.8,M,47.6,M,,*49
$GPGSV,3,1,11,06,18,086,42,10,05,271,,11,09,118,,12,81,278,34,1*60
$GPGSV,3,2,11,15,06,181,33,17,07,036,28,19,32,051,47,24,62,134,48,1*67
$GPGSV,3,3,11,25,39,258,31,29,02,200,,32,30,309,38,1*5C
$GLGSV,3,1,10,65,28,228,38,66,41,290,37,67,13,341,40,74,15,081,39,1*7E
$GLGSV,3,2,10,75,61,045,43,76,42,290,36,77,00,274,,84,32,046,38,1*77
$GLGSV,3,3,10,85,36,111,44,86,03,157,,1*7E
$GAGSV,3,1,11,03,18,320,31,05,53,271,,06,18,175,36,09,37,191,43,7*75
$GAGSV,3,2,11,16,36,252,,23,09,067,,24,63,256,31,25,12,249,32,7*76
$GAGSV,3,3,11,26,14,043,31,31,59,061,40,33,15,092,42,7*43
$GBGSV,3,1,09,05,15,124,42,07,11,049,,10,23,054,40,19,14,218,35,1*72
$GBGSV,3,2,09,21,15,324,,22,29,271,36,27,41,097,45,28,24,047,47,1*75
$GBGSV,3,3,09,30,26,157,48,1*47
$GNRMC,100050.00,A,4843.26089,N,00920.55495,E,0.001,,080225,,,A,V*11
$GNGGA,100050.00,4843.26089,N,00920.55495,E,1,12,0.44,252.8,M,47.6,M,,*40
$GPGSV,3,1,11,06,18,086,42,10,05,271,,11,09,118,,12,81,278,34,1*60
$GPGSV,3,2,11,15,06,181,33,17,07,036,28,19,32,051,47,24,62,134,48,1*67
$GPGSV,3,3,11,25,39,258,31,29,02,200,,32,30,309,38,1*5C
$GLGSV,3,1,10,65,28,228,38,66,41,290,37,67,13,341,40,74,15,081,39,1*7E
$GLGSV,3,2,10,75,61,045,43,76,42,290,35,77,00,274,,84,32,046,38,1*74
$GLGSV,3,3,10,85,36,111,45,86,03,157,,1*7F
$GAGSV,3,1,11,03,18,320,31,05,53,271,,06,18,175,37,09,37,191,43,7*74
$GAGSV,3,2,11,16,36,252,,23,09,067,,24,63,256,31,25,12,249,32,7*76
$GAGSV,3,3,11,26,14,043,31,31,59,061,40,33,15,092,42,7*43
$GBGSV,3,1,09,05,15,124,42,07,11,049,,10,23,054,40,19,14,218,35,1*72
$GBGSV,3,2,09,21,15,324,,22,29,271,36,27,41,097,45,28,24,047,47,1*75
$GBGSV,3,3,09,30,26,157,48,1*47
$GNRMC,100051.00,A,4843.26090,N,00920.55497,E,0.006,,080225,,,A,V*1D
$GNGGA,100051.00,4843.26090,N,00920.55497,E,1,12,0.44,252.9,M,47.6,M,,*4A
$GPGSV,3,1,11,06,18,086,42,10,05,271,,11,09,118,,12,81,279,34,1*61
$GPGSV,3,2,11,15,06,181,33,17,07,036,28,19,32,051,47,24,62,134,48,1*67
$GPGSV,3,3,11,25,39,258,30,29,02,200,,32,30,309,38,1*5D
$GLGSV,3,1,10,65,28,228,38,66,41,290,37,67,13,341,40,74,15,081,39,1*7E
$GLGSV,3,2,10,75,61,045,46,76,42,290,35,77,00,274,,84,32,046,38,1*71
$GLGSV,3,3,10,85,36,111,45,86,03,157,,1*7F
$GAGSV,3,1,11,03,18,320,31,05,53,271,,06,18,175,37,09,37,191,43,7*74
$GAGSV,3,2,11,16,36,252,,23,09,067,,24,63,256,31,25,12,249,31,7*75
$GAGSV,3,3,11,26,14,043,31,31,59,061,40,33,15,092,42,7*43
$GBGSV,3,1,09,05,15,124,42,07,11,049,,10,23,054,41,19,14,218,35,1*73
$GBGSV,3,2,09,21,15,324,,22,29,271,36,27,41,097,45,28,24,047,47,1*75
$GBGSV,3,3,09,30,26,157,48,1*47
$GNRMC,100052.00,A,4843.26090,N,00920.55496,E,0.013,,080225,,,A,V*1B
$GNGGA,100052.00,4843.26090,N,00920.55496,E,1,12,0.45,252.8,M,47.6,M,,*48
$GPGSV,3,1,11,06,18,086,42,10,05,271,,11,09,118,,12,81,279,34,1*61
$GPGSV,3,2,11,15,06,181,33,17,07,036,28,19,32,051,47,24,62,134,49,1*66
$GPGSV,3,3,11,25,39,258,30,29,02,200,,32,30,309,38,1*5D
$GLGSV,3,1,10,65,28,228,39,66,41,290,38,67,13,341,40,74,15,081,40,1*7E
$GLGSV,3,2,10,75,61,045,47,76,42,290,34,77,00,274,,84,32,046,38,1*71
$GLGSV,3,3,10,85,36,111,45,86,03,157,,1*7F
$GAGSV,3,3,11,26,14,043,31,31,59,061,40,33,15,092,42,7*43
$GBGSV,3,1,09,05,15,124,42,07,11,049,,10,23,054,40,19,14,218,35,1*72
$GBGSV,3,2,09,21,15,324,,22,29,271,35,27,41,097,44,28,24,047,47,1*77
$GNGGA,100053.00,4843.26090,N,00920.55494,E,1,12,0.44,252.8,M,47.6,M,,*4A
$GPGSV,3,1,11,06,18,086,42,10,05,271,,11,09,118,,12,81,279,33,1*66
$GPGSV,3,2,11,15,06,181,33,17,07,036,28,19,32,051,47,24,62,134,48,1*67
$GPGSV,3,3,11,25,39,258,30,29,02,200,,32,30,309,38,1*5D
$GLGSV,3,1,10,65,28,228,39,66,41,290,39,67,13,341,40,74,15,081,40,1*7F
$GLGSV,3,2,10,75,61,045,48,76,42,290,34,77,00,274,,84,32,046,38,1*7E
$GLGSV,3,3,10,85,36,111,45,86,03,157,,1*7F
$GAGSV,3,1,11,03,18,320,31,05,53,271,,06,18,175,36,09,37,191,43,7*75
$GAGSV,3,2,11,16,36,252,,23,09,067,,24,63,256,31,25,12,249,31,7*75
$GAGSV,3,3,11,26,14,043,31,31,59,061,40,33,15,092,42,7*43
$GBGSV,3,1,09,05,15,124,42,07,11,049,,10,23,054,40,19,14,218,35,1*72
$GBGSV,3,2,09,21,15,324,,22,29,271,35,27,41,097,44,28,24,047,47,1*77
$GBGSV,3,3,09,30,26,157,48,1*47
$GNRMC,100054.00,A,4843.26091,N,00920.55493,E,0.002,,080225,,,A,V*19
$GNGGA,100054.00,4843.26091,N,00920.55493,E,1,12,0.44,252.8,M,47.6,M,,*4B
$GPGSV,3,1,11,06,18,086,42,10,05,271,,11,09,118,,12,81,279,33,1*66
$GPGSV,3,2,11,15,06,181,32,17,07,036,28,19,32,051,47,24,62,134,48,1*66
$GPGSV,3,3,11,25,39,258,29,29,02,200,,32,30,309,38,1*55
$GLGSV,3,1,10,65,28,228,39,66,41,290,39,67,13,341,40,74,15,081,41,1*7E
$GLGSV,3,2,10,75,61,045,47,76,42,290,33,77,00,274,,84,32,046,38,1*76
$GLGSV,3,3,10,85,36,111,45,86,03,157,,1*7F
$GAGSV,3,1,11,03,18,320,30,05,53,271,,06,18,175,36,09,37,191,43,7*74
$GAGSV,3,2,11,16,36,252,,23,09,067,,24,63,256,31,25,12,249,31,7*75
$GAGSV,3,3,11,26,14,043,31,31,59,061,41,33,15,092,42,7*42
$GBGSV,3,1,9,05,15,124,43,07,11,049,,10,23,054,40,19,14,218,35,1*73
$GBGSV,3,2,09,21,15,324,,22,29,271,35,27,41,097,44,28,24,047,47,1*77
$GBGSV,3,3,09,30,26,157,48,1*47
$GNRMC,100055.00,A,4843.26091,N,00920.55492,E,0.012,,080225,,,A,V*18
$GNGGA,100055.00,4843.26091,N,00920.55492,E,1,12,0.44,252.8,M,47.6,M,,*4B
$GPGSV,3,1,11,06,18,086,42,10,05,271,,11,09,118,,12,81,279,33,1*66
$GPGSV,3,2,11,15,06,181,32,17,07,036,29,19,32,051,47,24,62,134,49,1*66
$GPGSV,3,3,11,25,39,258,30,29,02,200,,32,30,309,38,1*5D
$GLGSV,3,1,10,65,28,228,38,66,41,290,39,67,13,341,40,74,15,081,41,1*7F
$GLGSV,3,2,10,75,61,045,47,76,42,290,32,77,00,74,,84,32,046,38,1*77
$GLGSV,3,3,10,85,36,111,45,86,03,157,,1*7F
$GAGSV,3,1,11,03,18,320,30,05,53,271,,06,18,175,37,09,37,191,43,7*75
$GAGSV,3,2,11,16,36,252,,23,09,067,,24,63,256,31,25,12,249,31,7*75
$GAGSV,3,3,11,26,14,043,31,31,59,061,40,33,15,092,42,7*43
$GBGSV,3,1,09,05,15,124,42,07,11,049,,10,23,054,41,19,14,218,35,1*73
$GBGSV,3,2,09,21,15,324,,22,29,271,36,27,41,097,45,28,24,047,47,1*75
$GBGSV,3,3,0,30,26,157,48,1*47
$GNRMC,100056.00,A,4843.26092,N,00920.55492,E,0.006,,080225,,,A,V*1D
$GNGGA,100056.00,4843.26092,N,00920.55492,E,1,12,0.44,252.7,M,47.6,M,,*44
$GPGSV,3,1,11,06,18,086,42,10,05,271,,11,09,118,,12,81,279,32,1*67
$GPGSV,3,2,11,15,06,181,32,17,06,036,29,19,32,051,47,24,62,134,50,1*6F
$GPGSV,3,3,11,25,40,258,30,29,02,200,,32,30,309,39,1*52
$GLGSV,3,1,10,65,28,228,39,66,41,290,40,67,13,341,40,74,15,081,41,1*70
$GLGSV,3,2,10,75,61,045,47,76,42,290,32,77,00,274,,84,32,046,39,1*76
$GLGSV,3,3,10,85,36,111,45,86,03,157,,1*7F
$GAGSV,3,1,11,03,18,320,30,05,53,271,,06,18,175,37,09,37,191,43,7*75
$GAGSV,3,2,11,16,36,252,,23,09,067,,24,63,256,32,25,12,249,32,7*75
$GAGSV,3,3,11,26,14,043,30,31,59,061,40,33,15,092,42,7*42
$GBGSV,3,1,09,05,15,124,42,07,11,049,,10,23,054,41,19,14,218,35,1*73
$GBGSV,3,2,09,21,15,324,,22,29,271,36,27,41,097,45,28,24,047,47,1*75
$GBGSV,3,3,09,30,26,157,48,1*47
$GNGGA,100057.00,4843.26093,N,00920.55494,E,1,12,0.44,252.7,M,47.6,M,,*42
$GPGSV,3,1,11,06,18,086,42,10,05,271,,11,09,118,,12,81,279,32,1*67
$GPGSV,3,2,11,15,06,181,32,17,06,036,29,19,32,051,47,24,62,134,49,1*67
$GPGSV,3,3,11,25,40,258,30,29,02,200,,32,30,309,38,1*53
$GLGSV,3,1,10,65,28,228,39,66,41,290,40,67,13,341,40,74,15,081,41,1*70
$GLGSV,3,2,10,75,61,045,47,76,42,290,31,77,00,274,,84,32,046,38,1*74
$GLGSV,3,3,10,85,36,111,45,86,03,157,,1*7F
$GAGSV,3,1,11,03,18,320,30,05,53,271,,06,18,175,37,09,37,191,43,7*75
$GAGSV,3,2,11,16,36,252,,23,09,067,,24,63,256,32,25,12,249,32,7*75
$GAGSV,3,3,11,26,14,043,30,31,59,061,41,33,15,092,41,7*40
$GBGSV,3,1,09,05,15,124,42,07,11,049,,10,23,054,41,19,14,218,35,1*73
$GBGSV,3,2,09,21,15,324,,22,29,271,36,27,41,097,45,28,24,047,47,1*75
$GBGSV,3,3,09,30,26,157,47,1*48
$GNRMC,100058.00,A,4843.26092,N,00920.55494,E,0.027,,080225,,,A,V*16
$GNGGA,100058.00,4843.26092,N,00920.55494,E,1,12,0.45,252.7,M,47.6,M,,*4D
$GPGSV,3,1,11,06,18,086,42,10,05,271,,11,09,118,,12,81,279,31,1*64
$GPGSV,3,2,11,15,06,181,32,17,06,036,29,19,31,051,47,24,62,134,49,1*64
$GPGSV,3,3,11,25,40,258,31,29,02,200,,32,30,309,39,1*53
$GLGSV,3,1,10,65,28,228,38,66,41,290,40,67,13,341,41,74,15,081,41,1*70
$GLGSV,3,2,10,75,61,045,47,76,42,290,31,77,00,274,,84,32,046,38,1*74
$GLGSV,3,3,10,85,36,111,45,86,03,157,,1*7F
$GAGSV,3,1,11,03,18,320,30,05,53,271,,06,18,175,37,09,37,191,43,7*75
$GAGSV,3,2,11,16,36,252,,23,09,067,,24,63,256,32,25,12,249,32,7*75
$GAGSV,3,3,11,26,14,043,30,31,59,061,41,33,15,092,41,7*40
$GBGSV,3,1,09,05,15,124,42,07,11,049,,10,23,054,41,19,14,218,34,1*72
$GBGSV,3,2,09,21,15,324,,22,29,271,36,27,41,097,45,28,24,047,47,1*75
$GBGSV,3,3,09,30,26,157,47,1*48
$GNRMC,100059.00,A,4843.26092,N,00920.55493,E,0.018,,080225,,,A,V*1C
$GNGGA,100059.00,4843.26092,N,00920.55493,E,1,12,0.44,252.7,M,47.6,M,,*4A
$GPGSV,3,1,11,06,18,086,42,10,05,271,,11,09,118,,12,81,279,30,1*65
$GPGSV,3,2,11,15,06,181,31,17,06,036,29,19,31,051,47,24,62,134,48,1*66
$GPGSV,3,3,11,25,40,258,32,29,02,200,,32,30,309,39,1*50
$GLGSV,3,1,10,65,28,228,40,66,41,290,40,67,13,341,41,74,15,081,41,1*7F
$GLGSV,3,2,10,75,61,045,48,76,42,290,31,77,00,274,,84,32,046,38,1*7B
$GLGSV,3,3,10,85,36,111,46,86,03,157,,1*7C
$GAGSV,3,1,11,03,18,320,30,05,53,271,,06,18,175,37,09,37,191,42,7*74
$GAGSV,3,2,11,16,36,252,,23,09,067,,24,63,256,33,25,12,249,33,7*75
$GAGSV,3,3,11,26,14,043,31,31,59,061,41,33,15,092,41,7*41
$GBGSV,3,1,09,05,15,124,43,07,11,049,,10,23,054,41,19,14,218,35,1*72
$GBGSV,3,2,09,21,15,324,,22,29,271,36,27,41,097,46,28,24,047,47,1*76
$GBGSV,3,3,09,30,26,157,46,1*49
$GNRMC,100100.00,A,4843.26092,N,00920.55493,E,0.005,,080225,,,A,V*1D
$GNGGA,100100.00,4843.26092,N,00920.55493,E,1,12,0.44,252.6,M,47.6,M,,*46
$GPGSV,3,1,11,06,18,086,43,10,05,271,,11,09,118,,12,81,279,31,1*65
$GPGSV,3,2,11,15,06,181,32,17,06,036,30,19,31,051,47,24,62,134,49,1*6C
$GPGSV,3,3,11,25,40,258,32,29,02,200,,32,30,309,39,1*50
$GLGSV,3,1,10,65,28,228,38,66,41,290,40,67,13,341,41,74,15,081,42,1*73
$GLGSV,3,2,10,75,61,045,46,76,42,290,32,77,00,274,,84,32,046,38,1*76
$GLGSV,3,3,10,85,36,111,46,86,03,157,,1*7C
$GAGSV,3,1,11,03,18,320,29,05,53,271,,06,18,175,37,09,37,191,42,7*7C
$GAGSV,3,2,11,16,36,252,,23,09,067,,24,63,256,33,25,12,249,32,7*74
$GAGSV,3,3,11,26,14,043,31,31,59,061,39,33,15,092,41,7*4E
$GBGSV,3,1,09,05,15,124,43,07,11,049,,10,23,054,41,19,14,218,35,1*72
$GBGSV,3,2,09,21,15,324,,22,29,271,36,27,41,097,47,28,24,047,47,1*77
$GBGSV,3,3,09,30,26,157,46,1*49
$GNRMC,100101.00,A,4843.26091,N,00920.55494,E,0.020,,080225,,,A,V*1F
$GNGGA,100101.00,4843.26091,N,00920.55494,E,1,12,0.44,252.5,M,47.6,M,,*40
$GPGSV,3,1,11,06,18,086,43,10,05,271,,11,09,118,,12,81,279,31,1*65
$GPGSV,3,2,11,15,06,181,31,17,06,036,29,19,31,051,47,24,62,134,49,1*67
$GPGSV,3,3,11,25,40,258,33,29,02,200,,32,30,309,38,1*50
$GLGSV,3,1,10,65,28,228,38,66,41,290,40,67,13,341,40,74,15,081,42,1*72
$GLGSV,3,2,10,75,61,045,46,76,42,290,33,77,00,274,,84,32,046,38,1*77
$GLGSV,3,3,10,85,36,111,47,86,03,157,,1*7D
$GAGSV,3,1,11,03,18,320,29,05,53,271,,06,18,175,37,09,37,191,42,7*7C
$GAGSV,3,2,11,16,36,252,,23,09,067,,24,63,256,33,25,12,249,32,7*74
$GAGSV,3,3,11,26,14,043,31,31,59,061,40,33,15,092,42,7*43
$GBGSV,3,1,09,05,15,124,43,07,11,049,,10,23,054,41,19,14,218,36,1*71
$GBGSV,3,2,09,21,15,324,,22,29,271,36,27,41,097,46,28,24,047,47,1*76
$GBGSV,3,3,09,30,26,157,46,1*49
$GNRMC,100102.00,A,4843.26091,N,00920.55494,E,0.006,,080225,,,A,V*18
$GNGGA,100102.00,4843.26091,N,00920.55494,E,1,12,0.44,252.5,M,47.6,M,,*43
$GPGSV,3,1,11,06,18,086,44,10,05,271,,11,09,118,,12,81,279,31,1*62
$GPGSV,3,2,11,15,06,181,31,17,06,036,29,19,31,051,47,24,61,134,49,1*64
$GPGSV,3,3,11,25,40,258,33,29,02,200,,32,30,309,38,1*50
$GLGSV,3,1,10,65,28,228,38,66,41,290,39,67,13,341,40,74,15,081,42,1*7C
$GLGSV,3,2,10,75,61,045,47,76,42,290,33,77,00,274,,84,32,046,38,1*76
$GLGSV,3,3,10,85,36,111,47,86,03,157,,1*7D
$GAGSV,3,1,11,03,18,320,29,05,53,271,,06,18,175,37,09,37,191,42,7*7C
$GAGSV,3,2,11,16,36,252,,23,09,067,,24,63,256,33,25,12,249,32,7*74
$GAGSV,3,3,11,26,14,043,32,31,59,061,41,33,15,092,41,7*42
$GBGSV,3,1,09,05,15,124,43,07,11,049,,10,23,054,41,19,14,218,36,1*71
$GBGSV,3,2,09,21,15,324,,22,29,271,36,27,41,097,46,28,24,047,47,1*76
$GBGSV,3,3,09,30,26,157,46,1*49
$GNRMC,100103.00,A,4843.26091,N,00920.55496,E,0.008,,080225,,,A,V*15
$GNGGA,100103.00,4843.26091,N,00920.55496,E,1,12,0.44,252.4,M,47.6,M,,*41
$GPGSV,3,1,11,06,18,086,44,10,05,271,,11,09,118,,12,81,279,32,1*61
$GPGSV,3,2,11,15,06,181,31,17,06,036,29,19,31,051,47,24,61,134,49,1*64
$GPGSV,3,3,11,25,40,258,34,29,02,200,,32,30,309,38,1*57
$GLGSV,3,1,10,65,28,228,39,66,41,290,39,67,13,341,40,74,15,081,42,1*7D
$GLGSV,3,2,10,75,61,045,44,76,42,290,33,77,00,274,,84,32,046,37,1*7A
$GLGSV,3,3,10,85,36,111,47,86,03,157,,1*7D
$GAGSV,3,1,11,03,18,320,29,05,53,271,,06,18,175,37,09,37,191,42,7*7C
$GAGSV,3,2,11,16,36,252,,23,09,067,,24,63,256,33,25,12,249,33,7*75
$GAGSV,3,3,11,26,14,043,32,31,59,061,42,33,15,092,41,7*41
$GBGSV,3,1,09,05,15,124,43,07,11,049,,0,23,054,41,19,14,218,35,1*72
$GBGSV,3,2,09,21,15,324,,22,29,271,36,27,41,097,46,28,24,047,47,1*76
$GBGSV,3,3,09,30,26,157,47,1*48
$GNRMC,100104.00,A,4843.26090,N,00920.55495,E,0.015,,080225,,,A,V*1C
$GNGGA,100104.00,4843.26090,N,00920.55495,E,1,12,0.4,252.4,M,47.6,M,,*45
$GPGSV,3,1,11,06,18,086,44,10,05,271,,11,09,118,,12,81,279,32,1*61
$GPGSV,3,2,11,15,06,181,31,17,06,036,29,19,31,051,47,24,61,134,48,1*65
$GPGSV,3,3,11,25,40,258,34,29,02,200,,32,30,309,39,1*56
$GLGSV,3,1,10,65,28,228,39,66,41,290,40,67,13,341,40,74,15,081,42,1*73
$GLGSV,3,2,10,75,61,045,45,76,42,290,34,77,00,274,,84,32,046,37,1*7C
$GLGSV,3,3,10,85,36,111,47,86,03,157,,1*7D
$GAGSV,3,1,11,03,18,320,29,05,53,271,,06,18,175,38,09,37,191,41,7*70
$GAGSV,3,2,11,16,36,252,,23,09,067,,24,63,256,33,25,12,249,33,7*75
$GAGSV,3,3,11,26,14,043,32,31,59,061,42,33,15,092,41,7*41
$GBGSV,3,1,09,05,15,124,43,07,11,049,,10,23,054,41,19,14,218,36,1*71
$GBGSV,3,2,09,21,15,324,,22,29,271,36,27,41,097,46,28,24,047,47,1*76
$GBGSV,3,3,09,30,26,157,46,1*49
$GNRMC,100105.00,A,4843.26089,N,00920.55495,E,0.012,,080225,,,A,V*12
$GNGGA,100105.00,4843.26089,N,00920.55495,E,1,12,0.44,252.3,M,47.6,M,,*4A
$GPGSV,3,1,11,06,18,086,44,10,05,271,,11,09,118,,12,81,279,33,1*60
$GPGSV,3,2,11,15,06,181,31,17,06,036,29,19,31,051,47,24,61,134,48,1*65
$GPGSV,3,3,11,25,40,258,34,29,02,200,,32,30,309,38,1*57
$GLGSV,3,1,10,65,28,228,38,66,41,290,40,67,13,341,40,74,15,081,42,1*72
$GLGSV,3,2,10,75,61,045,45,76,42,290,35,77,00,274,,84,32,046,37,1*7D
$GLGSV,3,3,10,85,36,111,46,86,03,157,,1*7C
$GAGSV,3,1,11,03,18,320,28,05,53,271,,06,18,175,38,09,37,191,41,7*71
$GAGSV,3,2,11,16,36,252,,23,09,067,,24,63,256,34,25,12,249,33,7*72
$GAGSV,3,3,11,26,14,043,32,31,59,061,41,33,15,092,41,7*42
$GBGSV,3,1,09,05,15,124,43,07,11,049,,10,23,054,41,19,14,218,36,1*71
$GBGSV,3,2,09,21,15,324,,22,29,271,36,27,41,097,46,28,24,047,47,1*76
$GBGSV,3,3,09,30,26,157,46,1*49
$GNRMC,100106.00,A,4843.26088,N,00920.55494,E,0.012,,080225,,,A,V*11
$GNGGA,100106.00,4843.26088,N,00920.55494,E,1,12,0.44,252.3,M,47.6,M,,*49
$GPGSV,3,1,11,06,18,086,44,10,05,271,,11,09,118,,12,81,279,33,1*60
$GPGSV,3,2,11,15,06,181,30,17,06,036,29,19,31,051,48,24,61,134,47,1*64
$GPGSV,3,3,11,25,40,258,5,29,02,200,,32,30,309,38,1*56
$GLGSV,3,1,10,65,28,228,38,66,41,290,39,67,13,341,40,74,15,081,42,1*7C
$GLGSV,3,2,10,75,61,045,46,76,42,290,35,77,00,274,,84,32,046,38,1*71
$GLGSV,3,3,10,85,36,111,46,86,03,157,,1*7C
$GAGSV,3,1,11,03,18,320,28,05,53,271,,06,18,175,38,09,37,191,41,7*71
$GAGSV,3,2,11,16,36,252,,23,09,067,,24,63,256,34,25,12,249,33,7*72
$GAGSV,3,3,11,26,14,043,32,31,59,061,42,33,15,092,41,7*41
$GBGSV,3,1,09,05,15,124,43,07,11,049,,10,23,054,41,19,14,218,36,1*71
$GBGSV,3,2,09,21,15,324,,22,29,271,36,27,41,097,46,28,24,047,47,1*76
$GBGSV,3,3,09,30,26,157,46,1*49
$GNRMC,100107.00,A,4843.26087,N,00920.55494,E,0.012,,080225,,,A,V*1F
$GNGGA,100107.00,4843.26087,N,00920.55494,E,1,12,0.44,252.3,M,47.6,M,,*47
$GPGSV,3,2,11,15,06,181,30,17,06,036,29,19,31,051,48,24,61,134,48,1*6B
$GPGSV,3,3,11,25,40,258,35,29,03,200,,32,30,309,39,1*56
$GLGSV,3,1,10,65,28,228,38,66,41,290,38,67,13,341,40,74,15,081,43,1*7C
$GLGSV,3,2,10,75,61,045,46,76,42,290,36,77,00,274,,84,32,046,38,1*72
$GLGSV,3,3,10,85,36,111,46,86,03,157,,1*7C
$GAGSV,3,1,11,03,18,320,28,05,53,271,,06,18,175,38,09,37,191,41,7*71
$GAGSV,3,2,11,16,36,252,,23,09,067,,24,63,256,34,25,12,249,33,7*72
$GAGSV,3,3,11,26,14,043,32,31,59,061,42,33,15,092,41,7*41
$GBGSV,3,1,09,05,15,124,43,07,11,049,,10,23,054,41,19,14,218,35,1*72
$GBGSV,3,2,09,21,15,324,,22,29,271,37,27,41,097,46,28,24,047,47,1*77
$GBGSV,3,3,09,30,26,157,46,1*49
$GNRMC,100108.00,A,4843.26086,N,00920.55493,E,0.014,,080225,,,A,V*10
$GNGGA,100108.00,4843.26086,N,00920.55493,E,1,12,0.44,252.2,M,47.6,M,,*4F
$GPGSV,3,1,11,06,18,086,44,10,05,271,,11,09,118,,12,81,279,34,1*67
$GPGSV,3,2,11,15,06,181,30,17,06,036,29,19,31,051,47,24,61,134,47,1*6B
$GPGSV,3,3,11,25,40,258,35,29,03,200,,32,30,309,39,1*56
$GLGSV,3,1,10,65,28,228,37,66,41,290,34,67,13,341,39,74,15,081,42,1*70
$GLGSV,3,2,10,75,61,04543,76,42,290,36,77,00,274,,84,32,046,38,1*77
$GLGSV,3,3,10,85,36,111,45,86,03,157,,1*7F
$GAGSV,3,1,11,03,18,320,29,05,53,271,,06,18,175,36,09,37,191,41,7*7E
$GAGSV,3,2,11,16,36,252,,23,09,067,,24,63,256,35,25,12,249,37,7*77
$GAGSV,3,3,11,26,14,043,33,31,59,061,43,33,15,092,41,7*41
$GBGSV,3,1,09,05,15,124,43,07,11,049,,10,23,054,41,19,14,218,35,1*72
