$GNRMC,134436.00,A,4843.26047,N,00920.55517,E,0.050,,070225,,,A,V*10
$GNGGA,134436.00,4843.26047,N,00920.55517,E,1,12,0.68,257.4,M,47.6,M,,*4D
$GPGSV,2,1,08,04,,,25,05,17,087,41,12,06,113,50,16,10,294,36,1*5A
$GPGSV,2,2,08,18,39,175,46,20,17,051,46,25,42,118,46,29,74,054,42,1*68
$GLGSV,2,1,08,68,10,334,39,69,06,020,45,75,22,136,47,76,84,120,45,1*72
$GLGSV,2,2,08,77,45,319,39,85,33,037,45,86,81,145,43,,,,39,1*42
$GAGSV,1,1,04,02,,,40,15,30,178,43,34,,,39,36,,,44,7*47
$GBGSV,2,1,08,02,,,30,05,16,123,43,08,,,42,13,,,47,1*46
$GBGSV,2,2,08,24,,,41,26,,,39,29,30,054,47,35,81,157,43,1*72
$GNRMC,134437.00,A,4843.26055,N,00920.55514,E,0.020,,070225,,,A,V*16
$GNGGA,134437.00,4843.26055,N,00920.55514,E,1,12,0.68,257.5,M,47.6,M,,*4D
$GPGSV,2,1,08,04,,,25,05,17,087,41,12,06,113,50,16,10,294,37,1*5B
$GPGSV,2,2,08,18,39,175,47,20,17,051,46,25,42,118,46,29,74,054,39,1*65
$GLGSV,2,1,08,68,10,334,32,69,06,020,45,75,22,136,48,76,84,120,43,1*70
$GLGSV,2,2,08,77,45,319,39,85,33,037,45,86,81,145,40,,,,38,1*40
$GAGSV,1,1,04,02,,,39,15,30,178,43,34,,,34,36,,,43,7*43
$GBGSV,2,1,08,02,,,30,05,16,123,43,08,,,42,13,,,47,1*46
$GBGSV,2,2,08,24,,,41,26,,,40,29,30,054,47,35,81,157,42,1*7D
$GNRMC,134438.00,A,4843.26063,N,00920.55514,E,0.004,,070225,,,A,V*1A
$GNGGA,134438.00,4843.26063,N,00920.55514,E,1,12,0.68,257.6,M,47.6,M,,*44
$GPGSV,2,1,08,04,,,30,05,17,087,42,12,06,113,49,16,10,294,37,1*54
$GPGSV,2,2,08,18,39,175,46,20,17,051,46,25,42,118,47,29,74,054,39,1*65
$GLGSV,2,1,08,68,10,334,40,69,06,020,46,75,22,136,49,76,84,120,43,1*77
$GLGSV,2,2,08,77,45,319,39,85,33,037,45,86,81,145,43,,,,38,1*43
$GAGSV,1,1,04,02,,,40,15,30,178,43,34,,,36,36,,,43,7*4F
$GBGSV,2,1,08,02,,,29,05,16,123,43,08,,,42,13,,,47,1*4E
$GBGSV,2,2,08,24,,,41,26,,,39,29,30,054,47,35,81,157,42,1*73
$GNRMC,134439.00,A,4843.26065,N,00920.55502,E,0.012,,070225,,,A,V*1D
$GNGGA,134439.00,4843.26065,N,00920.55502,E,1,12,0.64,257.9,M,47.6,M,,*47
$GPGSV,2,1,08,04,,,29,05,17,087,42,12,06,113,49,16,10,294,36,1*5D
$GPGSV,2,2,08,18,39,175,46,20,17,051,45,25,42,118,47,29,74,054,40,1*68
$GLGSV,2,1,08,68,10,334,40,69,06,020,47,75,22,136,49,76,84,120,43,1*76
$GLGSV,2,2,08,77,45,319,39,85,33,037,45,86,81,145,42,,,,38,1*42
$GAGSV,1,1,04,02,,,40,15,30,178,43,34,,,38,36,,,43,7*41
$GBGSV,2,1,08,02,,,29,05,16,123,43,08,,,42,13,,,47,1*4E
$GBGSV,2,2,08,24,,,41,26,,,40,29,30,054,47,35,81,157,41,1*7E
$GNRMC,134440.00,A,4843.26068,N,00920.55492,E,0.077,,070225,,,A,V*15
$GNGGA,134440.00,4843.26068,N,00920.55492,E,1,12,0.64,258.0,M,47.6,M,,*4A
$GPGSV,2,1,08,04,,,33,05,17,087,41,12,06,113,49,16,10,294,35,1*56
$GPGSV,2,2,08,18,39,175,47,20,17,051,44,25,42,118,45,29,74,054,40,1*6A
$GLGSV,2,1,08,68,10,334,41,69,06,020,47,75,22,136,49,76,84,120,44,1*70
$GLGSV,2,2,08,77,45,319,39,85,33,037,45,86,81,145,43,,,,8,1*43
$GAGSV,1,1,04,02,,,40,15,30,178,42,34,,,40,36,,,43,7*4F
$GBGSV,2,1,08,02,,,29,05,16,123,43,08,28,071,42,13,28,080,47,1*40
$GBGSV,2,2,08,24,,,42,26,71,196,40,29,30,054,46,35,81,157,43,1*46
$GNRMC,134441.00,A,4843.26071,N,00920.55483,E,0.011,,070225,,,A,V*1C
$GNGGA,134441.00,4843.26071,N,00920.55483,E,1,12,0.63,258.2,M,47.6,M,,*46
$GPGSV,2,1,08,04,,,28,05,17,087,42,12,06,113,49,16,10,294,35,1*5F
$GPGSV,2,2,08,18,39,175,47,20,17,051,44,25,42,118,47,29,74,054,37,1*68
$GLGSV,2,1,08,68,10,334,41,69,06,020,47,75,22,136,50,76,84,120,43,1*7F
$GLGSV,2,2,08,77,45,319,39,85,33,037,46,86,81,145,43,,,,38,1*40
$GAGSV,1,1,04,02,,,41,15,30,178,42,34,,,40,36,,,44,7*49
$GBGSV,2,1,08,02,,,29,05,16,123,43,08,28,071,42,13,28,080,46,1*41
$GBGSV,2,2,08,24,,,41,26,71,196,40,29,30,054,47,35,81,157,41,1*46
$GNRMC,134442.00,A,4843.26074,N,00920.55474,E,0.024,,070225,,,A,V*14
$GNGGA,134442.00,4843.26074,N,00920.55474,E,1,12,0.63,258.3,M,47.6,M,,*49
$GPGSV,2,1,08,04,,,31,05,17,087,41,12,06,113,49,16,10,294,35,1*54
$GPGSV,2,2,08,18,39,175,47,20,17,051,45,25,42,118,46,29,74,054,39,1*66
$GLGSV,2,1,08,68,10,334,33,69,06,020,46,75,22,136,50,76,84,120,43,1*7B
$GLGSV,2,2,08,77,45,319,9,85,33,037,46,86,81,145,44,,,,40,1*48
$GAGSV,1,1,04,02,23,111,40,15,30,178,42,34,,,39,36,,,43,7*71
$GBGSV,2,1,08,02,,,29,05,16,123,43,08,28,071,42,13,28,080,47,1*40
$GBGSV,2,2,08,24,,,41,26,71,196,40,29,30,054,47,35,81,157,42,1*45
$GNRMC,134443.00,A,4843.26075,N,00920.55468,E,0.017,,070225,,,A,V*19
$GNGGA,134443.00,4843.26075,N,00920.55468,E,1,12,0.63,258.5,M,47.6,M,,*42
$GPGSV,2,1,08,04,,,30,05,17,087,42,12,06,113,49,16,10,294,36,1*55
$GPGSV,2,2,08,18,39,175,47,20,17,051,45,25,42,118,46,29,74,054,39,1*66
$GLGSV,2,1,08,68,10,334,39,69,06,020,46,75,22,136,50,76,84,120,41,1*73
$GLGSV,2,2,08,77,45,319,9,85,33,037,46,86,81,145,43,,,,38,1*40
$GAGSV,1,1,04,02,23,111,41,15,30,178,42,34,,,38,36,,,43,7*71
$GBGSV,2,1,08,02,,,29,05,16,123,43,08,28,071,42,13,28,080,47,1*40
$GBGSV,2,2,08,24,,,41,26,71,196,40,29,30,054,47,35,81,157,41,1*46
$GNRMC,134444.00,A,4843.26077,N,00920.55465,E,0.024,,070225,,,A,V*11
$GNGGA,134444.00,4843.26077,N,00920.55465,E,1,12,0.63,258.7,M,47.6,M,,*48
$GPGSV,2,1,08,04,,,28,05,17,087,42,12,06,113,49,16,10,294,32,1*58
$GPGSV,2,2,08,18,39,175,48,20,17,051,45,25,42,118,46,29,74,054,40,1*67
$GLGSV,2,1,08,68,10,334,41,69,06,020,46,75,22,136,49,76,84,120,44,1*71
$GLGSV,2,2,08,77,45,319,38,85,33,037,47,86,81,145,41,,,,40,1*4D
$GAGSV,1,1,04,02,23,111,41,15,30,178,43,34,,,39,36,,,437*71
$GBGSV,2,1,08,02,,,29,05,16,123,42,08,28,071,42,13,28,080,47,1*41
$GBGSV,2,2,08,24,,,41,26,71,196,40,29,30,054,47,35,81,157,42,1*45
$GNRMC,134445.00,A,4843.2607,N,00920.55462,E,0.046,,070225,,,A,V*1D
$GNGGA,134445.00,4843.26079,N,00920.55462,E,1,12,0.63,258.9,M,47.6,M,,*4E
$GPGSV,2,1,08,04,,,27,05,17,087,41,12,06,113,49,16,10,294,35,1*53
$GPGSV,2,2,08,18,39,175,47,20,17,051,45,25,42,118,46,29,74,054,41,1*69
$GLGSV,2,1,08,68,10,334,37,69,06,020,46,75,22,136,49,76,84,120,41,1*75
$GLGSV,2,2,08,77,45,319,39,85,33,037,47,86,81,145,43,,,,40,1*4E
$GAGSV,2,1,05,02,23,111,41,15,30,178,42,19,,,32,34,,,39,7*79
$GAGSV,2,2,05,36,,,43,7*74
$GBGSV,2,1,08,02,,,29,05,16,123,43,08,28,071,42,13,28,080,47,1*40
$GBGSV,2,2,08,24,,,41,26,71,196,40,29,30,054,47,35,81,157,42,1*45
$GNRMC,134446.00,A,4843.26080,N,00920.55464,E,0.021,,070225,,,A,V*1F
$GNGGA,134446.00,4843.26080,N,00920.55464,E,1,12,0.63,259.1,M,47.6,M,,*44
$GPGSV,2,1,08,04,,,28,05,17,087,42,12,06,113,49,16,10,294,34,1*5E
$GPGSV,2,2,08,18,39,175,48,20,17,051,45,25,42,118,45,29,74,054,39,1*6A
$GLGSV,2,1,08,68,10,334,39,69,06,020,45,75,22,136,50,76,84,120,42,1*73
$GLGSV,2,2,08,77,45,319,38,85,33,037,47,86,81,145,42,,,,41,1*4F
$GAGSV,2,1,05,02,23,111,41,15,30,178,43,19,,,31,34,,,37,7*75
$GAGSV,2,2,05,36,,,43,7*74
$GBGSV,2,1,08,02,,,29,05,16,123,42,08,28,071,42,13,28,080,47,1*41
$GBGSV,2,2,08,24,,,41,26,71,196,41,29,30,054,47,35,81,157,42,1*44
$GNRMC,134447.00,A,4843.26084,N,00920.55472,E,0.017,,070225,,,A,V*18
$GNGGA,134447.00,4843.26084,N,00920.55472,E,1,12,0.63,259.4,M,47.6,M,,*43
$GPGSV,2,1,08,04,,,32,05,17,087,41,12,06,113,48,16,10,294,35,1*56
$GPGSV,2,2,08,18,39,175,47,20,17,051,44,25,42,118,44,29,74,054,39,1*65
$GLGSV,2,1,08,68,10,334,39,69,06,020,44,75,22,136,48,76,84,120,43,1*7A
$GLGSV,2,2,08,77,45,319,37,85,33,037,44,86,81,145,40,,,,38,1*4F
$GAGSV,2,1,05,02,23,111,41,15,30,178,43,19,,,30,34,,,38,7*7B
$GAGSV,2,2,05,36,,,43,7*74
$GBGSV,2,1,07,05,16,123,42,08,28,071,42,13,28,080,47,24,,,40,1*45
$GBGSV,2,2,07,26,71,196,41,29,30,054,47,35,81,157,41,1*4B
$GNRMC,134448.00,A,4843.26088,N,00920.55481,E,0.017,,070225,,,A,V*17
$GNGGA,134448.00,4843.26088,N,00920.55481,E,1,12,0.63,259.6,M,47.6,M,,*4E
$GPGSV,2,1,08,04,,,30,05,17,087,41,12,06,113,48,16,10,294,35,1*54
$GPGSV,2,2,08,18,39,175,47,20,17,051,44,25,42,118,45,29,74,054,39,1*64
$GLGSV,2,1,08,68,10,334,39,69,06,020,45,75,22,136,48,76,84,120,41,1*79
$GLGSV,2,2,08,77,45,319,37,85,33,037,45,86,81,145,39,,,,40,1*4F
$GAGSV,2,1,05,02,23,111,41,15,30,178,43,19,,,30,34,,,38,7*7B
$GAGSV,2,2,05,36,,,43,7*74
$GBGSV,2,1,07,05,16,123,43,08,28,071,41,13,28,080,47,24,,,40,1*47
$GBGSV,2,2,07,26,71,196,41,29,30,054,47,35,81,157,41,1*4B
$GNGGA,134449.00,4843.26090,N,00920.55489,E,1,12,0.61,259.8,M,47.6,M,,*42
$GPGSV,2,1,08,04,,,30,05,17,087,41,12,06,113,48,16,10,294,35,1*54
$GPGSV,2,2,08,18,39,175,47,20,17,051,45,25,42,118,45,29,74,054,40,1*6B
$GLGSV,2,1,08,68,10,334,39,69,06,020,44,75,22,136,49,76,84,120,44,1*7C
$GLGSV,2,2,08,77,45,319,37,85,33,037,46,86,81,145,41,,,,39,1*4D
$GAGSV,2,1,05,02,23,111,42,15,30,178,43,19,,,29,34,,,40,7*7F
$GAGSV,2,2,05,36,,,43,7*74
$GBGSV,2,1,07,05,16,123,43,08,28,071,42,13,28,080,47,24,,,40,1*44
$GBGSV,2,2,07,26,71,196,41,29,30,054,47,35,81,157,41,1*4B
$GNRMC,134450.00,A,4843.2609,N,00920.55496,E,0.047,,070225,,,A,V*16
$GNGGA,134450.00,4843.26092,N,00920.55496,E,1,12,0.61,260.1,M,47.6,M,,*45
$GPGSV,2,1,08,04,,,29,05,17,087,41,12,06,113,48,16,10,294,35,1*5C
$GPGSV,2,2,08,18,39,175,47,20,17,051,45,25,42,118,44,29,74,054,40,1*6A
$GLGSV,2,1,08,68,10,334,39,69,06,020,45,75,22,136,49,76,84,120,42,1*7B
$GLGSV,2,2,08,77,45,319,38,85,33,037,46,86,82,144,41,,,,39,1*40
$GAGSV,2,1,05,02,23,111,42,15,30,178,43,19,,,30,34,59,110,38,7*44
$GAGSV,2,2,05,36,28,044,43,7*4E
$GBGSV,2,1,07,05,16,123,43,08,28,071,42,13,28,080,47,24,,,40,1*44
$GBGSV,2,2,07,26,71,196,41,29,30,054,47,35,81,157,41,1*4B
$GNRMC,134451.00,A,4843.26094,N,00920.55503,E,0.041,,070225,,,A,V*1A
$GNGGA,134451.00,4843.26094,N,00920.55503,E,1,12,0.61,260.3,M,47.6,M,,*4D
$GPGSV,2,1,08,04,,,28,05,17,087,41,12,06,113,47,16,10,294,36,1*51
$GPGSV,2,2,08,18,39,175,47,20,17,051,45,25,42,118,44,29,74,054,40,1*6A
$GLGSV,2,1,08,68,10,334,39,69,06,020,44,75,22,136,48,76,84,120,41,1*78
$GLGSV,2,2,08,77,45,319,37,85,33,037,46,86,82,144,43,,,,38,1*4C
$GAGSV,2,1,05,02,23,111,42,15,30,178,43,19,,,30,34,59,110,40,7*4B
$GAGSV,2,2,05,36,28,044,43,7*4E
$GBGSV,2,1,07,05,16,123,42,08,28,071,41,13,28,080,47,24,,,40,1*46
$GBGSV,2,2,07,26,71,196,41,29,30,054,47,35,81,156,41,1*4A
$GNRMC,134452.00,A,4843.26096,N,00920.55504,E,0.023,,070225,,,A,V*18
$GNGGA,134452.00,4843.26096,N,00920.55504,E,1,12,0.61,260.4,M,47.6,M,,*4C
$GPGSV,2,1,08,04,,,27,05,17,087,42,12,06,113,47,16,10,294,37,1*5C
$GPGSV,2,2,08,18,39,175,48,20,17,051,45,25,42,118,44,29,74,054,40,1*65
$GLGSV,2,1,08,68,10,334,29,69,06,020,44,75,22,136,49,76,84,120,41,1*78
$GLGSV,2,2,08,77,45,319,37,85,33,037,46,86,82,144,41,,,,38,1*4E
$GAGSV,2,1,05,02,23,111,42,15,30,178,44,19,,,29,34,59,110,40,7*44
$GAGSV,2,2,05,36,28,044,43,7*4E
$GBGSV,2,1,07,05,16,123,43,08,28,071,42,13,28,080,47,24,,,39,1*4A
$GBGSV,2,2,07,26,71,196,41,29,30,054,47,35,81,156,42,1*49
$GNRMC,134453.00,A,4843.26098,N,00920.55505,E,0.045,,070225,,,A,V*16
$GNGGA,134453.00,4843.26098,N,00920.55505,E,1,12,0.61,260.5,M,47.6,M,,*43
$GPGSV,2,1,08,04,,,30,05,17,087,43,12,06,113,47,16,10,294,32,1*5E
$GPGSV,2,2,08,18,39,175,48,20,17,051,45,25,42,118,44,29,74,054,40,1*65
$GLGSV,2,1,08,68,10,334,30,69,06,020,43,75,22,136,48,76,84,120,42,1*75
$GLGSV,2,2,08,77,45,319,36,85,33,037,46,86,82,144,43,,,,39,1*4C
$GAGSV,2,1,05,02,23,111,42,15,30,178,43,19,,,26,34,59,110,39,7*42
$GAGSV,2,2,05,36,28,044,43,7*4E
$GBGSV,2,1,07,05,16,123,42,08,28,071,41,13,28,080,46,24,,,39,1*49
$GBGSV,2,2,07,26,71,196,42,29,30,054,48,35,81,156,42,1*45
$GNRMC,134454.00,A,4843.26099,N,00920.55506,E,0.026,,070225,,,A,V*16
$GNGGA,134454.00,4843.26099,N,00920.55506,E,1,12,0.61,260.6,M,47.6,M,,*45
$GPGSV,2,1,08,04,,,32,05,17,087,42,12,06,113,47,16,10,294,36,1*59
$GPGSV,2,2,08,18,39,175,47,20,17,051,45,25,42,118,45,29,74,054,41,1*6A
$GLGSV,2,1,08,68,10,334,29,69,06,020,44,75,22,136,48,76,84,120,41,1*79
$GLGSV,2,2,08,77,45,319,36,85,33,037,47,86,82,144,42,87,36,207,37,1*7D
$GAGSV,2,1,05,02,23,111,43,15,30,178,44,19,,,24,4,59,110,39,7*46
$GAGSV,2,2,05,36,28,044,43,7*4E
$GBGSV,2,1,07,05,16,123,43,08,28,071,41,13,28,080,46,24,,,36,1*47
$GNGGA,134455.00,4843.26101,N,00920.55510,E,1,12,0.61,260.7,M,47.6,M,,*42
$GPGSV,2,1,08,04,,,32,05,17,087,42,12,06,113,47,16,10,294,37,1*58
$GPGSV,2,2,08,18,39,175,47,20,17,051,45,25,42,118,45,29,74,054,40,1*6B
$GLGSV,2,1,08,68,10,334,34,69,06,020,44,75,22,136,48,76,84,121,44,1*71
$GLGSV,2,2,08,77,45,319,35,85,33,037,47,86,82,144,42,87,36,207,39,1*70
$GAGSV,1,1,04,02,23,111,43,15,30,178,44,34,59,110,39,6,28,044,43,7*72
$GBGSV,2,1,07,5,16,123,42,08,28,071,41,13,28,080,47,24,,,38,1*49
$GBGSV,2,2,07,26,71,196,41,29,30,054,47,35,81,156,42,1*49
$GNRMC,134456.00,A,4843.26102,N,00920.55514,E,0.003,,070225,,,A,V*13
$GNGGA,134456.00,4843.26102,N,00920.55514,E,1,12,0.61,260.8,M,47.6,M,,*49
$GPGSV,2,1,08,04,,,33,05,17,087,41,12,06,113,46,16,10,294,37,1*5B
$GPGSV,2,2,08,18,39,175,48,20,17,051,45,25,42,118,45,29,74,054,40,1*64
$GLGSV,2,1,08,68,10,334,33,69,06,020,44,75,22,136,48,76,84,121,42,1*70
$GLGSV,2,2,08,77,45,319,5,85,33,037,47,86,82,144,40,87,36,207,38,1*73
$GAGSV,1,1,04,02,23,111,44,15,30,178,44,34,59,110,39,36,28,044,43,7*75
$GBGSV,2,1,07,05,16,123,42,08,28,071,41,13,28,080,46,24,,,38,1*48
$GBGSV,2,2,07,26,71,196,40,29,30,054,48,35,81,156,42,1*47
$GNGGA,134457.00,4843.26103,N,00920.55518,E,1,12,0.61,260.9,M,47.6,M,,*44
$GPGSV,2,1,08,04,,,33,05,17,087,41,12,06,113,45,16,10,294,36,1*59
$GPGSV,2,2,08,18,39,175,48,20,17,051,45,25,42,118,45,29,74,054,41,1*65
$GLGSV,2,1,08,68,10,334,33,69,06,020,44,75,22,136,48,76,84,121,45,1*77
$GLGSV,2,2,08,77,45,319,34,8533,037,47,86,82,144,41,87,36,207,38,1*73
$GAGSV,1,1,04,02,23,111,44,15,30,178,44,34,59,110,39,36,28,044,44,7*72
$GBGSV,2,1,07,05,16,123,42,08,28,071,41,13,28,080,46,24,,,38,1*48
$GBGSV,2,2,07,26,71,196,41,29,30,054,48,35,81,156,41,1*45
$GNRMC,134458.00,A,4843.26103,N,00920.55521,E,0.088,,070225,,A,V*19
$GNGGA,134458.00,4843.26103,N,00920.55521,E,1,12,0.61,261.0,M,47.6,M,,*49
$GPGSV,2,1,08,04,,,33,05,17,087,41,12,06,113,45,16,10,294,36,1*59
$GPGSV,2,2,08,18,39,175,48,20,17,051,45,25,42,118,46,29,74,054,41,1*66
$GLGSV,2,1,08,68,10,334,32,69,06,20,44,75,22,136,48,76,84,121,44,1*77
$GLGSV,2,2,08,77,45,319,34,85,33,037,47,86,82,144,42,87,36,207,38,1*70
$GAGSV,1,1,04,02,23,111,44,15,30,178,44,34,59,110,38,36,28,044,43,7*74
$GBGSV,2,1,07,05,16,123,42,08,28,071,41,13,28,080,46,24,,,39,1*49
$GBGSV,2,2,07,26,71,196,39,29,30,054,48,35,81,156,42,1*49
$GNRMC,134459.00,A,4843.26103,N,00920.55523,E,0.021,,070225,,,A,V*19
$GNGGA,134459.00,4843.26103,N,00920.55523,E,1,12,0.61,261.0,M,47.6,M,,*4A
$GPGSV,2,1,08,04,,,33,05,17,087,41,12,06,113,45,16,10,294,36,1*59
$GPGSV,2,2,08,18,39,175,48,20,17,051,45,25,42,118,45,29,74,054,40,1*64
$GLGSV,2,1,08,68,10,334,34,69,06,020,44,75,22,136,48,76,84,121,44,1*71
$GLGSV,2,2,08,77,45,319,35,85,33,037,47,86,82,144,43,87,36,207,38,1*70
$GAGSV,1,1,04,02,23,111,44,15,30,178,45,34,59,110,40,36,28,044,43,7*7A
$GBGSV,2,1,07,05,16,123,42,08,28,071,41,13,28,080,46,24,,,39,1*49
$GBGSV,2,2,07,26,71,196,39,29,30,054,48,35,81,156,42,1*49
$GNRMC,134500.00,A,4843.26103,N,00920.55526,E,0.052,,070225,,,A,V*15
$GNGGA,134500.00,4843.26103,N,00920.55526,E,1,12,0.61,261.0,M,47.6,M,,*42
$GPGSV,2,1,08,04,,,33,05,17,087,41,12,06,113,45,16,10,294,32,1*5D
$GPGSV,2,2,08,18,39,175,47,20,17,051,45,25,42,118,44,29,74,054,41,1*6B
$GLGSV,2,1,08,68,10,334,34,69,06,020,44,75,22,136,47,76,84,121,43,1*79
$GLGSV,2,2,08,77,45,319,36,85,33,037,47,86,82,144,39,87,36,207,39,1*7F
$GAGSV,1,1,04,02,23,111,44,15,30,178,44,34,59,110,41,36,28,044,43,7*7A
$GBGSV,2,1,07,05,16,123,43,08,28,071,41,13,28,080,46,24,,,39,1*48
$GBGSV,2,2,07,26,71,196,36,29,30,054,48,35,81,156,42,1*46
$GNRMC,134501.00,A,4843.26102,N,00920.55529,E,0.041,,070225,,,A,V*18
$GNGGA,134501.00,4843.26102,N,00920.55529,E,1,12,0.61,261.1,M,47.6,M,,*4C
$GPGSV,2,1,08,04,,,32,05,17,087,41,12,06,113,45,16,10,294,36,1*58
$GPGSV,2,2,08,18,39,175,47,20,17,051,45,25,42,118,46,29,74,054,42,1*6A
$GLGSV,2,1,08,68,10,334,38,69,06,020,44,75,22,136,47,76,84,121,45,1*73
$GLGSV,2,2,08,77,45,319,32,85,33,037,46,86,82,144,43,87,36,207,40,1*79
$GAGSV,1,1,04,02,3,111,44,15,30,178,44,34,59,110,39,36,28,044,43,7*75
$GBGSV,2,1,07,05,16,123,43,08,28,071,41,13,28,080,46,24,,,36,1*47
$GBGSV,2,2,07,26,71,196,40,29,30,054,48,35,81,156,44,1*41
$GNRMC,134502.00,A,4843.26102,N,00920.55532,E,0.028,,070225,,,A,V*1E
$GNGGA,134502.00,4843.26102,N,00920.55532,E,1,12,0.61,261.1,M,47.6,M,,*45
$GPGSV,2,1,08,04,,,31,05,17,087,41,12,06,113,45,16,10,294,36,1*5B
$GPGSV,2,2,08,18,39,175,47,20,17,051,45,25,42,118,46,29,74,054,41,1*69
$GLGSV,2,1,08,68,10,334,40,69,06,020,43,75,22,136,48,76,84,121,44,1*75
$GLGSV,2,2,08,77,45,319,31,85,32,037,46,86,82,144,41,87,36,207,40,1*79
$GAGSV,1,1,04,02,23,111,44,15,30,178,44,34,59,110,42,36,28,044,43,7*79
$GBGSV,2,1,07,05,16,123,43,08,28,071,41,13,28,080,46,24,,,35,1*44
$GBGSV,2,2,07,26,71,196,39,29,30,054,49,35,81,156,42,1*48
$GNRMC,134503.00,A,4843.26100,N,00920.55535,E,0.010,,070225,,,A,V*11
$GNGGA,134503.00,4843.26100,N,00920.55535,E,1,12,0.59,261.1,M,47.6,M,,*4A
$GPGSV,2,1,08,04,,,30,05,17,087,40,12,06,113,45,16,10,294,36,1*5B
$GPGSV,2,2,08,18,39,175,46,20,17,051,45,25,42,118,46,29,74,054,41,1*68
$GLGSV,2,1,08,68,10,334,40,69,06,020,43,75,22,136,48,76,84,121,42,1*73
$GLGSV,2,2,08,77,45,319,29,85,32,037,47,86,82,143,42,87,36,207,42,1*77
$GAGSV,1,1,04,02,23,111,44,15,30,178,44,34,59,110,40,36,28,044,43,7*7B
$GBGSV,2,1,07,05,16,123,43,08,28,071,41,13,28,080,46,24,,,30,1*41
$GBGSV,2,2,07,26,71,196,39,29,30,054,49,35,81,156,42,1*48
$GNGGA,134504.00,4843.26099,N,00920.55536,E,1,12,0.59,261.1,M,47.6,M,,*4F
$GPGSV,2,1,08,04,,,31,05,17,087,40,12,06,113,45,16,10,294,36,1*5A
$GPGSV,2,2,08,18,39,175,47,20,17,051,45,25,42,118,47,29,74,054,42,1*6B
$GLGSV,2,1,08,68,10,334,40,69,06,020,42,75,22,136,48,76,84,121,41,1*71
$GLGSV,2,2,08,77,45,319,29,85,32,037,47,86,82,143,41,87,36,207,40,1*76
$GAGSV,1,1,04,02,23,111,45,15,30,178,44,34,59,110,40,36,28,044,43,7*7A
$GBGSV,2,1,07,05,16,123,43,08,28,071,41,13,28,080,46,24,44,302,30,1*70
$GBGSV,2,2,07,26,71,196,39,29,30,054,49,35,81,156,42,1*48
$GNRMC,134505.00,A,4843.26098,N,00920.55536,E,0.014,,070225,,,A,V*10
$GNGGA,134505.00,4843.26098,N,00920.55536,E,1,12,0.59,261.0,M,47.6,M,,*4E
$GPGSV,2,1,08,04,,,32,05,17,087,40,12,06,113,44,16,10,294,36,1*58
$GPGSV,2,2,08,18,39,175,46,20,17,051,45,25,42,118,46,29,74,054,40,1*69
$GLGSV,2,1,08,68,10,334,40,69,06,020,42,75,22,136,48,76,84,121,42,1*72
$GLGSV,2,2,08,77,45,319,29,85,32,037,46,86,82,143,42,87,36,207,41,1*75
$GAGSV,1,1,04,02,23,111,45,15,30,178,44,34,59,110,42,36,28,044,43,7*78
$GBGSV,2,1,07,05,16,123,43,08,28,071,41,13,28,080,46,24,44,302,31,1*71
$GBGSV,2,2,07,26,71,196,39,29,30,054,49,35,81,156,42,1*48
$GNRMC,134506.00,A,4843.26097,N,00920.55534,E,0.010,,070225,,,A,V*1A
$GNGGA,134506.00,4843.26097,N,00920.55534,E,1,12,0.59,261.0,M,47.6,M,,*40
$GPGSV,2,1,08,04,,,31,05,17,087,40,12,06,113,44,16,10,294,35,1*58
$GPGSV,2,2,08,18,39,175,46,20,17,051,45,25,42,118,46,29,74,054,41,1*68
$GLGSV,2,1,08,68,10,334,39,69,06,020,41,75,22,136,48,76,84,121,44,1*79
$GLGSV,2,2,08,77,45,319,30,85,32,037,47,86,82,143,40,87,36,207,41,1*7E
$GAGSV,1,1,04,02,23,111,45,15,30,178,43,34,59,110,41,36,28,044,43,7*7C
$GBGSV,2,1,07,05,16,123,43,08,28,071,41,13,28,080,46,24,44,302,31,1*71
$GBGSV,2,2,07,26,71,196,40,29,30,054,49,35,81,156,42,1*46
$GNRMC,134507.00,A,4843.26096,N,00920.55531,E,0.017,,070225,,A,V*18
$GNGGA,134507.00,4843.26096,N,00920.55531,E,1,12,0.59,260.9,M,47.6,M,,*4D
$GPGSV,2,1,08,04,,,31,05,17,087,40,12,06,113,44,16,10,294,36,1*5B
$GPGSV,2,2,08,18,39,175,46,20,17,051,45,25,42,118,46,29,74,054,41,1*68
$GLGSV,2,1,08,68,10,334,38,69,06,020,41,75,22,136,48,76,84,121,42,1*7E
$GLGSV,2,2,08,77,45,319,30,85,32,037,46,86,82,143,41,87,36,207,40,1*7F
$GAGSV,1,1,04,02,23,111,45,15,30,178,43,34,59,110,41,36,28,044,43,7*7C
$GBGSV,2,1,07,05,16,123,43,08,28,071,41,13,28,080,46,24,44,302,33,1*73
$GBGSV,2,2,07,26,71,196,39,29,30,054,49,35,81,156,42,1*48
$GNRMC,134508.00,A,4843.26095,N,00920.55526,E,0.026,,070225,,,A,V*10
$GNGGA,134508.00,4843.26095,N,00920.55526,E,1,12,0.59,260.8,M,47.6,M,,*46
$GPGSV,2,1,08,04,,,33,05,17,087,40,12,06,11,43,16,10,294,36,1*5E
$GPGSV,2,2,08,18,39,175,45,20,17,051,45,25,42,118,46,29,74,054,39,1*64
$GLGSV,2,1,08,68,10,334,39,69,06,020,41,75,22,136,48,76,84,121,42,1*7F
$GLGSV,2,2,08,77,45,319,31,85,32,037,46,86,82,143,41,87,36,207,40,1*7E
$GAGSV,1,1,04,02,23,111,45,15,30,178,43,34,59,110,41,36,28,044,43,7*7C
$GBGSV,2,1,07,05,16,123,43,08,28,071,41,13,28,080,46,24,44,302,34,1*74
$GBGSV,2,2,07,26,71,196,40,29,30,054,49,35,81,156,42,1*46
$GNRMC,134509.00,A,4843.26094,N,00920.55521,E,0.175,,070225,,,A,V*10
$GNGGA,134509.00,4843.26094,N,00920.55521,E,1,12,0.56,260.6,M,47.6,M,,*40
$GPGSV,2,1,08,04,,,25,05,17,087,40,12,06,113,43,16,11,294,31,1*5F
$GPGSV,2,2,08,18,39,175,45,20,17,051,45,25,42,118,46,29,74,054,40,1*6A
$GLGSV,2,1,08,68,10,334,35,69,06,020,42,75,22,136,48,76,84,121,42,1*70
$GLGSV,2,2,08,77,45,319,30,85,32,037,46,86,82,143,39,87,36,207,40,1*70
$GAGSV,2,1,05,02,23,111,45,15,30,178,43,29,,,38,34,59,110,40,7*47
$GAGSV,2,2,05,36,28,044,43,7*4E
$GBGSV,2,1,07,05,16,123,43,08,28,071,42,13,28,080,46,24,44,302,34,1*77
$GBGSV,2,2,07,26,71,196,38,29,30,054,49,35,81,156,43,1*48
$GNRMC,134510.00,A,4843.26092,N,00920.55519,E,0.026,,070225,,,A,V*12
$GNGGA,134510.00,4843.26092,N,00920.55519,E,1,12,0.56,260.5,M,47.6,M,,*46
$GPGSV,2,1,08,04,,,24,05,17,087,40,12,06,113,43,16,11,294,30,1*5F
$GPGSV,2,2,08,18,39,175,45,20,17,051,45,25,42,118,45,29,74,054,40,1*69
$GLGSV,2,1,08,68,10,334,38,69,06,020,42,75,22,136,49,76,84,121,4,1*7C
$GLGSV,2,2,08,77,45,319,29,85,32,037,46,86,82,143,39,87,36,207,40,1*78
$GAGSV,2,1,05,02,23,111,45,15,30,178,43,29,,,37,34,59,110,41,7*49
$GAGSV,2,2,05,36,28,044,42,7*4F
$GBGSV,2,1,07,05,16,123,43,08,28,071,41,13,28,080,46,24,44,302,33,1*73
$GBGSV,2,2,07,26,71,196,40,29,30,054,49,35,81,156,43,1*47
$GNRMC,134511.00,A,4843.26090,N,00920.55521,E,0.012,,070225,,,A,V*1D
$GNGGA,134511.00,4843.26090,N,00920.55521,E,1,12,0.56,260.5,M,47.6,M,,*4E
$GPGSV,2,1,08,04,,,33,05,17,087,40,12,06,113,43,16,11,294,36,1*5F
$GPGSV,2,2,08,18,39,175,42,20,17,051,45,25,42,118,46,29,74,054,38,1*62
$GLGSV,2,1,08,68,10,334,42,69,06,020,42,75,22,136,47,76,84,121,42,1*7F
$GLGSV,2,2,08,77,45,319,30,85,32,037,46,86,82,143,38,87,36,207,38,1*7E
$GAGSV,2,1,05,02,23,111,45,15,30,178,43,29,,,38,34,59,110,43,7*44
$GAGSV,2,2,05,36,28,044,42,7*4F
$GBGSV,2,1,07,05,16,123,43,08,28,071,41,13,28,080,46,24,44,302,34,1*74
$GBGSV,2,2,07,26,71,196,40,29,30,054,49,35,81,156,44,1*40
$GNRMC,134512.00,A,4843.26089,N,00920.55514,E,0.010,,070225,,,A,V*12
$GNGGA,134512.00,4843.26089,N,00920.55514,E,1,12,0.56,260.3,M,47.6,M,,*45
$GPGSV,2,1,08,04,,,29,05,17,087,41,12,06,113,43,16,11,294,36,1*55
$GPGSV,2,2,08,18,39,175,44,20,17,051,45,25,42,118,46,29,74,054,38,1*64
$GLGSV,2,1,08,68,10,334,34,69,06,020,43,75,22,136,46,76,84,121,44,1*78
$GLGSV,2,2,08,77,45,319,37,85,32,037,46,86,82,143,38,87,36,207,38,1*79
$GAGSV,2,1,05,0223,111,45,15,30,178,43,29,,,37,34,59,110,41,7*49
$GAGSV,2,2,05,36,28,044,42,7*4F
$GBGSV,2,1,07,05,16,123,43,08,28,071,41,13,28,080,46,24,44,302,40,1*77
$GBGSV,2,2,07,26,71,196,41,29,30,054,49,35,81,156,44,1*41
$GNRMC,134513.00,A,4843.26086,N,00920.55513,E,0.039,,070225,,,A,V*10
$GNGGA,134513.00,4843.26086,N,00920.55513,E,1,12,0.56,260.2,M,47.6,M,,*4D
$GPGSV,2,1,08,04,,,28,05,17,087,41,12,06,113,43,16,11,294,36,1*54
$GPGSV,2,2,08,18,39,175,43,20,17,051,45,25,42,118,46,29,74,054,37,1*6C
$GLGSV,2,1,08,68,10,334,41,69,06,020,42,75,22,136,47,76,84,121,43,1*7D
$GLGSV,2,2,08,77,45,319,39,85,32,037,46,86,82,143,38,87,36,207,39,1*76
$GAGSV,2,1,05,02,23,111,45,15,30,178,43,29,,,37,34,59,110,37,7*48
$GAGSV,2,2,05,36,28,044,43,7*4E
$GBGSV,2,1,07,05,16,123,43,08,28,071,41,13,28,080,46,24,44,302,40,1*77
$GBGSV,2,2,07,26,71,196,41,29,30,054,49,35,81,156,43,1*46
$GNRMC,134514.00,A,4843.26085,N,00920.55511,E,0.011,,070225,,,A,V*1C
$GNGGA,134514.00,4843.26085,N,00920.55511,E,1,12,0.56,260.1,M,47.6,M,,*48
$GPGSV,2,1,08,04,,,27,05,17,087,41,12,06,113,42,16,11,294,37,1*5B
$GPGSV,2,2,08,18,39,175,43,20,17,051,45,25,42,118,46,29,74,054,38,1*63
$GLGSV,2,1,08,68,10,334,4,69,06,020,42,75,22,136,48,76,84,121,44,1*75
$GLGSV,2,2,08,77,45,319,39,85,32,037,46,86,82,143,38,87,36,207,40,1*78
$GAGSV,2,1,05,02,23,111,45,15,30,178,42,29,,,37,34,59,110,40,7*49
$GAGSV,2,2,05,36,28,044,43,7*4E
$GBGSV,2,1,07,05,16,123,43,08,28,071,4,13,28,080,46,24,44,302,41,1*76
$GBGSV,2,2,07,26,71,196,41,29,30,054,49,35,81,156,43,1*46
$GNRMC,134515.00,A,4843.26082,N,00920.55505,E,0.013,,070225,,,A,V*1D
$GNGGA,134515.00,4843.26082,N,00920.55505,E,1,12,0.56,259.9,M,47.6,M,,*49
$GPGSV,2,1,08,04,,,28,05,17,087,41,12,06,113,41,16,11,294,37,1*57
$GPGSV,2,2,08,18,39,175,44,20,17,051,45,25,42,118,45,29,74,054,37,1*68
$GLGSV,2,1,08,68,10,334,40,69,06,020,39,75,22,136,47,76,84,121,44,1*77
$GLGSV,2,2,08,77,45,319,39,85,32,037,46,86,82,143,37,87,36,207,39,1*79
$GAGSV,2,1,05,02,23,111,45,15,30,178,42,29,,,37,34,59,110,42,7*4B
$GAGSV,2,2,05,36,28,044,43,7*4E
$GBGSV,2,1,07,05,16,123,43,08,28,071,41,13,28,080,46,24,44,302,41,1*76
$GBGSV,2,2,07,26,71,196,41,29,30,054,49,35,81,156,43,1*46
$GNRMC,134516.00,A,4843.26080,N,00920.55500,E,0.006,,070225,,,A,V*1D
$GNGGA,134516.00,4843.26080,N,00920.55500,E,1,12,0.56,259.8,M,47.6,M,,*4C
$GPGSV,2,1,08,04,,,28,05,17,087,41,12,06,113,41,16,11,294,37,1*57
$GPGSV,2,2,08,18,39,175,42,20,17,051,46,25,42,118,45,29,74,054,33,1*69
$GLGSV,2,1,08,68,10,334,40,69,06,020,40,75,22,136,47,76,84,121,44,1*79
$GLGSV,2,2,08,77,45,319,9,85,32,037,45,86,82,143,37,87,36,207,38,1*7B
$GAGSV,2,1,06,02,23,111,45,15,30,178,41,29,,,37,30,,,39,7*7F
$GAGSV,2,2,06,34,59,110,40,36,28,044,42,7*73
$GBGSV,2,1,07,05,16,123,43,08,28,071,40,13,28,080,46,24,44,302,41,1*77
$GBGSV,2,2,07,26,71,196,41,29,30,054,49,35,81,156,43,1*46
$GNRMC,134517.00,A,4843.26078,N,00920.55497,E,0.019,,070225,,,A,V*1A
$GNGGA,134517.00,4843.26078,N,00920.55497,E,1,12,0.56,259.6,M,47.6,M,,*4B
$GPGSV,2,1,08,04,,,28,05,17,087,41,12,06,113,41,16,11,294,37,1*57
$GPGSV,2,2,08,18,39,175,44,20,17,051,46,25,42,118,45,29,74,054,36,1*6A
$GLGSV,2,1,08,68,10,334,40,69,06,020,39,75,22,136,46,76,84,121,43,1*71
$GLGSV,2,2,08,77,45,319,40,85,32,037,46,86,82,143,34,87,36,207,41,1*7B
$GAGSV,2,1,06,02,23,111,46,15,30,178,41,29,,,37,30,,,39,7*7C
$GAGSV,2,2,06,34,59,110,41,36,28,044,43,7*73
$GBGSV,2,1,07,05,16,123,43,08,28,071,41,13,28,080,46,24,44,302,41,1*76
$GBGSV,2,2,07,26,71,196,41,29,30,054,49,35,81,156,43,1*46
$GNRMC,134518.00,A,4843.26077,N,00920.55492,E,0.037,,070225,,,A,V*13
$GNGGA,134518.00,4843.26077,N,00920.55492,E,1,12,0.56,259.5,M,47.6,M,,*4D
$GPGSV,2,1,08,04,,,29,05,17,087,41,12,06,113,40,16,11,294,37,1*57
$GPGSV,2,2,08,18,39,175,43,20,17,051,46,25,42,118,46,29,74,054,36,1*6E
$GLGSV,2,1,08,68,10,334,39,69,06,020,38,75,22,136,46,76,84,121,45,1*78
$GLGSV,2,2,08,77,45,319,40,85,32,037,45,86,82,143,36,87,36,207,41,1*7A
$GAGSV,2,1,06,02,23,111,46,15,30,178,38,29,,,37,30,,,39,7*72
$GAGSV,2,2,06,34,59,110,41,36,28,044,43,7*73
$GBGSV,2,1,07,05,16,123,43,08,28,071,41,13,28,080,46,24,44,302,42,1*75
$GBGSV,2,2,07,26,71,196,41,29,30,054,49,35,81,156,43,1*46
$GNRMC,134519.00,A,4843.26078,N,00920.55492,E,0.013,,070225,,,A,V*1B
$GNGGA,134519.00,4843.26078,N,00920.55492,E,1,12,0.56,259.4,M,47.6,M,,*42
$GPGSV,2,1,0,04,,,30,05,17,087,41,12,06,113,40,16,11,294,37,1*5F
$GPGSV,2,2,08,18,39,175,41,20,17,051,46,25,42,118,45,29,74,054,37,1*6E
$GLGSV,2,1,08,68,10,334,39,69,06,020,39,75,22,136,47,76,84,121,44,1*79
$GLGSV,2,2,08,77,45,319,40,85,32,037,45,86,82,143,37,87,36,207,42,1*78
$GAGSV,2,1,06,02,23,111,46,15,30,178,39,29,,,36,30,,,40,7*7C
$GAGSV,2,2,06,34,59,110,41,36,28,044,43,7*73
$GBGSV,2,1,07,05,16,123,43,08,28,071,41,13,28,080,46,24,44,302,41,1*76
$GBGSV,2,2,07,26,71,196,41,29,30,054,49,35,81,156,43,1*46
$GNRMC,134520.00,A,4843.26077,N,00920.55491,E,0.008,,070225,,,A,V*17
$GNGGA,134520.00,4843.26077,N,00920.55491,E,1,12,0.56,259.2,M,47.6,M,,*42
$GPGSV,2,1,08,04,,,30,05,17,087,42,12,06,113,40,16,11,294,37,1*5C
$GPGSV,2,2,08,18,39,175,41,20,17,051,46,25,42,118,46,29,74,054,37,1*6D
$GLGSV,2,1,08,68,10,334,39,69,06,020,40,75,22,136,46,76,84,121,44,1*76
$GLGSV,2,2,08,77,45,319,40,85,32,037,45,86,82,143,36,87,36,207,40,1*7B
$GAGSV,2,1,06,02,23,111,46,15,30,178,39,29,,,36,30,,,40,7*7C
$GAGSV,2,2,06,34,59,110,41,36,28,044,43,7*73
$GBGSV,2,1,07,0516,123,43,08,28,071,41,13,28,080,46,24,44,302,41,1*76
$GBGSV,2,2,07,26,71,196,41,29,30,054,49,35,81,156,43,1*46
$GNRMC,134521.00,A,4843.26078,N,00920.55490,E,0.007,,070225,,,A,V*17
$GNGGA,134521.00,4843.26078,N,00920.55490,E,1,12,0.56,259.1,M,47.6,M,,*4E
$GPGSV,2,1,08,04,,,32,05,17,087,42,12,06,113,40,16,11,294,37,1*5E
$GPGSV,2,2,08,18,39,175,41,20,17,051,46,25,42,118,45,29,74,054,34,1*6D
$GLGSV,2,1,08,68,10,334,39,69,06,020,39,75,22,136,46,76,84,121,42,1*7E
$GLGSV,2,2,08,77,45,319,40,85,32,037,46,86,82,143,33,87,36,207,43,1*7E
$GAGSV,2,1,06,02,23,111,46,15,30,178,39,29,,,35,30,,,40,7*7F
$GAGSV,2,2,06,34,5,110,41,36,28,044,43,7*73
$GBGSV,2,1,07,05,16,123,43,08,28,071,41,13,28,080,46,24,44,302,41,1*76
$GBGSV,2,2,07,26,71,196,42,29,30,054,49,35,81,156,43,1*45
$GNRMC,134522.00,A,4843.26076,N,00920.55482,E,0.032,,070225,,,A,V*1F
$GNGGA,134522.00,4843.26076,N,00920.55482,E,1,12,0.56,25.9,M,47.6,M,,*49
$GPGSV,2,1,08,04,,,31,05,17,087,41,12,06,113,39,16,11,294,37,1*50
$GPGSV,2,2,08,18,39,175,43,20,17,051,46,25,42,118,46,29,74,054,34,1*6C
$GLGSV,2,1,08,68,10,334,39,69,06,020,40,75,22,136,46,76,84,121,43,1*71
$GLGSV,2,2,08,77,45,319,40,85,32,037,46,86,82,143,37,87,36,207,41,1*78
$GAGSV,2,1,06,02,23,111,46,15,30,178,39,29,,,35,30,,,39,7*71
$GAGSV,2,2,06,34,59,109,41,36,28,044,43,7*7B
$GBGSV,2,1,07,05,16,123,43,08,28,071,41,13,28,080,46,24,44,302,42,1*75
$GBGSV,2,2,07,26,71,196,42,29,30,054,49,35,81,156,43,1*45
$GNRMC,134523.00,A,4843.26076,N,00920.55479,E,0.018,,070225,,,A,V*12
$GNGGA,134523.00,4843.26076,N,00920.55479,E,1,12,0.56,258.8,M,47.6,M,,*4D
$GPGSV,2,1,08,04,,,29,05,17,087,42,12,06,113,39,16,11,294,37,1*5A
$GPGSV,2,2,08,18,39,175,41,20,17,051,46,25,42,118,46,29,74,054,35,1*6F
$GLGSV,2,1,08,68,10,334,40,69,06,020,40,75,22,136,46,76,84,121,42,1*7E
$GLGSV,2,2,08,77,45,319,40,85,32,037,46,86,82,143,36,87,36,207,42,1*7A
$GAGSV,2,1,06,02,23,111,46,15,30,178,39,29,,,36,30,,,39,7*72
$GAGSV,2,2,06,34,59,109,40,36,28,044,43,7*7A
$GBGSV,2,1,07,05,16,123,43,08,28,071,41,13,28,080,46,24,44,302,42,1*75
$GBGSV,2,2,07,26,71,196,41,29,30,054,49,35,81,156,42,1*47
$GNRMC,134524.00,A,4843.26075,N,00920.55472,E,0.025,,070225,,,A,V*13
$GNGGA,134524.00,4843.26075,N,00920.55472,E,1,12,0.56,258.7,M,47.6,M,,*4D
$GPGSV,2,1,08,04,,,30,05,17,087,42,12,06,113,38,16,11,294,37,1*53
$GPGSV,2,2,08,18,39,175,43,20,17,051,46,25,42,118,46,29,74,054,36,1*6E
$GLGSV,2,1,08,68,10,334,36,69,06,020,41,75,22,136,46,76,84,121,40,1*7C
$GLGSV,2,2,08,77,45,319,40,85,32,037,45,86,82,143,41,87,36,207,44,1*7F
$GAGSV,2,1,06,02,23,111,45,15,30,178,39,29,,,36,30,,,39,7*71
$GAGSV,2,2,06,34,59,109,40,36,28,044,43,7*7A
$GBGSV,2,1,07,05,16,123,43,08,28,071,41,13,28,080,46,24,44,302,42,1*75
$GBGSV,2,2,07,26,71,196,41,29,30,054,49,35,81,156,42,1*47
$GNRMC,134525.00,A,4843.26074,N,00920.55470,E,0.043,,070225,,,A,V*11
$GNGGA,134525.00,4843.26074,N,00920.55470,E,1,12,0.54,258.6,M,47.6,M,,*4C
$GPGSV,2,1,08,04,,,30,05,17,087,42,12,06,113,35,16,11,294,32,1*5B
$GPGSV,2,2,08,18,39,175,43,20,17,051,46,25,42,118,46,29,74,054,37,1*6F
$GLGSV,2,1,08,68,10,334,39,69,06,020,41,75,22,136,44,76,84,121,44,1*75
$GLGSV,2,2,08,77,45,319,39,85,32,037,47,86,82,143,36,87,36,207,43,1*74
$GAGSV,2,1,06,02,23,111,45,15,30,178,38,29,,,35,30,,,40,7*7D
$GAGSV,2,2,06,34,59,109,40,36,28,044,43,7*7A
$GBGSV,2,1,07,05,16,123,43,08,28,071,41,13,28,080,46,24,44,302,41,1*76
$GBGSV,2,2,07,26,71,196,42,29,30,054,49,35,81,156,41,1*47
$GNRMC,134526.00,A,4843.26073,N,00920.55467,E,0.041,,070225,,,A,V*11
$GNGGA,134526.00,4843.26073,N,00920.55467,E,1,12,0.54,258.5,M,47.6,M,,*4D
$GPGSV,2,1,08,04,08,326,30,05,17,087,42,12,06,113,38,16,11,294,37,1*6C
$GPGSV,2,2,08,18,39,175,43,20,17,051,46,25,42,118,44,29,74,054,39,1*63
$GLGSV,2,1,08,68,10,334,36,69,06,020,40,75,22,136,43,76,84,121,42,1*7A
$GLGSV,2,2,08,77,45,319,39,85,32,037,47,86,82,143,39,87,36,207,43,1*7B
$GAGSV,2,1,06,02,23,111,45,15,30,178,38,29,,,35,30,,,39,7*73
$GAGSV,2,2,06,34,59,109,40,36,28,044,43,7*7A
$GBGSV,2,1,07,05,16,123,43,08,28,071,41,13,28,080,46,24,44,302,41,1*76
$GBGSV,2,2,07,26,71,196,42,29,30,054,49,35,81,156,43,1*45
$GNRMC,134527.00,A,4843.26073,N,00920.55468,E,0.003,,070225,,,A,V*19
$GNGGA,134527.00,4843.26073,N,00920.55468,E,1,12,0.54,258.5,M,47.6,M,,*43
$GPGSV,2,1,08,04,08,326,34,05,17,087,42,12,06,113,39,16,11,294,31,1*6F
$GPGSV,2,2,08,18,39,175,43,20,17,051,45,25,42,118,46,29,74,054,36,1*6D
$GLGSV,2,1,08,68,10,334,41,69,06,020,39,75,22,136,44,76,84,121,43,1*72
$GLGSV,2,2,08,77,45,319,40,85,32,037,47,86,82,143,39,87,36,207,43,1*75
$GAGSV,2,1,06,02,23,111,45,15,30,178,38,29,,,35,30,,,39,7*73
$GAGSV,2,2,06,34,59,109,39,36,28,044,43,7*74
$GBGSV,2,1,07,05,16,123,43,08,28,071,41,13,28,080,46,24,44,302,41,1*76
$GBGSV,2,2,07,26,71,196,42,29,30,054,49,35,81,156,43,1*45
$GNRMC,134528.00,A,4843.26072,N,00920.55467,E,0.027,,070225,,,A,V*1E
$GNGGA,134528.00,4843.26072,N,00920.55467,E,1,12,0.54,258.4,M,47.6,M,,*43
$GPGSV,2,1,08,04,08,326,33,05,17,087,42,12,06,113,38,16,11,294,36,1*6E
$GPGSV,2,2,08,18,39,175,43,20,17,051,46,25,42,118,45,29,74,054,35,1*6E
$GLGSV,2,1,08,68,10,334,34,69,06,020,43,75,22,136,44,76,84,121,40,1*7E
$GLGSV,2,2,08,77,45,319,40,85,32,037,48,86,82,143,39,87,36,207,42,1*7B
$GAGSV,2,1,06,02,23,111,45,15,30,178,38,29,,,36,30,,,37,7*7E
$GAGSV,2,2,06,34,59,109,40,36,28,044,43,7*7A
$GBGSV,2,1,08,02,,,30,05,16,123,43,08,28,071,41,13,28,080,45,1*49
$GBGSV,2,2,08,24,44,302,41,26,70,196,41,29,30,054,49,35,81,156,43,1*7A
$GNRMC,134529.00,A,4843.26073,N,00920.55467,E,0.030,,070225,,,A,V*18
$GNGGA,134529.00,4843.26073,N,00920.55467,E,1,12,0.54,258.3,M,47.6,M,,*44
$GPGSV,2,1,08,04,08,326,35,05,17,087,42,12,06,113,39,16,11,294,36,1*69
$GPGSV,2,2,08,18,39,175,43,20,17,051,45,25,42,118,44,29,74,054,36,1*6F
$GLGSV,2,1,08,68,10,334,32,69,06,020,42,75,22,136,44,76,84,121,42,1*7B
$GLGSV,2,2,08,77,45,319,38,85,32,037,48,86,82,143,39,87,36,207,40,1*76
$GAGSV,2,1,06,02,23,111,45,15,30,178,38,29,,,36,30,,,39,7*70
$GAGSV,2,2,06,34,59,109,41,36,28,044,43,7*7B
$GBGSV,2,1,08,02,,,30,05,16,123,43,08,28,071,41,13,28,080,45,1*49
$GBGSV,2,2,08,24,44,302,40,26,70,196,41,29,30,054,49,35,81,156,43,1*7B
$GNRMC,134530.00,A,4843.26072,N,00920.55463,E,0.029,,070225,,,A,V*1D
$GNGGA,134530.00,4843.26072,N,00920.55463,E,1,12,0.58,258.2,M,47.6,M,,*44
$GPGSV,2,1,08,04,08,326,35,05,17,087,41,12,06,113,38,16,11,294,35,1*68
$GLGSV,2,1,08,68,10,334,34,69,06,020,41,75,22,136,43,76,84,121,42,1*79
$GLGSV,2,2,08,77,45,319,38,85,32,037,48,86,82,143,40,87,36,207,44,1*7C
$GAGSV,2,1,06,02,23,111,45,15,30,178,38,29,,,36,30,,,38,7*71
$GAGSV,2,2,06,4,59,109,42,36,28,044,43,7*78
$GBGSV,2,1,08,02,,,30,05,16,123,43,08,28,071,42,13,28,080,45,1*4A
$GBGSV,2,2,08,24,44,302,40,26,70,196,40,29,30,054,49,35,81,155,44,1*7E
$GNRMC,134531.00,A,4843.26070,N,00920.55459,E,0.013,,070225,,,A,V*1E
$GNGGA,134531.00,4843.26070,N,00920.55459,E,1,12,0.54,258.1,M,47.6,M,,*41
$GPGSV,2,1,08,04,08,326,35,05,17,087,43,12,06,113,39,16,11,294,36,1*68
$GPGSV,2,2,08,18,39,175,43,20,17,051,45,25,42,118,44,29,74,054,36,1*6F
$GLGSV,2,1,08,68,10,334,33,69,06,020,41,75,22,136,44,76,84,121,41,1*7A
$GLGSV,2,2,08,77,45,319,37,85,32,037,49,86,82,143,37,87,36,207,44,1*72
$GAGSV,2,1,06,02,23,111,45,15,30,178,38,29,,,35,30,,,39,7*73
$GAGSV,2,2,06,34,59,109,41,36,28,044,43,7*7B
$GBGSV,2,1,07,05,16,123,43,08,28,071,42,13,28,080,46,24,44,302,40,1*74
$GBGSV,2,2,07,26,70,196,41,29,30,054,49,35,81,155,44,1*43
$GNGGA,134532.00,4843.26070,N,00920.55457,E,1,12,0.54,258.0,M,47.6,M,,*4D
$GPGSV,2,1,08,04,08,326,34,05,17,087,42,12,06,113,39,16,11,294,35,1*6B
$GPGSV,2,2,08,18,39,175,43,20,17,051,45,25,42,118,43,29,74,054,36,1*68
$GLGSV,2,1,08,68,10,334,32,69,06,020,41,75,22,136,45,76,84,121,43,1*78
$GLGSV,2,2,08,77,45,319,37,85,32,037,48,86,82,143,40,87,36,207,42,1*75
$GAGSV,2,1,06,02,23,111,45,15,30,178,38,29,,,35,30,,,39,7*73
$GAGSV,2,2,06,34,59,109,41,36,28,044,44,7*7C
$GBGSV,2,1,07,05,16,123,43,08,28,071,41,13,28,080,45,24,44,302,40,1*74
$GBGSV,2,2,07,26,70,196,39,29,30,054,49,35,81,155,44,1*4C
$GNRMC,134533.00,A,4843.26069,N,00920.55453,E,0.013,,070225,,,A,V*1E
$GNGGA,134533.00,4843.26069,N,00920.55453,E,1,12,0.54,257.8,M,47.6,M,,*47
$GPGSV,2,1,08,04,08,326,34,05,17,087,42,12,06,113,39,16,11,294,36,1*68
$GPGSV,2,2,08,18,39,175,43,20,17,051,45,25,42,118,43,29,74,054,36,1*68
$GLGSV,2,1,08,68,10,334,32,69,06,020,40,75,22,136,44,76,84,121,42,1*79
$GLGSV,2,2,08,77,45,319,37,85,32,037,48,86,82,143,39,87,36,207,42,1*7B
$GAGSV,2,1,06,02,23,111,44,15,30,178,40,29,,,35,30,,,39,7*7D
$GAGSV,2,2,06,34,59,109,40,36,28,044,43,7*7A
$GBGSV,2,1,07,05,16,123,43,08,28,071,42,13,28,080,45,24,44,302,41,1*76
$GBGSV,2,2,07,26,70,196,41,29,30,054,49,35,81,155,43,1*44
$GNRMC,134534.00,A,4843.26068,N,00920.55451,E,0.010,,070225,,,A,V*19
$GNGGA,134534.00,4843.26068,N,00920.55451,E,1,12,0.54,257.8,M,47.6,M,,*43
$GPGSV,2,1,08,04,08,326,34,05,17,087,42,12,06,113,40,16,11,294,36,1*66
$GPGSV,2,2,08,18,39,175,43,20,17,051,46,25,42,118,43,29,74,054,36,1*6B
$GLGSV,2,1,08,68,10,334,33,69,06,020,41,75,22,136,43,76,84,121,42,1*7E
$GLGSV,2,2,08,77,45,319,36,85,32,037,48,86,82,143,41,87,36,207,43,1*74
$GAGSV,2,1,06,02,23,111,45,15,30,178,39,29,,,35,30,,,39,7*72
$GAGSV,2,2,06,34,59,109,40,36,28,044,43,7*7A
$GBGSV,2,1,07,05,16,123,43,08,28,071,42,13,28,080,45,24,44,302,39,1*79
$GBGSV,2,2,07,26,70,196,40,29,30,054,49,35,81,155,43,1*45
$GNRMC,134535.00,A,4843.26068,N,00920.55453,E,0.003,,070225,,,A,V*18
$GNGGA,134535.00,4843.26068,N,00920.55453,E,1,12,0.54,257.8,M,47.6,M,,*40
$GPGSV,2,1,08,04,08,326,35,05,17,087,42,12,06,113,40,16,11,294,35,1*64
$GPGSV,2,2,08,18,39,175,42,20,17,051,46,25,42,118,43,29,74,054,32,1*6E
$GLGSV,2,1,08,68,10,334,35,69,06,020,40,75,22,136,43,76,84,121,41,1*7A
$GLGSV,2,2,08,77,45,319,35,85,32,037,48,86,82,143,36,87,36,207,42,1*76
$GAGSV,2,1,06,02,23,111,45,15,30,178,39,29,,,36,30,,,39,7*71
$GAGSV,2,2,06,34,59,109,42,36,28,044,43,7*78
$GBGSV,2,1,07,05,16,123,43,08,28,071,42,13,28,080,45,24,44,302,39,1*79
$GBGSV,2,2,07,26,70,196,39,29,30,054,49,35,81,155,42,1*4A
$GNRMC,134536.00,A,4843.26067,N,00920.55451,E,0.025,,070225,,,A,V*12
$GNGGA,134536.00,4843.26067,N,00920.55451,E,1,12,0.58,257.7,M,47.6,M,,*4D
$GPGSV,2,1,08,04,08,326,32,05,17,087,42,12,06,113,40,16,11,294,35,1*63
$GPGSV,2,2,08,18,39,175,42,20,17,051,45,25,42,118,43,29,74,054,33,1*6C
$GLGSV,2,1,08,68,10,334,29,69,06,020,42,75,21,137,41,76,84,121,42,1*76
$GLGSV,2,2,08,77,45,319,34,85,32,037,48,86,82,143,38,87,36,207,41,1*7A
$GAGSV,2,1,06,02,23,111,45,15,30,178,39,29,,,37,30,,,39,7*70
$GAGSV,2,2,06,34,59,109,41,36,28,044,43,7*7B
$GBGSV,2,1,07,05,16,123,43,08,28,071,42,13,28,080,45,24,44,302,38,1*78
$GBGSV,2,2,07,26,70,196,40,29,30,054,49,35,81,155,42,1*44
$GNRMC,134537.00,A,4843.26065,N,00920.55449,E,0.032,,070225,,,A,V*1E
$GNGGA,134537.00,4843.26065,N,00920.55449,E,1,12,0.58,257.6,M,47.6,M,,*46
$GPGSV,2,1,08,04,08,326,36,05,17,087,42,12,06,113,41,16,11,294,37,1*64
$GPGSV,2,2,08,18,39,175,42,20,17,051,46,25,42,118,43,29,74,054,37,1*6B
$GLGSV,2,1,08,68,10,334,35,69,06,020,40,75,21,137,43,76,83,123,40,1*7C
$GLGSV,2,2,08,77,45,319,33,85,32,037,48,86,82,143,31,87,36,207,41,1*74
$GAGSV,2,1,06,02,23,111,45,15,30,178,39,29,,,34,30,,,37,7*7D
$GAGSV,2,2,06,34,59,109,41,36,28,044,43,7*7B
$GBGSV,2,1,07,05,16,123,43,08,28,071,42,13,28,080,45,24,44,302,39,1*79
$GBGSV,2,2,07,26,70,19640,29,30,054,49,35,81,155,42,1*44
$GNRMC,134538.00,A,4843.26062,N,00920.55444,E,0.043,,070225,,,A,V*1D
$GNGGA,134538.00,4843.26062,N,00920.55444,E,1,12,0.58,257.5,M,47.6,M,,*40
$GPGSV,2,1,08,04,08,326,34,05,17,087,42,12,06,113,41,16,11,294,38,1*69
$GPGSV,2,2,08,18,39,175,43,20,17,051,46,25,42,118,42,29,74,054,37,1*6B
$GLGSV,2,1,08,68,10,334,35,69,06,020,40,75,21,137,38,76,83,123,40,1*70
$GLGSV,2,2,08,77,45,319,24,85,32,037,48,86,82,143,31,87,36,207,41,1*72
$GAGSV,2,1,06,02,23,111,45,15,30,178,41,29,,,30,30,,,39,7*78
$GAGSV,2,2,06,34,59,109,40,36,28,044,43,7*7A
$GBGSV,2,1,07,05,16,123,43,08,28,071,42,13,28,080,45,24,44,302,38,1*78
$GBGSV,2,2,07,26,70,196,40,29,30,054,48,35,81,155,42,1*45
$GNRMC,134539.00,A,4843.26059,N,00920.55440,E,0.043,,070225,,,A,V*10
$GNGGA,134539.00,4843.26059,N,00920.55440,E,1,12,0.58,257.6,M,47.6,M,,*4E
$GPGSV,2,1,08,04,08,326,33,05,17,087,42,12,06,113,42,16,11,294,35,1*60
$GLGSV,2,1,08,68,10,334,39,69,06,020,40,75,21,137,45,76,83,123,42,1*74
$GLGSV,2,2,08,77,45,319,23,85,32,037,48,86,82,143,38,87,36,207,41,1*7C
$GAGSV,2,1,06,02,23,111,44,15,30,178,41,29,,,36,30,,,39,7*7F
$GAGSV,2,2,06,34,59,109,42,36,28,044,43,7*78
$GBGSV,2,1,07,05,16,123,43,08,28,071,42,13,28,080,45,24,44,302,35,1*75
$GBGSV,2,2,07,26,70,196,40,29,30,054,49,35,81,155,42,1*44
$GNRMC,134540.00,A,4843.26056,N,00920.55442,E,0.035,,070225,,,A,V*12
$GNGGA,134540.00,4843.6056,N,00920.55442,E,1,12,0.54,257.6,M,47.6,M,,*41
$GPGSV,2,1,08,04,08,326,35,05,17,087,42,12,06,113,42,16,11,294,36,1*65
$GPGSV,2,2,08,18,39,175,41,20,17,051,46,25,42,118,44,29,74,054,37,1*6F
$GLGSV,2,1,08,68,10,334,40,69,06,020,39,75,21,137,45,76,83,123,41,1*77
$GLGSV,2,2,08,77,45,319,22,85,32,037,48,86,82,143,36,87,36,207,43,1*71
$GAGSV,2,1,06,02,23,111,44,15,30,178,41,29,,38,30,,,39,7*71
$GAGSV,2,2,06,34,59,109,40,36,28,044,43,7*7A
$GBGSV,2,1,07,05,16,123,43,08,28,071,42,13,28,080,45,24,44,302,33,1*73
$GBGSV,2,2,07,26,70,196,40,29,30,054,49,35,81,155,42,1*44
$GNGGA,134541.00,4843.26053,N,00920.55443,E,1,12,0.52,257.7,M,47.6,M,,*43
$GPGSV,2,1,08,04,08,326,33,05,17,087,44,12,06,113,42,16,11,294,35,1*66
$GPGSV,2,2,08,18,39,175,41,20,17,051,46,25,42,118,44,29,74,054,39,1*61
$GLGSV,2,1,08,68,10,334,40,69,06,020,39,75,21,137,45,76,83,123,42,1*74
$GLGSV,2,2,08,77,45,319,20,85,32,037,48,86,82,143,36,87,36,207,41,1*71
$GAGSV,2,1,06,02,23,111,45,15,30,178,41,29,14,279,38,30,,,39,7*49
$GAGSV,2,2,06,34,59,109,40,36,28,044,43,7*7A
$GBGSV,2,1,07,05,16,123,43,08,28,071,42,13,28,080,46,24,44,302,32,1*71
$GBGSV,2,2,07,26,70,196,41,29,30,054,49,35,81,155,42,1*45
$GNRMC,134542.00,A,4843.26050,N,00920.55442,E,0.040,,070225,,,A,V*14
$GNGGA,134542.00,4843.26050,N,00920.55442,E,1,12,0.52,257.8,M,47.6,M,,*4D
$GPGSV,2,1,08,04,08,326,26,05,17,087,42,12,06,113,42,16,11,294,34,1*65
$GPGSV,2,2,08,18,39,175,41,20,17,051,46,25,42,118,43,29,74,054,40,1*68
$GLGSV,2,1,08,68,10,334,32,69,06,020,42,75,21,137,46,76,83,123,40,1*7C
$GLGSV,2,2,08,77,45,319,19,85,32,037,48,86,82,143,38,87,36,207,42,1*76
$GAGSV,2,1,06,02,23,111,44,15,30,178,41,29,14,279,36,30,,,39,7*46
$GAGSV,2,2,06,34,59,109,40,36,28,044,41,7*78
$GBGSV,2,1,07,05,16,123,43,08,28,071,42,13,28,080,46,24,44,302,32,1*71
$GBGSV,2,2,07,26,70,196,41,29,30,054,49,35,81,155,41,1*46
$GNRMC,134543.00,A,4843.26049,N,00920.55442,E,0.019,,070225,,,A,V*11
$GNGGA,134543.00,4843.26049,N,00920.55442,E,1,12,0.52,258.1,M,47.6,M,,*42
$GPGSV,2,1,08,04,08,326,32,05,17,087,43,12,06,113,43,16,11,294,34,1*60
$GPGSV,2,2,08,18,39,175,41,20,17,051,46,25,42,118,43,29,74,054,41,1*69
$GLGSV,2,1,08,68,10,334,36,69,06,020,41,75,21,137,45,76,83,123,42,1*7A
$GLGSV,2,2,08,77,45,319,16,85,32,037,49,86,82,143,40,87,36,207,42,1*77
$GAGSV,2,1,06,02,23,111,44,15,30,178,41,29,14,279,39,30,,,39,7*49
$GAGSV,2,2,06,34,59,109,41,36,28,044,43,7*7B
$GBGSV,2,1,07,05,16,123,43,08,28,071,42,13,28,080,45,24,44,302,31,1*71
$GBGSV,2,2,07,26,70,196,41,29,30,054,49,35,81,155,42,1*45
$GNRMC,134544.00,A,4843.26048,N,00920.55444,E,0.012,,070225,,,A,V*1A
$GNGGA,134544.00,4843.6048,N,00920.55444,E,1,12,0.52,258.3,M,47.6,M,,*40
$GPGSV,2,1,08,04,08,326,33,05,17,087,43,12,06,113,43,16,11,294,34,1*61
$GPGSV,2,2,08,18,39,175,40,20,17,051,46,25,42,118,43,29,74,054,42,1*6B
$GLGSV,2,1,08,68,10,334,38,69,06,020,42,75,21,137,45,76,83,123,42,1*77
$GLGSV,2,2,08,77,45,319,15,85,32,037,48,86,82,143,38,87,36,207,42,1*7A
$GAGSV,2,1,06,02,23,111,45,15,30,178,42,29,14,279,39,30,,,40,7*45
$GAGSV,2,2,06,34,59,109,38,36,28,044,43,7*75
$GBGSV,2,1,07,05,16,123,43,08,28,071,42,13,28,080,46,24,44,302,31,1*72
$GBGSV,2,2,07,26,70,196,41,29,30,054,49,35,81,155,42,1*45
$GNRMC,134545.00,A,4843.26049,N,00920.55448,E,0.039,,070225,,,A,V*1F
$GNGGA,134545.00,4843.26049,N,00920.55448,E,1,12,0.52,258.6,M,47.6,M,,*49
$GPGSV,2,1,08,04,08,326,33,05,17,087,43,12,06,113,44,16,11,294,34,1*66
$GPGSV,2,2,08,18,39,175,39,20,17,051,46,25,42,118,43,29,74,054,42,1*65
$GLGSV,2,1,08,68,10,334,38,69,06,020,42,75,21,137,45,76,83,123,42,1*77
$GLGSV,2,2,08,77,45,319,15,85,32,037,48,86,82,141,38,87,36,207,42,1*78
$GAGSV,2,1,06,02,23,111,45,15,30,178,41,29,14,279,39,30,,,39,7*48
$GAGSV,2,2,06,34,59,109,39,36,28,044,43,7*74
$GBGSV,2,1,07,05,16,123,43,08,28,071,42,13,28,080,45,24,44,302,30,1*70
$GBGSV,2,2,07,26,70,196,42,29,30,054,49,35,81,155,42,1*46
$GNGGA,134546.00,4843.26047,N,00920.55447,E,1,12,0.54,258.7,M,47.6,M,,*4C
$GPGSV,2,1,08,04,08,326,33,05,17,087,43,12,06,113,44,16,11,294,33,1*61
$GPGSV,2,2,08,18,39,175,40,20,17,051,46,25,42,118,43,29,74,054,40,1*69
$GLGSV,2,1,08,68,10,334,38,69,06,020,42,75,21,137,45,76,83,123,40,1*75
$GLGSV,2,2,08,77,45,319,7,85,32,037,48,86,82,141,39,87,36,207,41,1*78
$GAGSV,2,1,06,02,23,111,44,15,30,178,41,29,14,279,38,30,,,39,7*48
$GAGSV,2,2,06,34,59,109,41,36,28,044,43,7*7B
$GBGSV,2,1,07,05,16,123,43,08,28,071,42,13,28,080,45,24,44,302,30,1*70
$GBGSV,2,2,07,26,70,196,42,29,30,054,49,35,81,155,42,1*46
$GNRMC,134547.00,A,4843.26045,N,00920.55442,E,0.132,,070225,,,A,V*11
$GNGGA,134547.00,4843.26045,N,00920.55442,E,1,12,0.54,258.8,M,47.6,M,,*45
$GPGSV,2,1,08,04,08,326,26,05,17,087,42,12,06,113,44,16,11,294,33,1*64
$GPGSV,2,2,08,18,39,175,40,20,17,051,46,25,42,118,44,29,74,054,41,1*6F
$GLGSV,2,1,08,68,10,334,34,69,06,020,43,75,21,137,48,76,83,123,40,1*75
$GLGSV,2,2,08,77,45,319,20,85,32,037,47,86,82,141,38,87,36,207,41,1*72
$GAGSV,2,1,6,02,23,111,43,15,30,178,41,29,14,279,35,30,,,40,7*4C
$GAGSV,2,2,06,34,59,109,41,36,28,044,43,7*7B
$GBGSV,2,1,07,05,16,123,43,08,28,071,42,13,28,080,45,24,44,302,29,1*78
$GBGSV,2,2,07,26,70,196,43,29,30,054,49,35,81,155,42,1*47
$GNGGA,134548.00,4843.26044,N,00920.55438,E,1,12,0.54,258.9,M,47.6,M,,*47
$GPGSV,2,1,08,04,08,326,26,05,17,087,43,12,06,113,44,16,11,294,36,1*60
$GPGSV,2,2,08,18,39,175,42,20,17,051,46,25,42,118,45,29,74,054,42,1*6F
$GLGSV,2,1,08,68,10,334,34,69,06,020,42,75,21,137,41,76,83,123,42,1*7F
$GLGSV,2,2,08,77,45,319,20,85,32,037,48,86,82,141,36,87,36,207,42,1*70
$GAGSV,2,1,06,02,23,111,45,15,30,178,41,29,14,279,36,30,,,39,7*47
$GAGSV,2,2,06,34,59,109,40,36,28,044,43,7*7A
$GBGSV,2,1,07,05,16,123,44,08,28,071,42,13,28,080,45,24,44,302,29,1*7F
$GBGSV,2,2,07,26,70,196,44,29,30,054,49,35,81,155,42,1*40
$GNRMC,134549.00,A,4843.26043,N,00920.55437,E,0.041,,070225,,,A,V*1E
$GNGGA,134549.00,4843.26043,N,00920.55437,E,1,12,0.55,259.0,M,47.6,M,,*47
$GPGSV,2,1,08,04,08,326,33,05,17,087,44,12,06,113,43,16,11,294,31,1*63
$GPGSV,2,2,08,18,39,175,40,20,17,051,46,25,42,118,44,29,74,054,40,1*6E
$GLGSV,2,1,08,68,10,334,35,69,06,020,44,75,21,137,45,76,83,123,41,1*7F
$GLGSV,2,2,08,77,45,319,22,85,32,037,47,86,82,141,38,87,36,207,38,1*7E
$GAGSV,2,1,06,02,23,111,44,15,30,178,41,29,14,279,39,30,76,099,39,7*78
$GAGSV,2,2,06,34,59,109,40,36,28,044,43,7*7A
$GBGSV,2,1,07,05,16,123,43,08,28,071,42,13,28,080,45,24,44,302,30,1*70
$GBGSV,2,2,07,26,70,196,43,29,30,054,49,35,81,155,43,1*46
$GNGGA,134550.00,4843.26042,N,00920.55436,E,1,12,0.54,259.1,M,47.6,M,,*4F
$GPGSV,2,1,08,04,08,326,24,05,17,087,42,12,06,113,45,16,11,294,32,1*66
$GPGSV,2,2,08,18,39,175,42,20,17,051,46,25,42,118,45,29,74,054,40,1*6D
$GLGSV,2,1,08,68,10,334,29,69,06,020,44,75,21,137,47,76,83,123,43,1*72
$GLGSV,2,2,08,77,45,319,23,85,32,037,47,86,82,141,39,87,36,207,40,1*71
$GAGSV,2,1,06,02,23,111,44,15,30,178,42,29,14,279,36,30,76,099,39,7*74
$GAGSV,2,2,06,34,59,109,41,36,28,044,43,7*7B
$GBGSV,2,1,07,05,16,123,43,08,28,071,42,13,28,080,45,24,44,302,31,1*71
$GBGSV,2,2,07,26,70,196,41,29,30,054,48,35,81,155,41,1*47
$GNRMC,134551.00,A,4843.26042,N,00920.55437,E,0.015,,070225,,,A,V*17
$GNGGA,134551.00,4843.26042,N,00920.55437,E,1,12,0.51,259.3,M,47.6,M,,*48
$GPGSV,2,1,08,04,08,326,24,05,17,087,43,12,06,113,42,16,11,294,32,1*60
$GPGSV,2,2,08,18,39,175,44,20,17,051,46,25,42,118,45,29,74,054,39,1*65
$GLGSV,2,1,08,68,10,334,36,69,06,020,42,75,21,137,47,76,83,123,41,1*78
$GLGSV,2,2,08,77,45,319,23,85,32,037,47,86,82,141,41,87,36,207,38,1*71
$GAGSV,2,1,06,02,23,111,44,15,30,178,42,29,14,279,32,30,76,099,38,7*71
$GAGSV,2,2,06,34,59,109,39,36,28,044,42,7*75
$GBGSV,2,1,07,05,16,123,43,08,28,071,42,13,28,080,45,24,44,302,31,1*71
$GBGSV,2,2,07,26,70,196,43,29,30,054,49,35,81,155,42,1*47
$GNRMC,134552.00,A,4843.26042,N,00920.55436,E,0.017,,070225,,,A,V*17
$GNGGA,134552.00,4843.26042,N,00920.55436,E,1,12,0.51,259.3,M,47.6,M,,*4A
$GPGSV,2,1,08,04,08,326,31,05,17,086,42,12,06,113,45,16,11,294,36,1*67
$GPGSV,2,2,08,18,39,175,42,20,17,051,46,25,42,118,44,29,74,054,39,1*62
$GLGSV,2,1,08,68,10,334,30,69,06,020,43,75,21,137,47,76,83,123,44,1*7A
$GLGSV,2,2,08,77,45,319,24,85,32,037,46,86,82,141,39,87,36,207,40,1*77
$GAGSV,2,1,06,02,23,111,45,15,30,178,42,29,14,279,35,30,76,099,39,7*76
$GAGSV,2,2,06,34,59,109,39,36,28,044,43,7*74
$GBGSV,2,1,07,05,16,123,43,08,28,071,42,13,28,080,45,24,44,302,37,1*77
$GBGSV,2,2,07,26,70,196,42,29,30,054,48,35,81,155,42,1*47
$GNRMC,134553.00,A,4843.26042,N,00920.55433,E,0.030,,070225,,,A,V*16
$GNGGA,134553.00,4843.26042,N,00920.55433,E,1,12,0.51,259.4,M,47.6,M,,*49
$GPGSV,2,1,08,04,08,326,30,05,17,086,44,12,06,113,45,16,11,294,36,1*60
$GPGSV,2,2,08,18,39,175,44,20,17,051,46,25,42,118,44,29,74,054,39,1*64
$GLGSV,2,1,08,68,10,334,34,69,06,020,44,75,21,137,47,76,83,123,43,1*7E
$GLGSV,2,2,08,77,45,319,33,85,32,037,46,86,82,141,36,87,36,207,40,1*7E
$GAGSV,2,1,06,02,23,111,45,15,30,178,42,29,14,279,34,30,76,099,38,7*76
$GAGSV,2,2,06,34,59,109,40,36,28,044,42,7*7B
$GBGSV,2,1,07,05,16,123,43,08,28,071,42,13,28,080,45,24,44,302,40,1*77
$GBGSV,2,2,07,26,70,196,42,29,30,054,49,35,81,155,38,1*4B
$GNRMC,134554.00,A,4843.26044,N,00920.55433,E,0.035,,070225,,,A,V*12
$GNGGA,134554.00,4843.26044,N,00920.55433,E,1,12,0.53,259.5,M,47.6,M,,*4B
$GPGSV,2,1,08,04,08,326,30,05,17,086,44,12,06,113,46,16,11,295,36,1*62
$GPGSV,2,2,08,18,39,175,44,20,17,051,45,25,42,118,44,29,74,054,39,1*67
$GLGSV,2,1,08,68,10,334,33,69,06,020,44,75,21,137,44,76,83,123,43,1*7A
$GLGSV,2,2,08,77,45,319,35,85,32,037,47,86,82,141,39,87,36,207,39,1*78
$GAGSV,2,1,06,02,23,111,45,15,30,178,42,29,14,279,35,30,76,099,38,7*77
$GAGSV,2,2,06,34,59,109,41,36,28,44,42,7*7A
$GBGSV,2,1,07,05,16,123,43,08,28,071,42,13,28,080,45,24,44,302,41,1*76
$GBGSV,2,2,07,26,70,196,42,29,30,054,49,35,81,155,41,1*45
$GNRMC,134555.00,A,4843.26047,N,00920.55433,E,0.038,,070225,,,A,V*1D
$GNGGA,134555.00,4843.26047,N,00920.55433,E,1,12,0.53,259.7,M,47.6,M,,*4B
$GPGSV,2,1,08,04,08,326,29,05,17,086,44,12,6,113,46,16,11,295,36,1*6A
$GPGSV,2,2,08,18,40,175,44,20,17,051,45,25,42,118,45,29,74,054,39,1*68
$GLGSV,2,1,08,68,10,334,32,69,06,020,44,75,21,137,45,76,83,123,42,1*7B
$GLGSV,2,2,08,77,45,319,35,85,32,037,47,86,82,141,39,87,36,207,38,1*79
$GAGSV,2,1,06,02,23,111,44,15,30,178,42,29,14,279,35,30,76,099,40,7*79
$GAGSV,2,2,06,34,59,109,43,36,28,044,42,7*78
$GBGSV,2,1,07,05,16,123,43,08,28,071,42,13,28,080,45,24,44,302,41,1*76
$GBGSV,2,2,07,26,70,196,42,29,30,054,49,35,81,155,41,1*45
$GNRMC,134556.00,A,4843.26050,N,00920.55436,E,0.014,,070225,,,A,V*13
$GNGGA,134556.00,4843.26050,N,00920.55436,E,1,12,0.51,259.8,M,47.6,M,,*46
$GPGSV,2,1,08,04,08,326,31,05,17,086,44,12,06,113,47,16,11,295,38,1*6C
$GPGSV,2,2,08,18,40,175,45,20,17,050,45,25,42,118,44,29,74,054,38,1*68
$GLGSV,2,1,08,68,10,334,24,69,06,020,41,75,21,137,46,76,83,23,43,1*7B
$GLGSV,2,2,08,77,45,319,34,85,32,037,46,86,82,141,36,87,36,207,38,1*76
$GAGSV,2,1,06,02,23,111,44,15,30,178,42,29,1,279,35,30,76,099,39,7*77
$GAGSV,2,2,06,34,59,109,40,36,28,044,43,7*7A
$GBGSV,2,1,07,05,16,123,43,08,28,071,42,13,28,080,45,24,44,302,40,1*77
$GBGSV,2,2,07,26,70,196,42,29,30,054,48,35,81,155,41,1*44
$GNRMC,134557.00,A,4843.26054,N,00920.55438,E,0.003,,070225,,,A,V*1E
$GNGGA,134557.00,4843.26054,N,00920.55438,E,1,12,0.53,259.9,M,47.6,M,,*4E
$GPGSV,2,1,08,04,08,326,31,05,17,086,44,12,06,113,47,16,11,295,33,1*67
$GPGSV,2,2,08,18,40,175,45,20,17,050,45,25,42,118,44,29,74,054,38,1*68
$GLGSV,2,1,08,68,10,334,37,69,06,020,42,75,21,137,47,76,83,123,44,1*7C
$GLGSV,2,2,08,77,45,319,36,85,32,037,46,86,82,141,4,87,36,207,39,1*74
$GAGSV,2,1,06,02,23,111,44,15,30,178,42,29,14,279,35,30,76,099,39,7*77
$GAGSV,2,2,06,34,59,109,40,36,28,044,43,7*7A
$GBGSV,2,1,07,05,16,123,42,08,28,071,42,13,28,080,45,24,44,302,40,1*76
$GBGSV,2,2,07,26,70,196,42,29,30,054,48,35,81,155,41,1*44
$GNRMC,134558.00,A,4843.26057,N,00920.55441,E,0.021,,070225,,,A,V*1C
$GNGGA,134558.00,4843.26057,N,00920.55441,E,1,12,0.51,260.0,M,47.6,M,,*4D
$GPGSV,2,1,08,04,08,326,29,05,17,086,44,12,06,113,47,16,11,295,37,1*6A
$GPGSV,2,2,08,18,40,175,45,20,17,050,45,25,41,118,45,29,74,054,39,1*6B
$GLGSV,2,1,08,68,10,334,33,69,06,020,44,75,21,137,46,76,83,123,44,1*7F
$GLGSV,2,2,08,77,45,319,34,85,32,037,47,86,82,141,38,87,36,207,37,1*76
$GAGSV,2,1,06,02,23,111,43,15,30,178,42,29,14,279,35,30,76,099,38,7*71
$GAGSV,2,2,06,34,59,109,40,36,28,044,43,7*7A
$GBGSV,2,1,07,05,16,123,43,08,28,071,42,13,8,080,45,24,44,302,40,1*77
$GBGSV,2,2,07,26,70,196,41,29,30,054,48,35,81,155,42,1*44
$GNRMC,134559.00,A,4843.26062,N,00920.55445,E,0.026,,070225,,,A,V*18
$GNGGA,134559.00,4843.26062,N,00920.55445,E,1,12,0.53,260.1,M,47.6,M,,*4D
$GPGSV,2,1,08,04,08,326,29,05,17,086,44,12,06,113,46,16,11,295,37,1*6B
$GPGSV,2,2,08,18,40,175,46,20,17,050,45,25,41,118,43,29,73,054,41,1*66
$GLGSV,2,1,08,68,10,334,32,69,06,020,45,75,21,137,48,76,83,123,43,1*76
$GLGSV,2,2,08,77,45,319,34,85,32,037,46,86,82,141,38,87,36,207,39,1*79
$GAGSV,2,1,06,02,23,111,43,15,30,178,42,29,14,279,36,30,76,099,39,7*73
$GAGSV,2,2,06,34,59,109,40,36,28,044,43,7*7A
$GBGSV,2,1,07,05,16,123,43,08,28,071,42,13,28,080,45,24,44,302,40,1*77
$GBGSV,2,2,07,26,70,196,42,29,30,054,48,35,81,155,42,1*47
$GNRMC,134600.00,A,4843.26066,N,00920.55452,E,0.013,,070225,,,A,V*13
$GNGGA,134600.00,4843.26066,N,00920.55452,E,1,12,0.51,260.2,M,47.6,M,,*41
$GPGSV,2,1,08,04,08,326,33,05,17,086,44,12,06,113,46,16,11,295,36,1*61
$GPGSV,2,2,08,18,40,175,46,20,17,050,45,25,41,118,45,29,73,054,39,1*6F
$GLGSV,2,1,08,68,10,334,34,69,06,020,43,75,21,137,49,76,83,123,41,1*75
$GLGSV,2,2,08,77,45,319,33,85,32,037,46,86,82,141,34,87,36,207,39,1*72
$GAGSV,2,1,06,02,23,111,43,15,30,178,42,29,14,279,36,30,76,099,39,7*73
$GAGSV,2,2,06,34,59,109,40,36,28,044,43,7*7A
$GBGSV,2,1,07,05,16,123,43,08,28,071,42,13,28,080,45,24,44,302,37,1*77
$GBGSV,2,2,07,26,70,196,42,29,30,054,48,35,81,155,42,1*47
$GNRMC,134601.00,A,4843.26070,N,00920.55457,E,0.010,,070225,,,A,V*13
$GNGGA,134601.00,4843.26070,N,00920.55457,E,1,12,0.51,260.3,M,47.6,M,,*43
$GPGSV,2,1,08,04,08,326,32,05,17,086,43,12,06,113,47,16,11,295,35,1*65
$GPGSV,2,2,08,18,40,175,47,20,17,050,45,25,41,118,45,29,73,054,39,1*6E
$GLGSV,2,1,08,68,10,334,35,69,06,020,42,75,21,137,48,76,83,123,43,1*76
$GLGSV,2,2,08,77,45,319,27,85,32,037,47,86,82,141,40,87,36,207,37,1*7B
$GAGSV,2,1,06,02,23,111,44,15,30,178,43,29,14,279,37,30,76,099,38,7*75
$GAGSV,2,2,06,34,59,109,40,36,28,044,43,7*7A
$GBGSV,2,1,07,05,16,123,43,08,28,071,42,13,28,080,45,24,44,302,34,1*74
$GBGSV,2,2,07,26,70,196,42,29,30,054,48,35,81,155,41,1*44
$GNRMC,134602.00,A,4843.26074,N,00920.55462,E,0.019,,070225,,,A,V*1B
$GNGGA,134602.00,4843.26074,N,00920.55462,E,1,12,0.51,260.5,M,47.6,M,,*44
$GPGSV,2,1,08,04,08,326,32,05,17,086,44,12,06,113,47,16,11,295,35,1*62
$GPGSV,2,2,08,18,40,175,48,20,17,050,45,25,41,118,45,29,73,054,39,1*61
$GLGSV,2,1,08,68,10,334,36,69,06,020,43,75,21,137,49,76,83,123,45,1*73
$GLGSV,2,2,08,77,45,319,28,85,32,037,46,86,82,141,41,87,36,207,34,1*77
$GAGSV,2,1,06,02,22,111,43,15,30,178,42,29,14,279,37,30,76,099,38,7*72
$GAGSV,2,2,06,34,59,109,41,36,28,44,43,7*7B
$GBGSV,2,1,07,05,16,123,43,08,28,071,42,13,28,080,45,24,44,302,35,1*75
$GBGSV,2,2,07,26,70,196,42,29,30,054,48,35,81,155,41,1*44
$GNRMC,134603.00,A,4843.26078,N,00920.55466,E,0.012,,070225,,,A,V*19
$GNGGA,134603.00,4843.26078,N,00920.55466,E,1,12,0.51,260.6,M,47.6,M,,*4E
$GPGSV,2,1,08,04,08,326,30,05,17,086,44,12,06,113,46,16,11,295,36,1*62
$GPGSV,2,2,08,18,40,175,48,20,17,050,45,25,41,118,45,29,73,054,39,1*61
$GLGSV,2,1,08,68,10,334,35,69,06,020,43,75,21,137,49,76,83,123,43,1*76
$GLGSV,2,2,08,77,45,319,30,85,32,037,46,86,82,141,41,87,36,207,37,1*7D
$GAGSV,2,1,06,02,22,111,43,15,30,178,42,29,14,279,37,30,76,099,39,7*73
$GAGSV,2,2,06,34,59,109,41,36,28,044,43,7*7B
$GBGSV,2,1,07,05,16,123,43,08,28,071,42,13,28,080,45,24,44,302,35,1*75
$GBGSV,2,2,07,26,70,196,42,29,30,054,47,35,81,155,41,1*4B
$GNRMC,134604.00,A,4843.26082,N,00920.55470,E,0.044,,070225,,,A,V*1F
$GNGGA,134604.00,4843.26082,N,00920.55470,E,1,12,0.51,260.8,M,47.6,M,,*45
$GPGSV,2,1,08,04,08,326,29,05,17,086,42,12,06,113,47,16,11,295,37,1*6C
$GPGSV,2,2,08,18,40,175,47,20,17,050,45,25,41,118,46,29,73,054,40,1*63
$GLGSV,2,1,08,68,10,334,37,69,06,020,41,75,21,137,49,76,83,123,43,1*76
$GLGSV,2,2,08,77,45,319,35,85,32,037,46,86,82,141,40,87,36,207,36,1*78
$GAGSV,2,1,06,02,22,111,43,15,30,178,42,29,14,279,37,30,76,099,40,7*7D
$GAGSV,2,2,06,34,59,109,41,36,28,044,43,7*7B
$GBGSV,2,1,07,05,16,13,44,08,28,071,42,13,28,080,44,24,44,302,34,1*72
$GBGSV,2,2,07,26,70,196,42,29,30,054,48,35,81,155,41,1*44
$GNRMC,134605.00,A,4843.26087,N,00920.55477,E,0.026,,070225,,,A,V*18
$GNGGA,134605.00,4843.26087,N,00920.55477,E,1,12,0.51,260.9,M,47.6,M,,*47
$GPGSV,2,1,08,04,08,326,30,05,17,086,43,12,06,113,47,16,11,295,33,1*61
$GPGSV,2,2,08,18,40,175,48,20,17,050,45,25,41,118,46,29,73,054,41,1*6D
$GLGSV,2,1,08,68,10,334,37,69,06,020,43,75,21,137,48,76,83,123,44,1*72
$GLGSV,2,2,08,77,45,319,33,85,32,037,46,86,82,141,40,87,36,207,40,1*7F
$GAGSV,2,1,06,02,22,111,43,15,30,178,42,29,14,279,37,30,76,099,39,7*73
$GAGSV,2,2,06,34,59,109,41,36,28,044,43,7*7B
$GBGSV,2,1,07,05,16,123,44,08,28,071,42,13,28,080,44,24,44,302,34,1*72
$GBGSV,2,2,07,26,70,196,42,29,30,054,48,35,81,155,40,1*45
$GNRMC,134606.00,A,4843.26091,N,00920.55485,E,0.025,,070225,,,A,V*12
$GNGGA,134606.00,4843.26091,N,00920.55485,E,1,12,0.51,261.0,M,47.6,M,,*46
$GPGSV,2,1,08,04,08,326,29,05,17,086,44,12,06,113,47,16,11,295,34,1*69
$GPGSV,2,2,08,18,40,175,48,20,17,050,45,25,41,118,46,29,73,054,41,1*6D
$GLGSV,2,1,08,68,10,334,40,69,06,020,41,75,21,137,48,76,83,123,43,1*77
$GLGSV,2,2,08,77,45,319,33,85,32,037,46,86,82,141,40,87,36,207,40,1*7F
$GAGSV,2,1,06,02,22,111,42,15,30,178,41,29,14,279,38,30,76,099,40,7*70
$GAGSV,2,2,06,34,59,109,40,36,28,044,43,7*7A
$GBGSV,2,1,07,05,16,123,44,08,28,071,42,13,28,080,44,24,44,302,34,1*72
$GBGSV,2,2,07,26,70,196,43,29,30,054,48,35,81,155,42,1*46
$GNRMC,134607.00,A,4843.26094,N,00920.55489,E,0.024,,070225,,,A,V*1B
$GNGGA,134607.00,4843.26094,N,00920.55489,E,1,12,0.54,261.0,M,47.6,M,,*4B
$GPGSV,2,1,08,04,08,326,29,05,17,086,44,12,06,113,48,16,11,295,35,1*67
$GPGSV,2,2,08,18,40,175,48,20,17,050,45,25,41,118,44,29,73,054,43,1*6D
$GLGSV,2,1,08,68,10,334,40,69,06,020,42,75,21,137,49,76,83,123,44,1*72
$GLGSV,2,2,08,77,45,319,32,85,32,037,48,86,82,141,38,87,36,207,41,1*7E
$GAGSV,2,1,06,02,22,111,42,15,30,178,42,29,14,279,37,30,76,099,38,7*73
$GAGSV,2,2,06,34,59,109,42,36,28,044,43,7*78
$GBGSV,2,1,07,05,16,123,44,08,28,071,42,13,28,080,44,24,44,302,33,1*75
$GBGSV,2,2,07,26,70,196,43,29,30,054,48,35,81,155,42,1*46
$GNRMC,134608.00,A,4843.26096,N,00920.55493,E,0.016,,070225,,,A,V*1C
$GNGGA,134608.00,4843.26096,N,00920.55493,E,1,12,0.51,261.1,M,47.6,M,,*49
$GPGSV,3,1,09,04,08,326,30,05,17,086,44,12,06,113,48,16,11,295,34,1*6E
$GPGSV,3,2,09,18,40,175,48,20,17,050,45,25,41,118,45,26,39,298,,1*68
$GPGSV,3,3,09,29,73,054,41,1*56
$GLGSV,2,1,08,68,10,334,39,69,06,020,41,75,21,137,50,76,83,123,43,1*70
$GLGSV,2,2,08,77,45,319,32,85,32,037,47,86,82,141,40,87,36,207,40,1*7F
$GAGSV,2,1,06,02,22,111,42,15,31,178,42,29,14,279,38,30,76,099,39,7*7C
$GAGSV,2,2,06,34,59,109,41,36,28,044,43,7*7B
$GBGSV,2,1,07,05,16,123,44,08,28,071,42,13,28,080,44,24,44,302,33,1*75
$GBGSV,2,2,07,6,70,196,43,29,30,054,48,35,81,155,42,1*46
$GNRMC,134609.00,A,4843.26099,N,00920.55497,E,0.011,,070225,,,A,V*11
$GNGGA,134609.00,4843.26099,N,00920.55497,E,1,12,0.51,261.2,M,47.6,M,,*40
$GPGSV,3,1,09,04,08,326,30,05,17,086,44,12,06,113,48,16,11,295,34,1*6E
$GPGSV,3,2,09,18,40,175,48,20,17,050,45,25,41,118,45,26,39,298,,1*68
$GPGSV,3,3,09,29,73,054,41,1*56
$GLGSV,2,1,08,68,10,334,40,69,06,020,41,75,21,137,49,76,83,123,45,1*70
$GLGSV,2,2,08,77,45,319,33,85,32,037,47,86,82,141,40,87,36,207,38,1*71
$GAGSV,2,1,06,02,22,111,42,15,31,178,42,29,14,279,38,30,76,099,39,7*7C
$GAGSV,2,2,06,34,59,109,41,36,28,044,42,7*7A
